TimeStamp[ms];Prox[Cm];Lux[lux];AccX[m/s^2];AccY[m/s^2];AccZ[m/s^2];GyroX[rad/s];GyroY[rad/s];GyroZ[rad/s];MagnX[uT];MagnY[uT];MagnZ[uT];OrienYaw[degrees];OrienPitch[degrees];OrienRoll[degrees];Press[Pa];Temp[C°];Batt[%];Lat;Lng;Speed[m/s]
1531048855687;-;-;-0.086220704;1.2070899;9.833951;0.07594665;0.001158156;-0.021408325;-15.3;36.45;-39.0;21.65951;-6.992674;-1.0875071;1020.7338;-;-;51.52527153;-0.13344369;2.4600000381469727
1531048855687;-;-;-0.086220704;1.2070899;9.833951;0.07594665;0.001158156;-0.021408325;-15.3;36.45;-39.0;21.65951;-6.992674;-1.0875071;1020.7338;-;-;51.52527153;-0.13344369;2.4600000381469727
1531048855704;-;-;0.100590825;1.2645704;9.666299;0.04239082;-0.04518085;-0.018212533;-14.400001;35.7;-38.100002;21.644138;-7.0496855;-1.1996152;1020.7338;-;-;51.52527153;-0.13344369;2.4600000381469727
1531048855704;-;-;0.100590825;1.2645704;9.666299;0.04239082;-0.04518085;-0.018212533;-14.400001;35.7;-38.100002;21.644138;-7.0496855;-1.1996152;1020.7338;-;-;51.52527153;-0.13344369;2.4600000381469727
1531048855712;-;-;0.06227051;1.2837305;9.666299;0.031205542;-0.05956192;-0.010223049;-15.6;36.15;-39.0;21.656435;-7.1376863;-1.2438172;1020.7338;-;-;51.52527153;-0.13344369;2.4600000381469727
1531048855721;-;-;0.0;1.341211;9.623189;-2.1975941E-4;-0.06701877;-0.019810429;-15.6;36.15;-39.0;21.656435;-7.1376863;-1.2438172;1020.7338;-;-;51.52527153;-0.13344369;2.4600000381469727
1531048855732;-;-;-0.20597169;1.336421;9.656719;-0.023655578;-0.059029285;-0.013951475;-14.85;34.5;-38.25;21.6772;-7.1902404;-1.1968251;1020.7338;-;-;51.52527153;-0.13344369;2.4600000381469727
1531048855742;-;-;-0.78556645;1.1639795;9.474698;-0.07904933;0.020332918;0.032387532;-14.85;34.5;-38.25;21.6772;-7.1902404;-1.1968251;1020.7338;-;-;51.52527153;-0.13344369;2.4600000381469727
1531048855752;-;-;-0.028740235;1.3172607;9.484278;-0.11899675;0.10129302;0.061149668;-15.450001;36.300003;-38.850002;21.6772;-7.1902404;-1.1968251;1020.7338;-;-;51.52527153;-0.13344369;2.4600000381469727
1531048855762;-;-;0.1820215;1.341211;9.977652;-0.15894416;0.09916249;0.014278034;-15.450001;36.300003;-38.850002;21.707333;-7.1915526;-1.1288384;1020.7258;-;-;51.52527153;-0.13344369;2.4600000381469727
1531048855772;-;-;0.023950197;1.2310401;10.207574;-0.15361783;0.074661404;0.007886447;-15.450001;36.0;-39.300003;21.679293;-7.100317;-1.156495;1020.7258;-;-;51.52527153;-0.13344369;2.4600000381469727
1531048855782;-;-;-0.34967285;1.1304493;10.854229;-0.072125115;-0.056366127;0.032920163;-15.450001;36.0;-39.300003;21.679293;-7.100317;-1.156495;1020.7258;-;-;51.52527153;-0.13344369;2.4600000381469727
1531048855793;-;-;-0.23950197;1.1448194;10.710527;-0.02791623;-0.07873394;0.045714278;-14.250001;35.850002;-41.550003;21.679293;-7.100317;-1.156495;1020.7258;-;-;51.52527153;-0.13344369;2.4600000381469727
1531048855802;-;-;0.22513184;1.3124708;10.279425;0.02694489;-0.036655992;0.045714278;-14.250001;35.850002;-41.550003;21.642492;-6.9268255;-1.2586327;1020.7258;-;-;51.52527153;-0.13344369;2.4600000381469727
1531048855812;-;-;0.31135255;1.341211;10.049502;0.039728064;0.038445152;0.02920268;-14.700001;36.300003;-38.850002;21.614086;-6.82892;-1.2208397;1020.7258;-;-;51.52527153;-0.13344369;2.4600000381469727
1531048855822;-;-;0.19639161;1.3076807;9.718989;0.03386911;0.13591686;-0.019799484;-14.700001;36.300003;-38.850002;21.614086;-6.82892;-1.2208397;1020.7258;-;-;51.52527153;-0.13344369;2.4600000381469727
1531048855832;-;-;-0.19639161;1.2070899;9.489068;-7.5198594E-4;0.20036535;-0.030452128;-14.250001;36.45;-39.0;21.564539;-6.857894;-1.1862787;1020.7258;-;-;51.52527153;-0.13344369;2.4600000381469727
1531048855842;-;-;-0.27303225;1.0873389;8.909473;-0.07904892;0.23498645;0.02440899;-14.250001;36.45;-39.0;21.564539;-6.857894;-1.1862787;1020.7258;-;-;51.52527153;-0.13344369;2.4600000381469727
1531048855853;-;-;-0.28261232;1.2502003;8.57896;-0.16799851;0.24936752;0.027072152;-13.950001;34.800003;-39.0;21.5578;-6.887501;-1.3424327;1020.7258;-;-;51.52527153;-0.13344369;2.4600000381469727
1531048855863;-;-;-0.38320315;1.4130616;8.737032;-0.3166029;0.21208327;0.03879006;-13.950001;34.800003;-39.0;21.5578;-6.887501;-1.3424327;1020.7255;-;-;51.52527153;-0.13344369;2.4600000381469727
1531048855873;-;-;-0.56522465;1.3843213;8.387359;-0.42632514;0.22699696;0.06968273;-14.1;36.600002;-38.850002;21.520388;-6.8062096;-1.598217;1020.7255;-;-;51.52527153;-0.13344369;2.4600000381469727
1531048855883;-;-;0.60833496;0.50774413;10.317744;-0.50462204;-0.1591614;0.04358375;-14.1;36.600002;-38.850002;21.520388;-6.8062096;-1.598217;1020.7255;-;-;51.52527153;-0.13344369;2.4600000381469727
1531048855894;-;-;0.852627;0.42152345;10.6817875;-0.443902;-0.28379735;-9.209197E-5;-14.700001;36.600002;-38.850002;21.442154;-6.4681463;-1.8657799;1020.7255;-;-;51.52527153;-0.13344369;2.4600000381469727
1531048855904;-;-;0.6610254;0.57001466;11.294912;-0.24309964;-0.29178685;-0.040572144;-14.700001;36.600002;-38.850002;21.442154;-6.4681463;-1.8657799;1020.7255;-;-;51.52527153;-0.13344369;2.4600000381469727
1531048855914;-;-;0.56522465;0.8765772;11.534414;-0.03750361;-0.29178685;-0.08371535;-14.700001;37.350002;-40.050003;21.394367;-5.908729;-1.7742878;1020.7255;-;-;51.52527153;-0.13344369;2.4600000381469727
1531048855925;-;-;0.28261232;0.8286768;11.247012;0.20750722;-0.26036155;-0.13804384;-14.700001;37.350002;-40.050003;21.394367;-5.908729;-1.7742878;1020.7255;-;-;51.52527153;-0.13344369;2.4600000381469727
1531048855935;-;-;0.019160157;0.92926764;10.97398;0.31563157;-0.20177197;-0.14922912;-14.250001;36.9;-39.45;21.468466;-5.5869184;-1.4403741;1020.7255;-;-;51.52527153;-0.13344369;2.4600000381469727
1531048855945;-;-;-0.29698244;0.97237796;10.605147;0.42588642;-0.13359505;-0.14017437;-14.250001;36.9;-39.45;21.468466;-5.5869184;-1.4403741;1020.7255;-;-;51.52527153;-0.13344369;2.4600000381469727
1531048855955;-;-;-0.3305127;1.0442286;10.418335;0.45624647;-0.09737607;-0.12632594;-14.700001;37.050003;-39.600002;21.634317;-5.719184;-1.1431029;1020.7255;-;-;51.52527153;-0.13344369;2.4600000381469727
1531048855965;-;-;-0.40715334;0.9436377;10.265054;0.5015202;-0.008959117;-0.10448801;-14.700001;37.050003;-39.600002;21.634317;-5.719184;-1.1431029;1020.71826;-;-;51.52527153;-0.13344369;2.4600000381469727
1531048855975;-;-;-0.44547364;1.0154883;10.049502;0.49725914;-0.007893853;-0.077323765;-13.950001;35.4;-38.7;21.81726;-6.1609344;-0.98418003;1020.71826;-;-;51.52527153;-0.13344369;2.4600000381469727
1531048855986;-;-;-0.31135255;1.0777588;9.881851;0.47062755;-0.029731775;-0.053355318;-13.950001;35.4;-38.7;21.81726;-6.1609344;-0.98418003;1020.71826;-;-;51.52527153;-0.13344369;2.4600000381469727
1531048855996;-;-;-0.05269043;1.1543995;9.848321;0.44293067;-0.07447288;-0.043235302;-14.85;36.9;-39.9;21.939478;-6.7268953;-0.9734404;1020.71826;-;-;51.52527153;-0.13344369;2.4600000381469727
1531048856006;-;-;0.033530276;1.0633887;9.766891;0.40245062;-0.11868136;-0.044300567;-14.85;36.9;-39.9;21.939478;-6.7268953;-0.9734404;1020.71826;-;-;51.52527153;-0.13344369;2.4600000381469727
1531048856016;-;-;0.17244141;1.1304493;9.82437;0.3688948;-0.14051928;-0.030452128;-15.3;35.4;-40.2;22.010612;-7.2828126;-0.9621688;1020.71826;-;-;51.52527153;-0.13344369;2.4600000381469727
1531048856026;-;-;0.05269043;1.1639795;10.025552;0.34545895;-0.1905867;-0.025658438;-15.3;35.4;-40.2;22.010612;-7.2828126;-0.9621688;1020.71826;-;-;51.52527153;-0.13344369;2.4600000381469727
1531048856036;-;-;0.033530276;1.2406201;10.183623;0.36516637;-0.1905867;-0.016071059;-14.1;34.65;-39.600002;22.068287;-7.76103;-0.8542339;1020.71826;-;-;51.52527153;-0.13344369;2.4600000381469727
1531048856046;-;-;0.14849122;1.3507911;10.078242;0.37635162;-0.19165197;0.00523423;-14.1;34.65;-39.600002;22.068287;-7.76103;-0.8542339;1020.71826;-;-;51.52527153;-0.13344369;2.4600000381469727
1531048856057;-;-;0.25387207;1.4322218;9.972861;0.38487375;-0.17354247;0.002038437;-14.1;36.300003;-38.850002;22.116432;-8.164769;-0.66514295;1020.7235;-;-;51.52527153;-0.13344369;2.4600000381469727
1531048856067;-;-;0.39757326;1.5950831;9.867481;0.38327587;-0.14584559;0.017484771;-14.1;36.300003;-38.850002;22.116432;-8.164769;-0.66514295;1020.7235;-;-;51.52527153;-0.13344369;2.4600000381469727
1531048856077;-;-;0.45984375;1.575923;9.570498;0.3577095;-0.14957403;0.019615302;-15.750001;35.25;-39.600002;22.149107;-8.59222;-0.45152372;1020.7235;-;-;51.52527153;-0.13344369;2.4600000381469727
1531048856087;-;-;0.57001466;1.6669337;9.422008;0.32415366;-0.2102941;0.022278462;-15.750001;35.25;-39.600002;22.149107;-8.59222;-0.45152372;1020.7235;-;-;51.52527153;-0.13344369;2.4600000381469727
1531048856097;-;-;0.57001466;1.695674;9.096285;0.27941257;-0.28166682;0.0073647588;-15.3;35.4;-38.25;22.166016;-9.032082;-0.2655411;1020.7235;-;-;51.52527153;-0.13344369;2.4600000381469727
1531048856107;-;-;0.68976563;1.6573536;8.957374;0.2288125;-0.32853848;-0.022995276;-15.3;35.4;-38.25;22.166016;-9.032082;-0.2655411;1020.7235;-;-;51.52527153;-0.13344369;2.4600000381469727
1531048856118;-;-;0.6562354;1.7244141;8.928633;0.17288612;-0.3503764;-0.051224787;-15.450001;35.25;-37.65;22.179565;-9.428668;-0.068479806;1020.7235;-;-;51.52527153;-0.13344369;2.4600000381469727
1531048856127;-;-;0.87178713;1.1543995;9.067544;0.10950289;-0.340789;-0.06826902;-15.450001;35.25;-37.65;22.179565;-9.428668;-0.068479806;1020.7235;-;-;51.52527153;-0.13344369;2.4600000381469727
1531048856137;-;-;0.100590825;1.954336;9.010064;0.07541443;-0.27314472;-0.04962689;-14.55;34.800003;-38.7;22.240528;-9.729695;0.26580992;1020.7235;-;-;51.52527153;-0.13344369;2.4600000381469727
1531048856147;-;-;0.51732427;1.9208057;8.349038;-0.040699404;0.0038240561;-0.045898464;-14.55;34.800003;-38.7;22.240528;-9.729695;0.26580992;1020.7235;-;-;51.52527153;-0.13344369;2.4600000381469727
1531048856157;-;-;-0.07185059;1.6573536;9.144185;-0.099821575;0.08212099;-0.05388795;-14.250001;34.050003;-39.45;22.371178;-9.906497;0.63744974;1020.72375;-;-;51.52527153;-0.13344369;2.4600000381469727
1531048856167;-;-;-0.047900394;1.5232325;9.474698;-0.15894376;0.039510414;0.024941623;-14.250001;34.050003;-39.45;22.371178;-9.906497;0.63744974;1020.72375;-;-;51.52527153;-0.13344369;2.4600000381469727
1531048856177;-;-;0.5221143;1.8010547;9.685459;-0.19995643;-0.011089646;0.04092059;-15.750001;35.25;-38.4;22.447962;-9.935145;0.78936535;1020.72375;-;-;51.52527153;-0.13344369;2.4600000381469727
1531048856188;-;-;0.5748047;1.8872755;9.924961;-0.24842598;-0.05742865;0.032398473;-15.750001;35.25;-38.4;22.447962;-9.935145;0.78936535;1020.72375;-;-;51.52527153;-0.13344369;2.4600000381469727
1531048856198;-;-;0.4263135;1.7675245;10.126143;-0.27026388;-0.05636339;0.015354244;-15.3;34.050003;-38.25;22.45347;-9.78813;0.72158563;1020.72375;-;-;51.52527153;-0.13344369;2.4600000381469727
1531048856208;-;-;0.22513184;1.7148341;10.279425;-0.27345967;-0.04038442;0.021213198;-15.3;34.050003;-38.25;22.45347;-9.78813;0.72158563;1020.72375;-;-;51.52527153;-0.13344369;2.4600000381469727
1531048856218;-;-;0.22992188;1.590293;10.332115;-0.25321966;-0.06754866;0.020147933;-15.750001;35.25;-38.850002;22.417114;-9.539262;0.7627424;1020.72375;-;-;51.52527153;-0.13344369;2.4600000381469727
1531048856228;-;-;0.20597169;1.5471827;10.130933;-0.1994238;-0.052102327;0.022811094;-15.750001;35.25;-38.850002;22.417114;-9.539262;0.7627424;1020.72375;-;-;51.52527153;-0.13344369;2.4600000381469727
1531048856239;-;-;0.29698244;1.6142433;10.078242;-0.16853113;-0.049971797;4.4054026E-4;-16.050001;34.2;-38.100002;22.411053;-9.225717;0.82729906;1020.72375;-;-;51.52527153;-0.13344369;2.4600000381469727
1531048856249;-;-;0.2682422;1.695674;10.284214;-0.14669321;-0.0483739;0.012691082;-16.050001;34.2;-38.100002;22.411053;-9.225717;0.82729906;1020.72375;-;-;51.52527153;-0.13344369;2.4600000381469727
1531048856259;-;-;0.2778223;1.5950831;10.298584;-0.12858371;-0.07926657;0.010027921;-14.700001;34.65;-37.65;22.397501;-8.960359;0.8943206;1020.731;-;-;51.52527153;-0.13344369;2.4600000381469727
1531048856269;-;-;0.17723145;1.5663428;10.327325;-0.089168936;-0.112822406;0.013223713;-14.700001;34.65;-37.65;22.397501;-8.960359;0.8943206;1020.731;-;-;51.52527153;-0.13344369;2.4600000381469727
1531048856279;-;-;0.25387207;1.5280225;10.197993;-0.029514126;-0.10802872;0.008430025;-15.900001;33.75;-36.600002;22.400698;-8.772475;0.95047414;1020.731;-;-;51.52527153;-0.13344369;2.4600000381469727
1531048856289;-;-;0.33530274;1.5998731;10.150093;8.4591075E-4;-0.09418028;-0.0011573564;-15.900001;33.75;-36.600002;22.400698;-8.772475;0.95047414;1020.731;-;-;51.52527153;-0.13344369;2.4600000381469727
1531048856299;-;-;0.3305127;1.5280225;9.992022;0.04132579;-0.05476665;-0.0059556765;-16.35;35.100002;-41.100002;22.407137;-8.643496;1.0522197;1020.731;-;-;51.52527153;-0.13344369;2.4600000381469727
1531048856310;-;-;0.1820215;1.5615528;9.905801;0.04878264;-0.044114005;-0.0016946187;-16.800001;34.95;-39.300003;22.417229;-8.616973;1.1663461;1020.731;-;-;51.52527153;-0.13344369;2.4600000381469727
1531048856320;-;-;0.364043;1.5184424;9.623189;0.05570686;-0.03133083;9.685424E-4;-16.800001;34.95;-39.300003;22.417229;-8.616973;1.1663461;1020.731;-;-;51.52527153;-0.13344369;2.4600000381469727
1531048856330;-;-;0.42152345;1.5136524;9.513018;0.04398895;-0.0031013216;9.685424E-4;-15.150001;33.9;-38.100002;22.429472;-8.663764;1.2281495;1020.731;-;-;51.52527153;-0.13344369;2.4600000381469727
1531048856340;-;-;0.4263135;1.6094532;9.532178;0.015759442;0.0666735;-0.02353254;-15.150001;33.9;-38.100002;22.429472;-8.663764;1.2281495;1020.731;-;-;51.52527153;-0.13344369;2.4600000381469727
1531048856350;-;-;0.34967285;1.6286134;9.570498;-0.016731124;0.09916407;-0.032054655;-14.85;33.45;-37.800003;22.429472;-8.663764;1.2281495;1020.731;-;-;51.52527153;-0.13344369;2.4600000381469727
1531048856360;-;-;0.43589357;1.6094532;9.74773;-0.044960633;0.13112201;-0.041642033;-14.85;33.45;-37.800003;22.430462;-8.722226;1.2507901;1020.7272;-;-;51.52527153;-0.13344369;2.4600000381469727
1531048856371;-;-;0.2921924;1.5040723;9.81958;-0.06360276;0.12792622;-0.045903094;-15.900001;33.45;-37.5;22.442715;-8.732089;1.1658128;1020.7272;-;-;51.52527153;-0.13344369;2.4600000381469727
1531048856380;-;-;0.2778223;1.346001;9.766891;-0.06679856;0.13911149;-0.035783082;-15.900001;33.45;-37.5;22.442715;-8.732089;1.1658128;1020.7272;-;-;51.52527153;-0.13344369;2.4600000381469727
1531048856390;-;-;0.1580713;1.341211;9.6758795;-0.06466803;0.14869887;-0.03738098;-16.050001;34.95;-38.4;22.462368;-8.677272;1.0156085;1020.7272;-;-;51.52527153;-0.13344369;2.4600000381469727
1531048856400;-;-;0.23950197;1.3891114;9.551338;-0.077983834;0.14337255;-0.019804114;-16.050001;34.95;-38.4;22.462368;-8.677272;1.0156085;1020.7272;-;-;51.52527153;-0.13344369;2.4600000381469727
1531048856410;-;-;0.2921924;1.4465919;9.560919;-0.103017546;0.109816715;-0.02140201;-15.150001;33.600002;-37.2;22.475698;-8.606887;0.8495901;1020.7272;-;-;51.52527153;-0.13344369;2.4600000381469727
1531048856420;-;-;0.29698244;1.3939015;9.75731;-0.14722602;0.061347175;-0.009684103;-15.150001;33.600002;-37.2;22.475698;-8.606887;0.8495901;1020.7272;-;-;51.52527153;-0.13344369;2.4600000381469727
1531048856431;-;-;0.3065625;1.3843213;9.718989;-0.16906394;0.032052405;-6.2935427E-4;-14.400001;32.850002;-37.65;22.478146;-8.504293;0.7015575;1020.7272;-;-;51.52527153;-0.13344369;2.4600000381469727
1531048856440;-;-;0.25387207;1.2693604;9.800421;-0.18397765;0.007018691;0.018545406;-14.400001;32.850002;-37.65;22.478146;-8.504293;0.7015575;1020.7272;-;-;51.52527153;-0.13344369;2.4600000381469727
1531048856450;-;-;0.244292;1.2789404;9.848321;-0.18610817;0.011812381;0.014816981;-15.3;34.5;-37.800003;22.478146;-8.504293;0.7015575;1020.7272;-;-;51.52527153;-0.13344369;2.4600000381469727
1531048856460;-;-;0.2778223;1.3028907;10.135723;-0.1584113;0.00914922;0.023339096;-15.3;34.5;-37.800003;22.478754;-8.329454;0.6402722;1020.7239;-;-;51.52527153;-0.13344369;2.4600000381469727
1531048856470;-;-;0.25866213;1.2933106;10.269844;-0.12432284;-0.012688702;0.0153496135;-16.95;35.100002;-37.050003;22.462725;-8.121822;0.6308427;1020.7239;-;-;51.52527153;-0.13344369;2.4600000381469727
1531048856480;-;-;0.23471193;1.1687696;10.303374;-0.06839646;-0.03559189;0.028665418;-16.95;35.100002;-37.050003;22.462725;-8.121822;0.6308427;1020.7239;-;-;51.52527153;-0.13344369;2.4600000381469727
1531048856491;-;-;0.2682422;1.1543995;10.087823;-0.018861653;-0.044646636;0.042513855;-17.550001;34.2;-39.300003;22.438961;-7.949147;0.6347528;1020.7239;-;-;51.52527153;-0.13344369;2.4600000381469727
1531048856501;-;-;0.3879932;1.1112891;9.867481;0.046119478;0.011279749;0.04304649;-17.550001;34.2;-39.300003;22.438961;-7.949147;0.6347528;1020.7239;-;-;51.52527153;-0.13344369;2.4600000381469727
1531048856511;-;-;0.51732427;1.1927198;9.656719;0.07381635;0.08531563;0.012153819;-16.050001;35.25;-37.65;22.411325;-7.8834524;0.6851066;1020.7239;-;-;51.52527153;-0.13344369;2.4600000381469727
1531048856521;-;-;0.47900394;1.3028907;9.359736;0.07647951;0.17746101;0.008425394;-16.050001;35.25;-37.65;22.411325;-7.8834524;0.6851066;1020.7239;-;-;51.52527153;-0.13344369;2.4600000381469727
1531048856532;-;-;0.45026368;1.2070899;9.172925;0.033336304;0.20142946;0.023339096;-17.550001;36.0;-39.600002;22.3725;-7.928956;0.6725566;1020.7239;-;-;51.52527153;-0.13344369;2.4600000381469727
1531048856541;-;-;0.38320315;1.2406201;9.034014;-0.06573329;0.20941894;0.010555923;-17.550001;36.0;-39.600002;22.3725;-7.928956;0.6725566;1020.7239;-;-;51.52527153;-0.13344369;2.4600000381469727
1531048856551;-;-;0.21076173;1.2597803;9.326206;-0.1104744;0.1641452;0.012153819;-16.5;35.25;-38.850002;22.334127;-8.005599;0.48305202;1020.7287;-;-;51.52527153;-0.13344369;2.4600000381469727
1531048856561;-;-;0.07185059;1.2310401;9.73815;-0.21060926;-0.01694976;0.048372813;-16.5;35.25;-38.850002;22.334127;-8.005599;0.48305202;1020.7287;-;-;51.52527153;-0.13344369;2.4600000381469727
1531048856572;-;-;0.07185059;1.341211;9.848321;-0.24629562;-0.097377226;0.0728739;-17.1;35.25;-40.5;22.293474;-7.9312835;0.2720422;1020.7287;-;-;51.52527153;-0.13344369;2.4600000381469727
1531048856582;-;-;0.39278322;1.2837305;9.910591;-0.27665564;-0.16661942;0.08405917;-17.1;35.25;-40.5;22.293474;-7.9312835;0.2720422;1020.7287;-;-;51.52527153;-0.13344369;2.4600000381469727
1531048856592;-;-;0.5843848;1.1543995;10.059082;-0.28091672;-0.17034784;0.07180863;-17.25;35.850002;-38.25;22.23808;-7.694329;0.29237583;1020.7287;-;-;51.52527153;-0.13344369;2.4600000381469727
1531048856603;-;-;0.5891748;1.0442286;10.068663;-0.23990403;-0.06701719;0.047840178;-17.25;35.850002;-38.25;22.23808;-7.694329;0.29237583;1020.7287;-;-;51.52527153;-0.13344369;2.4600000381469727
1531048856613;-;-;0.4167334;1.1543995;10.150093;-0.17385763;0.02139976;0.008958026;-16.5;34.2;-39.600002;22.173677;-7.3758783;0.4841656;1020.7287;-;-;51.52527153;-0.13344369;2.4600000381469727
1531048856648;-;-;0.28740236;1.2837305;10.902129;-0.048689056;0.04483558;-0.008086205;-17.25;35.4;-41.100002;22.140589;-7.103956;0.5728689;1020.7261;-;-;51.52527153;-0.13344369;2.4600000381469727
1531048856647;-;-;0.28740236;1.2837305;10.902129;-0.048689056;0.04483558;-0.008086205;-17.25;35.4;-41.100002;22.140589;-7.103956;0.5728689;1020.7261;-;-;51.52527153;-0.13344369;2.4600000381469727
1531048856650;-;-;0.28740236;1.2837305;10.902129;-0.048689056;0.04483558;-0.008086205;-18.0;37.5;-39.0;22.140589;-7.103956;0.5728689;1020.7261;-;-;51.52527153;-0.13344369;2.4600000381469727
1531048856660;-;-;0.29698244;1.2406201;10.916499;0.03440157;-0.019080289;-0.008618837;-18.0;37.5;-39.0;22.134531;-6.953301;0.49858308;1020.7261;-;-;51.52527153;-0.13344369;2.4600000381469727
1531048856664;-;-;0.3161426;1.1543995;10.777588;0.077012144;-0.027602404;-0.011281999;-18.0;37.5;-39.0;22.134531;-6.953301;0.49858308;1020.7261;-;-;51.52527153;-0.13344369;2.4600000381469727
1531048856673;-;-;0.2921924;1.21188;10.518927;0.14785223;-0.0020360572;-0.024065172;-17.550001;34.65;-38.850002;22.14309;-6.8793416;0.4244666;1020.7261;-;-;51.52527153;-0.13344369;2.4600000381469727
1531048856707;-;-;0.047900394;1.2549903;9.833951;0.18087544;0.026726084;-0.01607569;-17.25;37.2;-38.7;22.161188;-6.9384956;0.44255495;1020.7261;-;-;51.52527153;-0.13344369;2.4600000381469727
1531048856706;-;-;0.047900394;1.2549903;9.833951;0.18087544;0.026726084;-0.01607569;-17.25;37.2;-38.7;22.161188;-6.9384956;0.44255495;1020.7261;-;-;51.52527153;-0.13344369;2.4600000381469727
1531048856706;-;-;0.047900394;1.2549903;9.833951;0.18087544;0.026726084;-0.01607569;-17.25;37.2;-38.7;22.161188;-6.9384956;0.44255495;1020.7261;-;-;51.52527153;-0.13344369;2.4600000381469727
1531048856714;-;-;0.038320314;1.3172607;9.862691;0.17075542;0.020334497;-0.009684103;-15.750001;35.7;-40.050003;22.190779;-7.1412897;0.4070189;1020.7261;-;-;51.52527153;-0.13344369;2.4600000381469727
1531048856724;-;-;0.047900394;1.2885206;9.73815;0.14305854;-0.015884494;0.013219083;-15.750001;35.7;-40.050003;22.190779;-7.1412897;0.4070189;1020.7261;-;-;51.52527153;-0.13344369;2.4600000381469727
1531048856734;-;-;0.09580079;1.4322218;9.733359;0.12228588;-0.014286598;0.007892761;-16.95;36.45;-38.7;22.208546;-7.3536057;0.36315405;1020.7261;-;-;51.52527153;-0.13344369;2.4600000381469727
1531048856744;-;-;0.22513184;1.4513819;9.79084;0.0796753;0.029389245;0.01002329;-16.95;36.45;-38.7;22.208546;-7.3536057;0.36315405;1020.7261;-;-;51.52527153;-0.13344369;2.4600000381469727
1531048856755;-;-;0.34488282;1.465752;9.72378;0.046119478;0.07359772;0.014284348;-18.900002;37.350002;-41.25;22.205585;-7.5181885;0.37043732;1020.7261;-;-;51.52527153;-0.13344369;2.4600000381469727
1531048856765;-;-;0.4167334;1.3172607;9.829161;-0.0050132154;0.09117459;0.01694751;-18.900002;37.350002;-41.25;22.205585;-7.5181885;0.37043732;1020.7261;-;-;51.52527153;-0.13344369;2.4600000381469727
1531048856778;-;-;0.32572266;1.3076807;9.671089;-0.024720607;0.09010932;0.022806464;-18.900002;37.350002;-41.25;22.195114;-7.6159506;0.34646228;1020.7261;-;-;51.52527153;-0.13344369;2.4600000381469727
1531048856785;-;-;0.23471193;1.3220508;9.80521;-0.04176484;0.08371773;0.01748014;-18.900002;37.350002;-41.25;22.195114;-7.6159506;0.34646228;1020.7261;-;-;51.52527153;-0.13344369;2.4600000381469727
1531048856796;-;-;0.081430666;1.2549903;9.867481;-0.031644296;0.06294865;0.029744994;-18.900002;36.300003;-40.050003;22.168583;-7.6306877;0.24988262;1020.7261;-;-;51.52527153;-0.13344369;2.4600000381469727
1531048856806;-;-;0.0;1.2406201;9.996812;-0.008208478;0.022468608;0.02921236;-18.900002;36.300003;-40.050003;22.168583;-7.6306877;0.24988262;1020.7261;-;-;51.52527153;-0.13344369;2.4600000381469727
1531048856816;-;-;0.081430666;1.3507911;10.020762;-0.005012685;-0.0014998432;0.053713445;-19.5;37.050003;-40.5;22.132559;-7.596518;0.15816848;1020.7261;-;-;51.52527153;-0.13344369;2.4600000381469727
1531048856827;-;-;0.12454102;1.2597803;10.020762;0.011498915;-0.015880913;0.04785449;-19.5;37.050003;-40.5;22.132559;-7.596518;0.15816848;1020.7261;-;-;51.52527153;-0.13344369;2.4600000381469727
1531048856836;-;-;0.17244141;1.3172607;10.054293;0.018423134;-0.013750384;0.056909237;-17.550001;37.050003;-40.5;22.090532;-7.5742464;0.119633734;1020.7261;-;-;51.52527153;-0.13344369;2.4600000381469727
1531048856846;-;-;0.16765137;1.2406201;9.948912;0.050381064;-0.0036303722;0.049452387;-17.550001;37.050003;-40.5;22.090532;-7.5742464;0.119633734;1020.72284;-;-;51.52527153;-0.13344369;2.4600000381469727
1531048856857;-;-;0.1580713;1.2406201;9.953702;0.075414784;0.0134138595;0.044658694;-18.75;35.100002;-38.7;22.031075;-7.582581;0.14495406;1020.72284;-;-;51.52527153;-0.13344369;2.4600000381469727
1531048856867;-;-;0.05269043;1.2549903;9.843531;0.07701268;0.031523354;0.043593433;-18.75;35.100002;-38.7;22.031075;-7.582581;0.14495406;1020.72284;-;-;51.52527153;-0.13344369;2.4600000381469727
1531048856877;-;-;0.023950197;1.3076807;9.77168;0.07168636;0.048034955;0.025483936;-17.85;36.0;-39.600002;21.972672;-7.630516;0.16020048;1020.72284;-;-;51.52527153;-0.13344369;2.4600000381469727
1531048856887;-;-;0.100590825;1.3076807;9.877061;0.05410949;0.06987287;0.037734475;-17.85;36.0;-39.600002;21.972672;-7.630516;0.16020048;1020.72284;-;-;51.52527153;-0.13344369;2.4600000381469727
1531048856897;-;-;0.17244141;1.2454102;9.829161;0.038130525;0.07679709;0.03134289;-17.550001;36.600002;-39.300003;21.926254;-7.717837;0.14405406;1020.72284;-;-;51.52527153;-0.13344369;2.4600000381469727
1531048856908;-;-;0.15328126;1.2502003;9.857901;0.02002103;0.060285497;0.036669213;-17.550001;36.600002;-39.300003;21.926254;-7.717837;0.14405406;1020.72284;-;-;51.52527153;-0.13344369;2.4600000381469727
1531048856918;-;-;0.1820215;1.336421;9.82437;0.011498915;0.028860195;0.047321856;-18.0;35.4;-39.0;21.880756;-7.7915497;0.08209047;1020.72284;-;-;51.52527153;-0.13344369;2.4600000381469727
1531048856928;-;-;0.20118165;1.341211;9.915381;0.015759973;-9.67211E-4;0.044658694;-18.0;35.4;-39.0;21.880756;-7.7915497;0.08209047;1020.72284;-;-;51.52527153;-0.13344369;2.4600000381469727
1531048856938;-;-;0.244292;1.3268409;9.958491;0.03493473;-0.043045156;0.04838712;-18.0;36.15;-41.100002;21.82473;-7.8250957;0.016093528;1020.72284;-;-;51.52527153;-0.13344369;2.4600000381469727
1531048856949;-;-;0.23950197;1.336421;9.934542;0.045054745;-0.059556756;0.043593433;-18.0;36.15;-41.100002;21.82473;-7.8250957;0.016093528;1020.71967;-;-;51.52527153;-0.13344369;2.4600000381469727
1531048856962;-;-;0.1820215;1.341211;9.915381;0.059435815;-0.06275255;0.036669213;-18.0;36.45;-40.2;21.767462;-7.841522;0.00487366;1020.71967;-;-;51.52527153;-0.13344369;2.4600000381469727
1531048856969;-;-;0.2203418;1.2981006;9.896221;0.07275163;-0.054230433;0.03347342;-18.0;36.45;-40.2;21.767462;-7.841522;0.00487366;1020.71967;-;-;51.52527153;-0.13344369;2.4600000381469727
1531048856980;-;-;0.23471193;1.3172607;9.857901;0.06795793;-0.052632537;0.043593433;-19.35;36.9;-39.9;21.7226;-7.883259;0.068128586;1020.71967;-;-;51.52527153;-0.13344369;2.4600000381469727
1531048856990;-;-;0.26345217;1.3220508;9.79084;0.07594742;-0.047838848;0.04093027;-19.35;36.9;-39.9;21.7226;-7.883259;0.068128586;1020.71967;-;-;51.52527153;-0.13344369;2.4600000381469727
1531048857000;-;-;0.4167334;1.4370118;9.627979;0.06529477;-0.049969375;0.02921236;-18.150002;36.600002;-40.5;21.686148;-7.956197;0.14398426;1020.71967;-;-;51.52527153;-0.13344369;2.4600000381469727
1531048857014;-;-;0.43589357;1.4322218;9.75252;0.05624002;-0.05156727;0.028679729;-15.900001;36.45;-38.25;21.649614;-8.038379;0.20828375;1020.71967;-;-;51.52527153;-0.13344369;2.4600000381469727
1531048857022;-;-;0.34009278;1.2597803;9.905801;0.04398948;-0.07553573;0.010037602;-15.900001;36.45;-38.25;21.649614;-8.038379;0.20828375;1020.71967;-;-;51.52527153;-0.13344369;2.4600000381469727
1531048857032;-;-;0.33530274;1.3507911;9.929751;0.048250537;-0.07660099;0.023353409;-18.0;37.2;-39.9;21.619728;-8.113453;0.27045727;1020.71967;-;-;51.52527153;-0.13344369;2.4600000381469727
1531048857042;-;-;0.3879932;1.3076807;10.039923;0.07967584;-0.116548404;0.010037602;-18.0;37.2;-39.9;21.619728;-8.113453;0.27045727;1020.71967;-;-;51.52527153;-0.13344369;2.4600000381469727
1531048857052;-;-;0.4742139;1.3268409;10.015972;0.08020847;-0.13039684;0.032940786;-17.25;36.45;-39.45;21.60669;-8.169959;0.35718533;1020.70764;-;-;51.52527153;-0.13344369;2.4600000381469727
1531048857063;-;-;0.42152345;1.2981006;10.044712;0.11802536;-0.1825948;0.024951305;-17.25;36.45;-39.45;21.60669;-8.169959;0.35718533;1020.70764;-;-;51.52527153;-0.13344369;2.4600000381469727
1531048857072;-;-;0.45984375;1.3986914;10.020762;0.11962326;-0.19804114;0.03613658;-19.2;36.600002;-38.4;21.599737;-8.252763;0.49275863;1020.70764;-;-;51.52527153;-0.13344369;2.4600000381469727
1531048857082;-;-;0.43110353;1.465752;9.857901;0.1334717;-0.17460532;0.019624982;-19.2;36.600002;-38.4;21.599737;-8.252763;0.49275863;1020.70764;-;-;51.52527153;-0.13344369;2.4600000381469727
1531048857092;-;-;0.34009278;1.4274317;9.81958;0.13453697;-0.1644853;0.03081026;-18.6;36.300003;-40.5;21.59886;-8.381509;0.7048505;1020.70764;-;-;51.52527153;-0.13344369;2.4600000381469727
1531048857102;-;-;0.4167334;1.341211;9.508228;0.09672007;-0.061154652;0.013766027;-18.6;36.300003;-40.5;21.59886;-8.381509;0.7048505;1020.70764;-;-;51.52527153;-0.13344369;2.4600000381469727
1531048857113;-;-;0.28740236;1.4418018;9.541759;0.07488215;-0.030794615;0.008439706;-18.6;34.95;-38.850002;21.603834;-8.536664;0.90799516;1020.70764;-;-;51.52527153;-0.13344369;2.4600000381469727
1531048857122;-;-;0.29698244;1.4178516;9.651929;-0.0012842594;0.010218066;0.022288144;-18.6;34.95;-38.850002;21.603834;-8.536664;0.90799516;1020.70764;-;-;51.52527153;-0.13344369;2.4600000381469727
1531048857132;-;-;0.3784131;1.3891114;9.671089;0.0024441662;0.009152802;0.028147098;-19.95;38.100002;-38.850002;21.600094;-8.648481;0.99287593;1020.70764;-;-;51.52527153;-0.13344369;2.4600000381469727
1531048857142;-;-;0.57001466;1.3986914;9.527389;-0.042296942;0.04270863;0.018559717;-19.95;38.100002;-38.850002;21.600094;-8.648481;0.99287593;1020.70764;-;-;51.52527153;-0.13344369;2.4600000381469727
1531048857152;-;-;0.57001466;1.331631;9.436378;-0.067863286;0.052296013;0.015363925;-18.150002;34.95;-39.300003;21.578386;-8.662147;0.9908188;1020.6951;-;-;51.52527153;-0.13344369;2.4600000381469727
1531048857163;-;-;0.5029541;1.3124708;9.292676;-0.11580019;0.12047293;-6.1504263E-4;-18.150002;34.95;-39.300003;21.578386;-8.662147;0.9908188;1020.6951;-;-;51.52527153;-0.13344369;2.4600000381469727
1531048857173;-;-;0.51732427;1.3651612;9.263936;-0.13657284;0.134854;-0.012865583;-18.900002;35.25;-39.300003;21.550589;-8.601263;0.94024956;1020.6951;-;-;51.52527153;-0.13344369;2.4600000381469727
1531048857183;-;-;0.244292;1.341211;9.627979;-0.20102134;0.106091864;-0.017126642;-18.900002;35.25;-39.300003;21.550589;-8.601263;0.94024956;1020.6951;-;-;51.52527153;-0.13344369;2.4600000381469727
1531048857193;-;-;0.09101075;1.3555812;9.857901;-0.19889082;0.07147077;-0.01925717;-18.6;35.7;-40.5;21.534895;-8.471266;0.8098406;1020.6951;-;-;51.52527153;-0.13344369;2.4600000381469727
1531048857203;-;-;-0.27303225;1.3172607;10.518927;-0.12645283;-0.047306214;0.03187552;-18.6;35.7;-40.5;21.534895;-8.471266;0.8098406;1020.6951;-;-;51.52527153;-0.13344369;2.4600000381469727
1531048857214;-;-;0.13891114;1.3268409;10.274634;-0.061471704;-0.068078876;0.04093027;-18.150002;37.050003;-36.75;21.5382;-8.260546;0.6858238;1020.6951;-;-;51.52527153;-0.13344369;2.4600000381469727
1531048857224;-;-;0.43589357;1.331631;10.044712;-0.011936903;-4.3457875E-4;0.01642919;-18.150002;37.050003;-36.75;21.5382;-8.260546;0.6858238;1020.6951;-;-;51.52527153;-0.13344369;2.4600000381469727
1531048857234;-;-;0.3879932;1.2310401;9.862691;-0.016730594;0.042176;0.0020481185;-18.150002;36.0;-40.050003;21.520622;-8.104001;0.7211128;1020.6951;-;-;51.52527153;-0.13344369;2.4600000381469727
1531048857244;-;-;0.38320315;1.3124708;9.6615095;-0.040699046;0.1050266;-0.009137158;-18.150002;36.0;-40.050003;21.520622;-8.104001;0.7211128;1020.6967;-;-;51.52527153;-0.13344369;2.4600000381469727
1531048857255;-;-;0.244292;1.3220508;9.7142;-0.06466749;0.11834241;-0.009137158;-17.550001;36.600002;-38.850002;21.495333;-8.070873;0.7489442;1020.6967;-;-;51.52527153;-0.13344369;2.4600000381469727
1531048857265;-;-;0.10538086;1.3076807;9.6615095;-0.090766475;0.13006032;0.0047112796;-17.550001;36.600002;-38.850002;21.495333;-8.070873;0.7489442;1020.6967;-;-;51.52527153;-0.13344369;2.4600000381469727
1531048857275;-;-;0.10538086;1.22146;9.690249;-0.10408228;0.11940767;0.010037602;-17.85;36.0;-40.050003;21.483515;-8.036327;0.64645565;1020.6967;-;-;51.52527153;-0.13344369;2.4600000381469727
1531048857285;-;-;0.16286133;1.3172607;9.800421;-0.10301701;0.07466656;0.01642919;-17.85;36.0;-40.050003;21.483515;-8.036327;0.64645565;1020.6967;-;-;51.52527153;-0.13344369;2.4600000381469727
1531048857295;-;-;0.19160157;1.346001;9.929751;-0.10781079;0.043773368;0.019090246;-17.85;37.050003;-37.65;21.458344;-7.9408245;0.5027787;1020.6967;-;-;51.52527153;-0.13344369;2.4600000381469727
1531048857305;-;-;0.16286133;1.3124708;10.159674;-0.07691812;-0.0020330022;0.020688143;-17.85;37.050003;-37.65;21.458344;-7.9408245;0.5027787;1020.6967;-;-;51.52527153;-0.13344369;2.4600000381469727
1531048857316;-;-;0.2682422;1.3651612;10.322535;-0.060939148;-0.026534084;0.014829188;-15.6;36.45;-38.7;21.424147;-7.8215957;0.40853575;1020.6967;-;-;51.52527153;-0.13344369;2.4600000381469727
1531048857325;-;-;0.28261232;1.2549903;10.322535;-0.009273821;-0.03239304;0.012698659;-15.6;36.45;-38.7;21.424147;-7.8215957;0.40853575;1020.6967;-;-;51.52527153;-0.13344369;2.4600000381469727
1531048857335;-;-;0.3305127;1.2837305;10.370435;0.026945172;-0.023870924;0.009502864;-15.6;35.100002;-38.25;21.400305;-7.720685;0.39481825;1020.6967;-;-;51.52527153;-0.13344369;2.4600000381469727
1531048857346;-;-;0.31135255;1.3747413;10.2315235;0.08446945;-0.017479336;-0.0059434697;-15.6;35.100002;-38.25;21.400305;-7.720685;0.39481825;1020.6946;-;-;51.52527153;-0.13344369;2.4600000381469727
1531048857356;-;-;0.34488282;1.3124708;10.011182;0.10204631;-0.00150037;-0.011802425;-15.900001;34.050003;-38.7;21.38962;-7.693457;0.43092123;1020.6946;-;-;51.52527153;-0.13344369;2.4600000381469727
1531048857366;-;-;0.34967285;1.3172607;9.83874;0.093524195;-0.0030982667;-0.014998217;-15.900001;34.050003;-38.7;21.38962;-7.693457;0.43092123;1020.6946;-;-;51.52527153;-0.13344369;2.4600000381469727
1531048857376;-;-;0.34488282;1.4226416;9.546548;0.06742522;0.012348068;-0.012867688;-18.300001;34.5;-39.0;21.396784;-7.7698975;0.450224;1020.6946;-;-;51.52527153;-0.13344369;2.4600000381469727
1531048857386;-;-;0.34488282;1.5040723;9.78605;0.016825158;0.0293923;-0.019791909;-18.300001;34.5;-39.0;21.396784;-7.7698975;0.450224;1020.6946;-;-;51.52527153;-0.13344369;2.4600000381469727
1531048857397;-;-;0.34009278;1.3891114;9.642349;-0.04442755;0.0293923;-0.009671895;-16.800001;36.0;-38.4;21.413605;-7.8787055;0.44925395;1020.6946;-;-;51.52527153;-0.13344369;2.4600000381469727
1531048857407;-;-;0.26345217;1.3268409;9.6615095;-0.060406517;0.040577576;0.0020460137;-16.800001;36.0;-38.4;21.413605;-7.8787055;0.44925395;1020.6946;-;-;51.52527153;-0.13344369;2.4600000381469727
1531048857416;-;-;0.21076173;1.2597803;9.7621;-0.066798106;0.03631652;0.002578646;-14.85;36.15;-38.25;21.430172;-7.9147162;0.42333993;1020.6946;-;-;51.52527153;-0.13344369;2.4600000381469727
1531048857426;-;-;0.30177248;1.3507911;10.073453;-0.052949667;-0.03239304;0.034536578;-14.85;36.15;-38.25;21.430172;-7.9147162;0.42333993;1020.6946;-;-;51.52527153;-0.13344369;2.4600000381469727
1531048857463;-;-;0.3784131;1.3555812;10.284214;0.117492646;-0.054763593;0.0031112782;-14.55;35.850002;-38.25;21.398277;-7.7865424;0.41010445;1020.6952;-;-;51.52525994;-0.13354957;2.8499999046325684
1531048857452;-;-;0.3161426;1.3507911;10.499766;0.035467286;-0.09684154;0.026014462;-14.55;35.850002;-38.25;21.424713;-7.8558826;0.3853121;1020.6952;-;-;51.52525994;-0.13354957;2.8499999046325684
1531048857437;-;-;0.25387207;1.4082716;10.174044;-0.05934125;-0.0515678;0.028677624;-15.450001;36.600002;-39.300003;21.424713;-7.8558826;0.3853121;1020.6946;-;-;51.52527153;-0.13344369;2.4600000381469727
1531048857468;-;-;0.3784131;1.2741505;10.154883;0.14678743;-0.029729879;4.4811703E-4;-14.55;35.850002;-38.25;21.398277;-7.7865424;0.41010445;1020.6952;-;-;51.52525994;-0.13354957;2.8499999046325684
1531048857478;-;-;0.41194338;1.3268409;9.551338;0.1611685;0.039512314;-0.014465585;-18.75;36.45;-38.7;21.38592;-7.8061905;0.51397884;1020.6952;-;-;51.52525994;-0.13354957;2.8499999046325684
1531048857488;-;-;0.3784131;1.3268409;9.388477;0.13879794;0.07519867;-0.0102045275;-18.75;36.45;-38.7;21.38592;-7.8061905;0.51397884;1020.6952;-;-;51.52525994;-0.13354957;2.8499999046325684
1531048857499;-;-;0.26345217;1.465752;9.086704;0.040793605;0.08478605;-0.011269792;-17.7;35.850002;-42.300003;21.389343;-7.9504566;0.56376594;1020.6952;-;-;51.52525994;-0.13354957;2.8499999046325684
1531048857509;-;-;0.24908204;1.3507911;9.038804;-0.02844858;0.08425342;9.807493E-4;-16.800001;35.7;-38.100002;21.389343;-7.9504566;0.56376594;1020.6952;-;-;51.52525994;-0.13354957;2.8499999046325684
1531048857520;-;-;0.19160157;1.3986914;9.3453665;-0.15042135;0.065611295;0.017492346;-16.800001;35.7;-38.100002;21.394821;-8.11487;0.49542752;1020.6952;-;-;51.52525994;-0.13354957;2.8499999046325684
1531048857530;-;-;0.23471193;1.4370118;9.74294;-0.18131402;0.019272286;0.02281867;-16.800001;35.7;-38.100002;21.394821;-8.11487;0.49542752;1020.6952;-;-;51.52525994;-0.13354957;2.8499999046325684
1531048857540;-;-;0.21555176;1.2166699;10.174044;-0.16533506;-0.029197246;0.023883935;-17.550001;36.0;-40.050003;21.388767;-8.118343;0.3965824;1020.6952;-;-;51.52525994;-0.13354957;2.8499999046325684
1531048857550;-;-;0.20597169;1.22146;10.308165;-0.12858343;-0.047839373;0.035601843;-17.550001;36.0;-40.050003;21.388767;-8.118343;0.3965824;1020.6952;-;-;51.52525994;-0.13354957;2.8499999046325684
1531048857561;-;-;0.18681154;1.2645704;10.241104;-0.114735;-0.044110946;0.027079728;-17.550001;34.95;-40.5;21.357855;-7.9464355;0.34746557;1020.692;-;-;51.52525994;-0.13354957;2.8499999046325684
1531048857571;-;-;0.48379397;1.3028907;9.982442;-0.017795937;0.04217547;0.020688143;-18.900002;37.350002;-39.600002;21.324896;-7.7842646;0.39206487;1020.692;-;-;51.52525994;-0.13354957;2.8499999046325684
1531048857580;-;-;0.3305127;1.2597803;9.77168;-0.0076759234;0.07360078;0.014829188;-18.900002;37.350002;-39.600002;21.324896;-7.7842646;0.39206487;1020.692;-;-;51.52525994;-0.13354957;2.8499999046325684
1531048857590;-;-;0.29698244;1.3172607;9.627979;-0.015665406;0.083188154;-6.171474E-4;-18.900002;37.350002;-39.600002;21.324896;-7.7842646;0.39206487;1020.692;-;-;51.52525994;-0.13354957;2.8499999046325684
1531048857600;-;-;0.244292;1.3699512;9.656719;-0.072657056;0.028327035;0.026547097;-18.75;36.45;-38.7;21.292372;-7.7441177;0.37077376;1020.692;-;-;51.52525994;-0.13354957;2.8499999046325684
1531048857611;-;-;0.17723145;1.336421;9.81;-0.094494976;0.0075543784;0.01536182;-17.85;35.7;-39.300003;21.269135;-7.730967;0.28234825;1020.692;-;-;51.52525994;-0.13354957;2.8499999046325684
1531048857621;-;-;0.11496094;1.2166699;10.106983;-0.102484465;-0.05050253;0.029210255;-17.85;35.7;-39.300003;21.269135;-7.730967;0.28234825;1020.692;-;-;51.52525994;-0.13354957;2.8499999046325684
1531048857631;-;-;0.1341211;1.2549903;10.135723;-0.08757076;-0.045176215;0.030808154;-16.050001;36.0;-40.95;21.269135;-7.730967;0.28234825;1020.692;-;-;51.52525994;-0.13354957;2.8499999046325684
1531048857641;-;-;0.28740236;1.2166699;10.145303;-0.04176439;0.00329332;0.017492346;-16.050001;36.0;-40.95;21.244804;-7.6381693;0.26155508;1020.692;-;-;51.52525994;-0.13354957;2.8499999046325684
1531048857651;-;-;0.29698244;1.1735597;10.073453;-0.03217701;0.005956481;0.01323129;-17.25;36.45;-39.0;21.244804;-7.6381693;0.26155508;1020.6882;-;-;51.52525994;-0.13354957;2.8499999046325684
1531048857662;-;-;0.33530274;1.1543995;10.135723;0.028010435;0.051230222;0.002578646;-17.25;36.45;-39.0;21.218874;-7.5294967;0.31439734;1020.6882;-;-;51.52525994;-0.13354957;2.8499999046325684
1531048857671;-;-;0.32093263;1.2022998;10.111773;0.03227149;0.057089172;-0.010737159;-17.25;36.45;-39.0;21.218874;-7.5294967;0.31439734;1020.6882;-;-;51.52525994;-0.13354957;2.8499999046325684
1531048857682;-;-;0.34009278;1.22625;9.81;0.022151481;0.06667656;-0.008073999;-17.7;36.45;-38.7;21.203005;-7.4879932;0.31865558;1020.6882;-;-;51.52525994;-0.13354957;2.8499999046325684
1531048857692;-;-;0.26345217;1.2406201;9.75731;0.022151481;0.07573131;-0.019259274;-17.7;36.45;-38.7;21.203005;-7.4879932;0.31865558;1020.6882;-;-;51.52525994;-0.13354957;2.8499999046325684
1531048857702;-;-;0.23950197;1.2837305;9.877061;-0.03057911;0.021402815;-0.006476102;-17.7;35.850002;-38.25;21.200994;-7.5193934;0.25547072;1020.6882;-;-;51.52525994;-0.13354957;2.8499999046325684
1531048857712;-;-;0.25387207;1.2166699;9.833951;-0.039101228;0.020337552;-0.0075413664;-15.750001;36.300003;-38.100002;21.203623;-7.549394;0.16828586;1020.6882;-;-;51.52525994;-0.13354957;2.8499999046325684
1531048857723;-;-;0.2203418;1.2597803;9.814791;-0.040699124;0.0075543784;-0.014998217;-15.750001;36.300003;-38.100002;21.203623;-7.549394;0.16828586;1020.6882;-;-;51.52525994;-0.13354957;2.8499999046325684
1531048857732;-;-;0.22992188;1.2885206;9.8866415;-0.039101228;-0.00150037;-0.002215044;-15.900001;35.4;-37.800003;21.209568;-7.5160728;0.13544671;1020.6882;-;-;51.52525994;-0.13354957;2.8499999046325684
1531048857743;-;-;0.37362307;1.2502003;9.977652;-0.014600143;0.0038259523;-0.0038129408;-15.900001;35.4;-37.800003;21.209568;-7.5160728;0.13544671;1020.6882;-;-;51.52525994;-0.13354957;2.8499999046325684
1531048857753;-;-;0.37362307;1.2502003;9.977652;-0.014600143;0.0038259523;-0.0038129408;-14.55;36.9;-38.25;21.209568;-7.5160728;0.13544671;1020.6882;-;-;51.52525994;-0.13354957;2.8499999046325684
1531048857763;-;-;0.30177248;1.2933106;10.001602;0.015227262;0.014478596;0.006307072;-14.55;36.9;-38.25;21.207024;-7.4720397;0.1338351;1020.6823;-;-;51.52525994;-0.13354957;2.8499999046325684
1531048857774;-;-;0.23471193;1.1831397;9.599238;0.013096733;0.016076494;0.0073723355;-14.85;35.100002;-39.9;21.203255;-7.45176;0.13752854;1020.6823;-;-;51.52525994;-0.13354957;2.8499999046325684
1531048857783;-;-;0.25866213;1.2406201;9.498648;0.028543068;0.08159026;-6.171474E-4;-14.85;35.100002;-39.9;21.203255;-7.45176;0.13752854;1020.6823;-;-;51.52525994;-0.13354957;2.8499999046325684
1531048857793;-;-;0.17244141;1.2693604;9.6758795;0.027477803;0.07466604;-0.013932954;-16.800001;34.95;-39.600002;21.203255;-7.45176;0.13752854;1020.6823;-;-;51.52525994;-0.13354957;2.8499999046325684
1531048857804;-;-;0.2203418;1.3891114;9.7812605;-0.0012847118;0.010747642;-0.0011598819;-16.800001;34.95;-39.600002;21.19421;-7.464068;0.12909368;1020.6823;-;-;51.52525994;-0.13354957;2.8499999046325684
1531048857814;-;-;0.32093263;1.3555812;9.85311;-0.0076762983;0.0070192176;0.01375382;-15.750001;35.25;-37.65;21.190866;-7.4959445;0.053427134;1020.6823;-;-;51.52525994;-0.13354957;2.8499999046325684
1531048857824;-;-;0.244292;1.2022998;10.020762;-0.03217738;-0.0031007947;0.003633808;-15.750001;35.25;-37.65;21.190866;-7.4959445;0.053427134;1020.6823;-;-;51.52525994;-0.13354957;2.8499999046325684
1531048857835;-;-;0.23471193;1.2358302;10.111773;-0.011937356;-9.7026594E-4;0.0073622335;-15.750001;35.25;-39.300003;21.1836;-7.4953084;0.04026215;1020.6823;-;-;51.52525994;-0.13354957;2.8499999046325684
1531048857845;-;-;0.3305127;1.2502003;10.039923;0.009900565;-0.0025681625;0.0052317046;-15.750001;35.25;-39.300003;21.1836;-7.4953084;0.04026215;1020.6823;-;-;51.52525994;-0.13354957;2.8499999046325684
1531048857855;-;-;0.3305127;1.2502003;10.039923;0.009900565;-0.0025681625;0.0052317046;-16.95;36.15;-41.100002;21.1836;-7.4953084;0.04026215;1020.6823;-;-;51.52525994;-0.13354957;2.8499999046325684
1531048857865;-;-;0.028740235;1.2070899;10.044712;0.018955313;-0.018547129;0.007894866;-16.95;36.15;-41.100002;21.174644;-7.463128;0.041443776;1020.6888;-;-;51.52525994;-0.13354957;2.8499999046325684
1531048857877;-;-;0.3544629;1.1879297;9.891431;0.02321637;0.008084482;0.024939097;-15.3;36.45;-39.9;21.16813;-7.466088;0.03985298;1020.6888;-;-;51.52525994;-0.13354957;2.8499999046325684
1531048857886;-;-;0.48379397;1.1639795;9.7812605;0.017357416;0.039509784;0.0015032792;-15.3;36.45;-39.9;21.16813;-7.466088;0.03985298;1020.6888;-;-;51.52525994;-0.13354957;2.8499999046325684
1531048857896;-;-;0.3305127;1.22625;9.881851;0.008835301;0.044303473;-0.019269377;-14.85;37.5;-39.0;21.16062;-7.488989;0.054406945;1020.6888;-;-;51.52525994;-0.13354957;2.8499999046325684
1531048857906;-;-;0.22992188;1.21188;9.862691;-2.1944736E-4;0.029922403;-0.016073585;-14.85;37.5;-39.0;21.16062;-7.488989;0.054406945;1020.6888;-;-;51.52525994;-0.13354957;2.8499999046325684
1531048857917;-;-;0.18681154;1.2885206;10.116563;-0.006078402;-0.026536612;0.0052317046;-15.750001;35.7;-39.300003;21.14908;-7.512826;0.022311134;1020.6888;-;-;51.52525994;-0.13354957;2.8499999046325684
1531048857927;-;-;0.22992188;1.22146;10.083033;0.0019110816;-0.04038505;0.011623291;-15.750001;35.7;-39.300003;21.14908;-7.512826;0.022311134;1020.6888;-;-;51.52525994;-0.13354957;2.8499999046325684
1531048857937;-;-;0.26345217;1.2549903;10.044712;0.018422682;-0.0073618526;4.3801474E-4;-16.050001;34.65;-39.300003;21.162764;-7.517966;-0.021432279;1020.6888;-;-;51.52525994;-0.13354957;2.8499999046325684
1531048857947;-;-;0.20597169;1.2358302;9.939331;0.021618474;0.011812908;9.70647E-4;-16.050001;34.65;-39.300003;21.162764;-7.517966;-0.021432279;1020.6888;-;-;51.52525994;-0.13354957;2.8499999046325684
1531048857958;-;-;0.244292;1.1256592;9.73815;0.04452166;0.03844452;-0.0022251464;-16.800001;37.350002;-39.300003;21.161264;-7.5189085;0.009056403;1020.68317;-;-;51.52525994;-0.13354957;2.8499999046325684
1531048857968;-;-;0.19639161;1.2310401;9.68067;0.03280375;0.03791189;0.012688557;-18.300001;36.15;-41.550003;21.161264;-7.5189085;0.009056403;1020.68317;-;-;51.52525994;-0.13354957;2.8499999046325684
1531048857978;-;-;0.18681154;1.2981006;9.560919;-0.0023499762;0.04057505;0.0015032792;-18.300001;36.15;-41.550003;21.157215;-7.544975;0.009431744;1020.68317;-;-;51.52525994;-0.13354957;2.8499999046325684
1531048857989;-;-;0.14370118;1.2406201;9.642349;-0.019394208;0.03418346;0.004699073;-18.0;36.45;-38.7;21.157215;-7.544975;0.009431744;1020.68317;-;-;51.52525994;-0.13354957;2.8499999046325684
1531048857999;-;-;0.20118165;1.2166699;9.857901;-0.041764762;-0.0094923815;0.010558028;-18.0;36.45;-38.7;21.143064;-7.5811315;-0.03069594;1020.68317;-;-;51.52525994;-0.13354957;2.8499999046325684
1531048858009;-;-;0.17244141;1.2358302;10.015972;-0.042297393;-0.012688176;0.014286453;-18.150002;37.65;-40.95;21.133923;-7.5659504;-0.0703102;1020.68317;-;-;51.52525994;-0.13354957;2.8499999046325684
1531048858019;-;-;0.25387207;1.1927198;10.039923;0.0013784494;-0.051037695;0.010558028;-18.150002;37.65;-40.95;21.133923;-7.5659504;-0.0703102;1020.68317;-;-;51.52525994;-0.13354957;2.8499999046325684
1531048858031;-;-;0.37362307;1.22146;10.063872;0.026944797;-0.053168222;0.0020359114;-18.0;37.2;-40.65;21.121876;-7.520961;-0.054781325;1020.68317;-;-;51.52525994;-0.13354957;2.8499999046325684
1531048858040;-;-;0.34009278;1.2070899;9.905801;0.059967995;-0.025471348;-0.010747261;-18.0;37.2;-40.65;21.121876;-7.520961;-0.054781325;1020.68317;-;-;51.52525994;-0.13354957;2.8499999046325684
1531048858051;-;-;0.3161426;1.1591895;9.82437;0.06263115;-0.007894485;-0.019269377;-18.0;36.9;-39.9;21.12349;-7.5323153;0.003749987;1020.68317;-;-;51.52525994;-0.13354957;2.8499999046325684
1531048858061;-;-;0.22513184;1.1975098;9.536968;0.048250087;0.024596082;-0.015540952;-18.0;36.9;-39.9;21.12349;-7.5323153;0.003749987;1020.6783;-;-;51.52525994;-0.13354957;2.8499999046325684
1531048858072;-;-;0.16765137;1.2022998;9.5561285;0.034401648;0.035248727;-0.010747261;-17.1;36.600002;-40.95;21.137981;-7.6035547;0.021947745;1020.6783;-;-;51.52525994;-0.13354957;2.8499999046325684
1531048858082;-;-;0.09101075;1.2358302;9.733359;-0.03590581;0.0315203;-0.0022251464;-17.1;36.600002;-40.95;21.137981;-7.6035547;0.021947745;1020.6783;-;-;51.52525994;-0.13354957;2.8499999046325684
1531048858093;-;-;0.13891114;1.1783496;9.78605;-0.052417405;0.020867657;0.010025395;-19.2;36.300003;-38.4;21.143532;-7.654946;-0.011054874;1020.6783;-;-;51.52525994;-0.13354957;2.8499999046325684
1531048858102;-;-;0.25387207;1.2358302;9.924961;-0.06040689;0.027791874;0.0025685437;-19.2;36.300003;-38.4;21.143532;-7.654946;-0.011054874;1020.6783;-;-;51.52525994;-0.13354957;2.8499999046325684
1531048858112;-;-;0.25866213;1.2502003;9.982442;-0.055080567;0.030455034;0.0052317046;-18.75;38.25;-40.65;21.136595;-7.6224804;-0.046531096;1020.6783;-;-;51.52525994;-0.13354957;2.8499999046325684
1531048858122;-;-;0.17723145;1.1975098;10.284214;-0.031644747;0.005421321;9.70647E-4;-18.75;38.25;-40.65;21.136595;-7.6224804;-0.046531096;1020.6783;-;-;51.52525994;-0.13354957;2.8499999046325684
1531048858135;-;-;0.20597169;1.1591895;10.375225;0.016824784;-0.02334082;0.0073622335;-18.75;37.5;-41.550003;21.125755;-7.5525417;-0.06859464;1020.6783;-;-;51.52525994;-0.13354957;2.8499999046325684
1531048858143;-;-;0.24908204;1.22625;10.269844;0.039195336;-0.04517874;-9.4617484E-5;-18.75;37.5;-41.550003;21.125755;-7.5525417;-0.06859464;1020.6783;-;-;51.52525994;-0.13354957;2.8499999046325684
1531048858154;-;-;0.20597169;1.2645704;10.269844;0.050380614;-0.018547129;0.007894866;-19.2;36.0;-40.95;21.120024;-7.5156007;-0.07796674;1020.6783;-;-;51.52525994;-0.13354957;2.8499999046325684
1531048858164;-;-;0.21076173;1.22625;9.877061;0.07062064;0.008617113;-0.0064862045;-19.2;36.0;-40.95;21.120024;-7.5156007;-0.07796674;1020.6833;-;-;51.52525994;-0.13354957;2.8499999046325684
1531048858174;-;-;0.25866213;1.2693604;9.7621;0.06263115;0.021400288;-0.01021463;-19.2;36.300003;-39.600002;21.117008;-7.557726;-0.04577188;1020.6833;-;-;51.52525994;-0.13354957;2.8499999046325684
1531048858184;-;-;0.24908204;1.2885206;9.70941;0.041325867;0.017671863;-0.007018836;-19.2;36.300003;-39.600002;21.117008;-7.557726;-0.04577188;1020.6833;-;-;51.52525994;-0.13354957;2.8499999046325684
1531048858195;-;-;0.23471193;1.2502003;9.85311;0.014161623;-9.7026594E-4;-0.0027577786;-17.85;37.350002;-40.5;21.118713;-7.6360035;-0.046853073;1020.6833;-;-;51.52525994;-0.13354957;2.8499999046325684
1531048858204;-;-;0.25387207;1.3076807;9.82437;-0.00554577;-0.016949233;-0.00542094;-17.85;37.350002;-40.5;21.118713;-7.6360035;-0.046853073;1020.6833;-;-;51.52525994;-0.13354957;2.8499999046325684
1531048858214;-;-;0.2778223;1.3268409;9.992022;-0.006078402;-0.0015028982;-0.0064862045;-17.85;37.050003;-41.25;21.118689;-7.6841493;-0.060550172;1020.6833;-;-;51.52525994;-0.13354957;2.8499999046325684
1531048858225;-;-;0.23950197;1.2885206;10.049502;0.011498462;0.035248727;-0.0032904109;-17.85;37.050003;-41.25;21.118689;-7.6841493;-0.060550172;1020.6833;-;-;51.52525994;-0.13354957;2.8499999046325684
1531048858235;-;-;0.16765137;1.2358302;9.934542;0.026412165;0.03897715;-0.0064862045;-18.75;37.800003;-40.2;21.122515;-7.687037;-0.047955617;1020.6833;-;-;51.52525994;-0.13354957;2.8499999046325684
1531048858245;-;-;0.20597169;1.3076807;9.857901;0.0253469;0.044303473;-0.0022251464;-18.75;37.800003;-40.2;21.122515;-7.687037;-0.047955617;1020.6833;-;-;51.52525994;-0.13354957;2.8499999046325684
1531048858255;-;-;0.23471193;1.3507911;9.73815;0.016292151;0.04164031;-0.013410423;-17.550001;37.350002;-40.5;21.125265;-7.69687;-0.079550266;1020.68646;-;-;51.52525994;-0.13354957;2.8499999046325684
1531048858265;-;-;0.25866213;1.3268409;9.79084;0.009900565;0.042705577;-0.00542094;-17.550001;37.350002;-40.5;21.125265;-7.69687;-0.079550266;1020.68646;-;-;51.52525994;-0.13354957;2.8499999046325684
1531048858275;-;-;0.244292;1.3172607;9.848321;0.0019110816;0.022998184;-0.01021463;-18.150002;37.350002;-40.050003;21.126566;-7.726944;-0.12575498;1020.68646;-;-;51.52525994;-0.13354957;2.8499999046325684
1531048858285;-;-;0.21076173;1.2549903;9.948912;3.1318486E-4;0.020335024;-0.015008319;-18.150002;37.350002;-40.050003;21.126566;-7.726944;-0.12575498;1020.68646;-;-;51.52525994;-0.13354957;2.8499999046325684
1531048858296;-;-;0.16286133;1.2837305;9.867481;0.008302184;0.027255975;-0.011292943;-16.95;37.800003;-40.65;21.128668;-7.733856;-0.17011827;1020.68646;-;-;51.52525994;-0.13354957;2.8499999046325684
1531048858306;-;-;0.16765137;1.3172607;9.74294;0.0168243;0.046963368;-0.010227678;-16.95;37.800003;-40.65;21.128668;-7.733856;-0.17011827;1020.68646;-;-;51.52525994;-0.13354957;2.8499999046325684
1531048858317;-;-;0.18681154;1.336421;9.74294;-0.009807311;0.041104414;-0.01768453;-18.150002;36.600002;-40.5;21.137693;-7.7388873;-0.19868495;1020.68646;-;-;51.52525994;-0.13354957;2.8499999046325684
1531048858327;-;-;0.13891114;1.3172607;9.73815;-0.015133634;0.02352755;-0.012890839;-17.7;35.100002;-40.65;21.137693;-7.7388873;-0.19868495;1020.68646;-;-;51.52525994;-0.13354957;2.8499999046325684
1531048858337;-;-;0.21555176;1.3076807;9.79563;-0.04442841;0.0022222616;0.002555495;-17.7;35.100002;-40.65;21.147392;-7.75019;-0.24224457;1020.68646;-;-;51.52525994;-0.13354957;2.8499999046325684
1531048858347;-;-;0.18681154;1.2789404;9.910591;-0.043363143;0.013940171;-0.009162414;-16.95;36.15;-41.100002;21.147392;-7.75019;-0.24224457;1020.68646;-;-;51.52525994;-0.13354957;2.8499999046325684
1531048858357;-;-;0.1580713;1.2358302;10.130933;-0.019927323;0.020331757;-0.007031885;-16.95;36.15;-41.100002;21.155697;-7.732661;-0.2776214;1020.6811;-;-;51.52525994;-0.13354957;2.8499999046325684
1531048858368;-;-;0.119750984;1.2597803;10.121353;-0.0087420475;0.022462286;-0.0043687243;-21.0;37.050003;-40.95;21.155697;-7.732661;-0.2776214;1020.6811;-;-;51.52525994;-0.13354957;2.8499999046325684
1531048858378;-;-;0.1820215;1.2933106;10.087823;0.03599906;0.025658078;-0.009162414;-21.0;37.050003;-40.95;21.156322;-7.686801;-0.29120785;1020.6811;-;-;51.52525994;-0.13354957;2.8499999046325684
1531048858391;-;-;0.25866213;1.2933106;9.924961;0.048249602;0.04003915;-0.0043687243;-15.900001;35.100002;-41.100002;21.159943;-7.67802;-0.32126132;1020.6811;-;-;51.52525994;-0.13354957;2.8499999046325684
1531048858399;-;-;0.1820215;1.2645704;9.77168;0.034401163;0.038973883;-0.0054339888;-15.900001;35.100002;-41.100002;21.159943;-7.67802;-0.32126132;1020.6811;-;-;51.52525994;-0.13354957;2.8499999046325684
1531048858410;-;-;0.12933107;1.22146;9.74773;0.023748519;0.032049667;-0.012890839;-15.750001;36.300003;-39.600002;21.159735;-7.721628;-0.35560763;1020.6811;-;-;51.52525994;-0.13354957;2.8499999046325684
1531048858420;-;-;0.13891114;1.2837305;9.72378;3.1270116E-4;0.017668596;-0.006499253;-15.750001;36.300003;-39.600002;21.159735;-7.721628;-0.35560763;1020.6811;-;-;51.52525994;-0.13354957;2.8499999046325684
1531048858430;-;-;0.20597169;1.3124708;9.7812605;-0.0060788854;0.0054180548;-0.008629782;-17.25;37.5;-40.65;21.163141;-7.756599;-0.3968478;1020.6811;-;-;51.52525994;-0.13354957;2.8499999046325684
1531048858441;-;-;0.119750984;1.2693604;9.972861;-0.00714415;-0.011093544;-0.0017055629;-17.25;37.5;-40.65;21.163141;-7.756599;-0.3968478;1020.6811;-;-;51.52525994;-0.13354957;2.8499999046325684
1531048858451;-;-;0.14849122;1.2166699;10.0063925;-0.0087420475;-0.023344086;-0.0011729307;-18.0;36.45;-40.65;21.164993;-7.7582774;-0.40941972;1020.6735;-;-;51.52525994;-0.13354957;2.8499999046325684
1531048858461;-;-;0.18681154;1.2645704;9.920172;0.010432713;-0.016419867;0.0030881271;-18.0;36.45;-40.65;21.164993;-7.7582774;-0.40941972;1020.6735;-;-;51.52525994;-0.13354957;2.8499999046325684
1531048858471;-;-;0.27303225;1.2358302;9.833951;0.02161799;0.0022222616;4.2496598E-4;-18.150002;37.350002;-40.5;21.165539;-7.7486825;-0.3943791;1020.6735;-;-;51.52525994;-0.13354957;2.8499999046325684
1531048858481;-;-;0.21555176;1.2885206;9.82437;0.027476944;0.014472802;-0.009695047;-18.150002;37.350002;-40.5;21.165539;-7.7486825;-0.3943791;1020.6735;-;-;51.52525994;-0.13354957;2.8499999046325684
1531048858494;-;-;0.20597169;1.3507911;9.8866415;0.039727487;-0.0078977505;-0.004901356;-16.95;37.5;-39.0;21.163437;-7.759781;-0.37613672;1020.6735;-;-;51.52525994;-0.13354957;2.8499999046325684
1531048858502;-;-;0.16286133;1.2070899;9.83874;0.033335898;-4.4089952E-4;-0.0043687243;-16.95;37.5;-39.0;21.163437;-7.759781;-0.37613672;1020.6735;-;-;51.52525994;-0.13354957;2.8499999046325684
1531048858512;-;-;0.17723145;1.2741505;9.704619;0.023215886;0.0011569972;-0.0075645177;-17.1;35.7;-40.050003;21.169456;-7.784886;-0.38544083;1020.6735;-;-;51.52525994;-0.13354957;2.8499999046325684
1531048858522;-;-;0.14849122;1.2741505;9.881851;0.016291667;-0.0020387962;-0.01076031;-17.1;35.7;-40.050003;21.169456;-7.784886;-0.38544083;1020.6735;-;-;51.52525994;-0.13354957;2.8499999046325684
1531048858533;-;-;0.1580713;1.2837305;9.8866415;0.011497978;-0.0062998543;-0.015554001;-16.650002;35.850002;-41.550003;21.179287;-7.8223734;-0.38222575;1020.6735;-;-;51.52525994;-0.13354957;2.8499999046325684
1531048858543;-;-;0.244292;1.1975098;9.79563;0.0088348165;9.173271E-5;-0.010227678;-16.650002;35.850002;-41.550003;21.179287;-7.8223734;-0.38222575;1020.6735;-;-;51.52525994;-0.13354957;2.8499999046325684
1531048858552;-;-;0.28740236;1.2454102;9.7142;-0.009807311;0.013407539;-0.0118255755;-18.300001;37.800003;-40.2;21.189913;-7.846702;-0.38097218;1020.6778;-;-;51.52525994;-0.13354957;2.8499999046325684
1531048858562;-;-;0.20118165;1.2645704;9.75731;-0.0060788854;0.024592815;-0.014488736;-18.300001;37.800003;-40.2;21.189913;-7.846702;-0.38097218;1020.6778;-;-;51.52525994;-0.13354957;2.8499999046325684
1531048858572;-;-;0.11496094;1.2454102;9.7621;-0.0044809887;0.030451767;-0.015021368;-16.5;35.7;-38.100002;21.204884;-7.8572783;-0.38914722;1020.6778;-;-;51.52525994;-0.13354957;2.8499999046325684
1531048858582;-;-;0.12933107;1.21188;9.72857;-0.012470473;0.018733859;-0.009695047;-16.5;35.7;-38.100002;21.204884;-7.8572783;-0.38914722;1020.6778;-;-;51.52525994;-0.13354957;2.8499999046325684
1531048858592;-;-;0.10538086;1.2789404;9.74294;-0.017796796;0.0059506875;-0.014488736;-15.6;35.850002;-38.25;21.216478;-7.850379;-0.4204189;1020.6778;-;-;51.52525994;-0.13354957;2.8499999046325684
1531048858603;-;-;0.12933107;1.3268409;9.867481;-0.022590484;-0.008963015;-0.012890839;-15.6;35.850002;-38.25;21.216478;-7.850379;-0.4204189;1020.6778;-;-;51.52525994;-0.13354957;2.8499999046325684
1531048858613;-;-;0.100590825;1.22625;9.881851;-0.013535737;-0.027605144;-0.0043687243;-13.650001;36.0;-39.300003;21.222343;-7.8359795;-0.44403365;1020.6778;-;-;51.52525994;-0.13354957;2.8499999046325684
1531048858623;-;-;0.1101709;1.2358302;9.79563;-0.013535737;-0.032931466;-0.0075645177;-13.650001;36.0;-39.300003;21.222343;-7.8359795;-0.44403365;1020.6778;-;-;51.52525994;-0.13354957;2.8499999046325684
1531048858633;-;-;0.17723145;1.2549903;9.877061;-0.01673153;-4.4089952E-4;-0.008629782;-16.050001;36.600002;-40.95;21.231325;-7.812809;-0.42997903;1020.6778;-;-;51.52525994;-0.13354957;2.8499999046325684
1531048858643;-;-;0.12933107;1.3028907;9.81;-0.010339944;0.013940171;-0.0059666205;-16.050001;36.600002;-40.95;21.231325;-7.812809;-0.42997903;1020.6778;-;-;51.52525994;-0.13354957;2.8499999046325684
1531048858654;-;-;0.14370118;1.3172607;9.814791;-0.025253646;0.017668596;-0.0011729307;-15.150001;37.350002;-39.300003;21.239763;-7.8017936;-0.40543696;1020.6859;-;-;51.52525994;-0.13354957;2.8499999046325684
1531048858664;-;-;0.14370118;1.3124708;9.766891;-0.03750419;0.019266492;0.007881817;-15.450001;34.95;-39.600002;21.245514;-7.7848296;-0.41646367;1020.6859;-;-;51.52525994;-0.13354957;2.8499999046325684
1531048858674;-;-;0.14370118;1.2502003;9.7142;-0.053483155;0.022994917;0.002555495;-15.450001;34.95;-39.600002;21.245514;-7.7848296;-0.41646367;1020.6859;-;-;51.52525994;-0.13354957;2.8499999046325684
1531048858684;-;-;0.081430666;1.3172607;9.74773;-0.06147264;0.006483319;0.004686024;-14.400001;35.25;-38.100002;21.242817;-7.7449303;-0.43879876;1020.6859;-;-;51.52525994;-0.13354957;2.8499999046325684
1531048858695;-;-;0.086220704;1.2502003;10.039923;-0.08331056;-0.029735673;0.014806037;-14.400001;35.25;-38.100002;21.242817;-7.7449303;-0.43879876;1020.6859;-;-;51.52525994;-0.13354957;2.8499999046325684
1531048858705;-;-;0.15328126;1.2933106;10.078242;-0.0774516;-0.032931466;0.013208139;-13.950001;34.5;-37.800003;21.234934;-7.6730733;-0.4525485;1020.6859;-;-;51.52525994;-0.13354957;2.8499999046325684
1531048858715;-;-;0.1101709;1.2933106;10.097403;-0.048689462;-0.041986212;0.0153386695;-13.950001;34.5;-37.800003;21.234934;-7.6730733;-0.4525485;1020.6859;-;-;51.52525994;-0.13354957;2.8499999046325684
1531048858726;-;-;0.1341211;1.2549903;10.197993;-0.025786279;-0.046247274;0.012142875;-13.200001;35.4;-38.7;21.221004;-7.587791;-0.416739;1020.6859;-;-;51.52525994;-0.13354957;2.8499999046325684
1531048858737;-;-;0.1580713;1.336421;10.408755;0.023748519;-0.063291505;0.0073491847;-13.200001;35.4;-38.7;21.221004;-7.587791;-0.416739;1020.6859;-;-;51.52525994;-0.13354957;2.8499999046325684
1531048858747;-;-;0.23471193;1.346001;10.226734;0.044521175;-0.049975697;0.0020228627;-15.750001;35.25;-40.050003;21.217257;-7.5497;-0.36381575;1020.6838;-;-;51.52525994;-0.13354957;2.8499999046325684
