TimeStamp[ms];Prox[Cm];Lux[lux];AccX[m/s^2];AccY[m/s^2];AccZ[m/s^2];GyroX[rad/s];GyroY[rad/s];GyroZ[rad/s];MagnX[uT];MagnY[uT];MagnZ[uT];OrienYaw[degrees];OrienPitch[degrees];OrienRoll[degrees];Press[Pa];Temp[C°];Batt[%];Lat;Lng;Speed[m/s]
1531048621266;-;-;0.56522465;1.2693604;9.843531;-0.0034113242;-0.069653384;0.046882674;-13.650001;30.45;-38.4;22.87441;-7.845458;2.719875;1020.6762;-;-;51.52502863;-0.1334877;0.0
1531048621266;-;-;0.56522465;1.2693604;9.843531;-0.0034113242;-0.069653384;0.046882674;-13.650001;30.45;-38.4;22.87441;-7.845458;2.719875;1020.6762;-;-;51.52502863;-0.1334877;0.0
1531048621265;-;-;0.56522465;1.2693604;9.843531;-0.0034113242;-0.069653384;0.046882674;-13.650001;30.45;-38.4;22.87441;-7.845458;2.719875;1020.6762;-;-;51.52502863;-0.1334877;0.0
1531048621279;-;-;0.68018556;1.346001;9.7142;-0.014063968;-0.07551234;0.04368688;-13.650001;30.45;-38.4;22.87441;-7.845458;2.719875;1020.6762;-;-;51.52502863;-0.1334877;0.0
1531048621279;-;-;0.68018556;1.346001;9.7142;-0.014063968;-0.07551234;0.04368688;-13.650001;30.45;-38.4;22.87441;-7.845458;2.719875;1020.6762;-;-;51.52502863;-0.1334877;0.0
1531048621289;-;-;0.67539555;1.331631;9.69504;-0.011400808;-0.037162814;0.03196897;-14.1;30.45;-37.2;22.851707;-7.863977;2.7875078;1020.6762;-;-;51.52502863;-0.1334877;0.0
1531048621300;-;-;0.5508545;1.3076807;9.867481;-0.010868176;-0.041423872;0.032501604;-14.1;30.45;-37.2;22.851707;-7.863977;2.7875078;1020.6762;-;-;51.52502863;-0.1334877;0.0
1531048621310;-;-;0.53169435;1.336421;9.70941;-0.024183981;-0.061131265;0.032501604;-14.85;30.000002;-39.9;22.809582;-7.855563;2.874797;1020.6762;-;-;51.52502863;-0.1334877;0.0
1531048621320;-;-;0.5748047;1.2645704;9.73815;-0.022586085;-0.056337576;0.04368688;-14.85;30.000002;-39.9;22.809582;-7.855563;2.874797;1020.7282;-;-;51.52502863;-0.1334877;0.0
1531048621330;-;-;0.7041358;1.2549903;9.75731;-0.0311082;-0.061663896;0.04368688;-13.650001;29.85;-37.65;22.779228;-7.84042;2.9287744;1020.7282;-;-;51.52502863;-0.1334877;0.0
1531048621340;-;-;0.68976563;1.2933106;9.74294;-0.04282611;-0.076577604;0.04794794;-14.700001;30.45;-38.100002;22.779228;-7.84042;2.9287744;1020.7282;-;-;51.52502863;-0.1334877;0.0
1531048621350;-;-;0.74724615;1.21188;9.977652;-0.036434524;-0.06645759;0.028773176;-14.700001;30.45;-38.100002;22.744293;-7.8148665;2.9978704;1020.7282;-;-;51.52502863;-0.1334877;0.0
1531048621361;-;-;0.78556645;1.2597803;10.106983;-0.008737647;-0.06379443;0.03463213;-13.950001;29.7;-37.800003;22.744293;-7.8148665;2.9978704;1020.7282;-;-;51.52502863;-0.1334877;0.0
1531048621371;-;-;0.6610254;1.2837305;9.963282;0.01949186;-0.049945988;0.017587898;-13.950001;29.7;-37.800003;22.702744;-7.774716;3.079232;1020.7282;-;-;51.52502863;-0.1334877;0.0
1531048621381;-;-;0.7376661;1.2597803;9.862691;0.037601355;-0.022781746;0.029838441;-15.3;28.95;-38.25;22.673458;-7.7463655;3.1578188;1020.7282;-;-;51.52502863;-0.1334877;0.0
1531048621391;-;-;0.6610254;1.2070899;9.527389;0.020024493;-0.008400676;0.051676363;-15.3;28.95;-38.25;22.673458;-7.7463655;3.1578188;1020.7282;-;-;51.52502863;-0.1334877;0.0
1531048621401;-;-;0.7185059;1.2933106;9.460327;-2.1553092E-4;-4.1119207E-4;0.044752143;-14.1;31.2;-36.75;22.673458;-7.7463655;3.1578188;1020.7282;-;-;51.52502863;-0.1334877;0.0
1531048621412;-;-;0.75203615;1.22146;9.445957;-0.06519666;0.007578292;0.039958455;-14.1;31.2;-36.75;22.645803;-7.7714715;3.2072499;1020.7282;-;-;51.52502863;-0.1334877;0.0
1531048621422;-;-;0.81909674;1.22146;9.532178;-0.08650195;-0.007868043;0.016522635;-14.85;29.7;-39.45;22.595165;-7.786335;3.218393;1020.7282;-;-;51.52502863;-0.1334877;0.0
1531048621432;-;-;0.8765772;1.1448194;9.82437;-0.10567671;-0.011596468;0.006402624;-14.85;29.7;-39.45;22.595165;-7.786335;3.218393;1020.7282;-;-;51.52502863;-0.1334877;0.0
1531048621445;-;-;0.74724615;1.1160791;10.150093;-0.08969774;-0.035564918;-0.019163724;-12.6;30.150002;-37.2;22.552994;-7.7209835;3.2178276;1020.7282;-;-;51.52502863;-0.1334877;0.0
1531048621452;-;-;0.6610254;1.096919;10.2315235;-0.05880508;-0.03769545;-0.005847918;-12.6;30.150002;-37.2;22.552994;-7.7209835;3.2178276;1020.7282;-;-;51.52502863;-0.1334877;0.0
1531048621462;-;-;0.6514453;1.1400293;10.169253;-0.032173466;-0.039293345;-0.0063805506;-14.400001;30.150002;-38.4;22.55154;-7.6037316;3.2363162;1020.7282;-;-;51.52502863;-0.1334877;0.0
1531048621472;-;-;0.6610254;1.1352394;10.183623;0.0051107914;-0.02810807;0.005869991;-14.400001;30.150002;-38.4;22.55154;-7.6037316;3.2363162;1020.7282;-;-;51.52502863;-0.1334877;0.0
1531048621483;-;-;0.64186525;1.1735597;10.059082;0.02162239;-0.02331438;0.0090657845;-15.450001;30.45;-39.600002;22.573877;-7.535951;3.273268;1020.7282;-;-;51.52502863;-0.1334877;0.0
1531048621492;-;-;0.6322852;1.1783496;10.015972;0.048254002;-0.012129101;0.017055267;-15.450001;30.45;-39.600002;22.573877;-7.535951;3.273268;1020.7282;-;-;51.52502863;-0.1334877;0.0
1531048621502;-;-;0.60833496;1.2070899;9.987232;0.050917163;-0.005204882;0.016522635;-16.5;30.900002;-38.4;22.579515;-7.537029;3.3114543;1020.7282;-;-;51.52502863;-0.1334877;0.0
1531048621512;-;-;0.6514453;1.2310401;9.800421;0.06742877;0.0065130265;0.033034235;-16.5;30.900002;-38.4;22.579515;-7.537029;3.3114543;1020.7256;-;-;51.52502863;-0.1334877;0.0
1531048621522;-;-;0.6514453;1.3028907;9.75252;0.06370034;0.0027846014;0.03196897;-15.900001;30.000002;-39.0;22.570484;-7.5881;3.324032;1020.7256;-;-;51.52502863;-0.1334877;0.0
1531048621532;-;-;0.68976563;1.2885206;9.64714;0.054112956;-0.009998572;0.033034235;-15.900001;30.000002;-39.0;22.570484;-7.5881;3.324032;1020.7256;-;-;51.52502863;-0.1334877;0.0
1531048621542;-;-;0.7424561;1.2645704;9.594449;0.048786633;-0.0062701465;0.03889319;-14.700001;30.900002;-38.850002;22.540869;-7.657025;3.3222106;1020.7256;-;-;51.52502863;-0.1334877;0.0
1531048621553;-;-;0.81909674;1.2597803;9.632769;0.024818182;-0.0041396176;0.017587898;-14.700001;30.900002;-38.850002;22.540869;-7.657025;3.3222106;1020.7256;-;-;51.52502863;-0.1334877;0.0
1531048621563;-;-;0.6849756;1.3555812;9.560919;-2.1553092E-4;-0.01639016;0.027707912;-15.150001;30.45;-38.4;22.50136;-7.7224584;3.332533;1020.7256;-;-;51.52502863;-0.1334877;0.0
1531048621573;-;-;0.64186525;1.3076807;9.73815;-0.028445039;-0.044087034;0.0032068298;-15.150001;30.45;-38.4;22.50136;-7.7224584;3.332533;1020.7256;-;-;51.52502863;-0.1334877;0.0
1531048621583;-;-;0.76161623;1.2741505;9.848321;-0.03057557;-0.06432706;0.0074678874;-15.3;31.35;-39.9;22.477015;-7.7416725;3.3509338;1020.7256;-;-;51.52502863;-0.1334877;0.0
1531048621593;-;-;0.7664063;1.2406201;9.905801;-0.0311082;-0.057402838;0.016522635;-15.3;31.35;-39.9;22.477015;-7.7416725;3.3509338;1020.7256;-;-;51.52502863;-0.1334877;0.0
1531048621603;-;-;0.7089258;1.2981006;9.958491;-0.03057557;-0.057402838;0.009598416;-14.55;29.250002;-36.600002;22.468912;-7.716945;3.4032378;1020.7256;-;-;51.52502863;-0.1334877;0.0
1531048621613;-;-;0.7376661;1.2645704;10.059082;-0.0076723816;-0.03822808;0.012794211;-14.55;29.250002;-36.600002;22.468912;-7.716945;3.4032378;1020.7298;-;-;51.52502863;-0.1334877;0.0
1531048621624;-;-;0.7664063;1.2933106;10.068663;-0.0076723816;-0.03130386;0.009598416;-13.200001;31.650002;-37.800003;22.466196;-7.680547;3.474237;1020.7298;-;-;51.52502863;-0.1334877;0.0
1531048621634;-;-;0.75203615;1.3651612;10.212363;0.03120977;-0.0286407;0.0053373585;-13.200001;31.650002;-37.800003;22.466196;-7.680547;3.474237;1020.7298;-;-;51.52502863;-0.1334877;0.0
1531048621644;-;-;0.71371585;1.2885206;10.2315235;0.05304769;-0.037162814;-0.005315286;-14.400001;30.150002;-36.45;22.461359;-7.663545;3.5241053;1020.7298;-;-;51.52502863;-0.1334877;0.0
1531048621654;-;-;0.7185059;1.2454102;10.178833;0.077016145;-0.04834809;-0.0015868603;-14.400001;30.150002;-36.45;22.461359;-7.663545;3.5241053;1020.7298;-;-;51.52502863;-0.1334877;0.0
1531048621664;-;-;0.68976563;1.3076807;9.958491;0.091929846;-0.05580494;0.0032068298;-15.3;30.6;-37.800003;22.46457;-7.687637;3.5596123;1020.7298;-;-;51.52502863;-0.1334877;0.0
1531048621674;-;-;0.7759864;1.2645704;9.953702;0.100984596;-0.06645759;0.0032068298;-15.3;30.6;-37.800003;22.46457;-7.687637;3.5596123;1020.7298;-;-;51.52502863;-0.1334877;0.0
1531048621685;-;-;0.7424561;1.2741505;9.939331;0.09725617;-0.08829551;1.1036405E-5;-14.1;31.2;-39.300003;22.479895;-7.7701535;3.6146486;1020.7298;-;-;51.52502863;-0.1334877;0.0
1531048621694;-;-;0.6610254;1.2549903;9.929751;0.0993867;-0.107470274;0.0016089331;-14.1;31.2;-39.300003;22.479895;-7.7701535;3.6146486;1020.7298;-;-;51.52502863;-0.1334877;0.0
1531048621704;-;-;0.86220706;1.336421;9.77168;0.09139722;-0.11439449;-0.0042500217;-15.150001;30.150002;-36.75;22.490639;-7.881858;3.6932764;1020.7298;-;-;51.52502863;-0.1334877;0.0
1531048621714;-;-;0.7807764;1.2502003;9.6758795;0.07648351;-0.101611316;1.1036405E-5;-15.150001;30.150002;-36.75;22.490639;-7.881858;3.6932764;1020.7381;-;-;51.52502863;-0.1334877;0.0
1531048621724;-;-;0.7664063;1.2981006;9.460327;0.04559084;-0.10800291;-0.0042500217;-14.1;30.45;-36.75;22.508535;-7.995244;3.8093836;1020.7381;-;-;51.52502863;-0.1334877;0.0
1531048621734;-;-;0.74724615;1.3555812;9.407638;0.006708688;-0.10427448;0.011728945;-14.1;30.45;-36.75;22.508535;-7.995244;3.8093836;1020.7381;-;-;51.52502863;-0.1334877;0.0
1531048621745;-;-;0.8095166;1.2933106;9.350157;-0.03749979;-0.10800291;0.021316325;-13.500001;29.7;-37.050003;22.530233;-8.089481;3.9288821;1020.7381;-;-;51.52502863;-0.1334877;0.0
1531048621755;-;-;0.92926764;1.3028907;9.493857;-0.06519666;-0.10320921;0.017587898;-13.500001;29.7;-37.050003;22.530233;-8.089481;3.9288821;1020.7381;-;-;51.52502863;-0.1334877;0.0
1531048621765;-;-;0.97237796;1.2789404;9.565708;-0.08863248;-0.08882815;0.004272094;-14.55;29.250002;-37.050003;22.542204;-8.107523;4.048951;1020.7381;-;-;51.52502863;-0.1334877;0.0
1531048621775;-;-;1.1304493;1.3028907;9.704619;-0.103013545;-0.08616498;-0.016500562;-14.55;29.250002;-37.050003;22.542204;-8.107523;4.048951;1020.7381;-;-;51.52502863;-0.1334877;0.0
1531048621785;-;-;0.9196875;1.336421;9.6758795;-0.10727461;-0.06858812;-0.021294253;-14.250001;30.300001;-38.25;22.540583;-8.044291;4.167886;1020.7381;-;-;51.52502863;-0.1334877;0.0
1531048621796;-;-;0.8382569;1.22625;9.64714;-0.118992515;-0.06805549;-0.014902665;-14.250001;30.300001;-38.25;22.540583;-8.044291;4.167886;1020.7381;-;-;51.52502863;-0.1334877;0.0
1531048621806;-;-;0.86220706;1.3124708;9.78605;-0.121123046;-0.07231654;-0.0063805506;-15.150001;30.900002;-37.2;22.557549;-7.9305296;4.26345;1020.73315;-;-;51.52502863;-0.1334877;0.0
1531048621816;-;-;0.82388675;1.2885206;9.996812;-0.10354618;-0.058468103;-0.0042500217;-15.150001;30.900002;-37.2;22.557549;-7.9305296;4.26345;1020.73315;-;-;51.52502863;-0.1334877;0.0
1531048621826;-;-;0.9627979;1.1927198;10.039923;-0.08437142;-0.06805549;0.0048047267;-16.050001;31.500002;-38.100002;22.585413;-7.8030586;4.342425;1020.73315;-;-;51.52502863;-0.1334877;0.0
1531048621836;-;-;1.0106983;1.1831397;10.145303;-0.05720718;-0.05953337;1.1036405E-5;-16.050001;31.500002;-38.100002;22.585413;-7.8030586;4.342425;1020.73315;-;-;51.52502863;-0.1334877;0.0
1531048621846;-;-;1.1352394;1.21188;10.202784;-0.02578188;-0.041423872;-5.215958E-4;-14.700001;30.150002;-36.45;22.600039;-7.676927;4.421275;1020.73315;-;-;51.52502863;-0.1334877;0.0
1531048621856;-;-;1.2597803;1.1879297;10.030342;-0.0018134275;-0.040358607;-0.02555531;-14.700001;30.150002;-36.45;22.600039;-7.676927;4.421275;1020.73315;-;-;51.52502863;-0.1334877;0.0
1531048621867;-;-;1.2549903;1.22146;10.073453;0.015763436;-0.04302177;-0.04473007;-15.450001;31.500002;-37.2;22.606497;-7.601166;4.486803;1020.73315;-;-;51.52502863;-0.1334877;0.0
1531048621877;-;-;1.1352394;1.2837305;10.068663;0.024285551;-0.030238597;-0.062306933;-15.450001;31.500002;-37.2;22.606497;-7.601166;4.486803;1020.73315;-;-;51.52502863;-0.1334877;0.0
1531048621887;-;-;1.0681788;1.2310401;10.159674;0.047188736;-0.0110638365;-0.07136168;-14.700001;29.85;-36.45;22.627386;-7.588557;4.5314393;1020.73315;-;-;51.52502863;-0.1334877;0.0
1531048621897;-;-;0.96758795;1.2070899;10.140513;0.07648351;0.008110924;-0.07562274;-14.700001;29.85;-36.45;22.627386;-7.588557;4.5314393;1020.73315;-;-;51.52502863;-0.1334877;0.0
1531048621907;-;-;0.9388477;1.2358302;10.049502;0.09619091;0.0038498659;-0.07189431;-14.700001;31.500002;-37.65;22.688076;-7.620113;4.564439;1020.72943;-;-;51.52502863;-0.1334877;0.0
1531048621918;-;-;0.8909473;1.1927198;9.872271;0.10844145;0.017698303;-0.062306933;-14.700001;31.500002;-37.65;22.688076;-7.620113;4.564439;1020.72943;-;-;51.52502863;-0.1334877;0.0
1531048621928;-;-;0.7664063;1.21188;9.833951;0.10524565;0.018763566;-0.053252187;-14.700001;29.400002;-38.100002;22.7703;-7.7026267;4.5570436;1020.72943;-;-;51.52502863;-0.1334877;0.0
1531048621937;-;-;0.7232959;1.2310401;9.77647;0.09565827;-0.0014764565;-0.04473007;-14.700001;29.400002;-38.100002;22.7703;-7.7026267;4.5570436;1020.72943;-;-;51.52502863;-0.1334877;0.0
1531048621947;-;-;0.67539555;1.2645704;9.75731;0.079146676;-0.026510172;-0.027153207;-12.900001;28.95;-38.25;22.843971;-7.8296723;4.537584;1020.72943;-;-;51.52502863;-0.1334877;0.0
1531048621957;-;-;0.8047266;1.2454102;9.699829;0.074885614;-0.024912275;-0.007445815;-12.900001;28.95;-38.25;22.843971;-7.8296723;4.537584;1020.72943;-;-;51.52502863;-0.1334877;0.0
1531048621967;-;-;0.8861573;1.2885206;9.718989;0.07168982;-0.029173333;-0.009576344;-12.450001;29.7;-37.800003;22.896608;-7.9494348;4.5223083;1020.72943;-;-;51.52502863;-0.1334877;0.0
1531048621977;-;-;0.96758795;1.2310401;9.627979;0.056776118;-0.03769545;-0.0047826534;-12.450001;29.7;-37.800003;22.896608;-7.9494348;4.5223083;1020.72943;-;-;51.52502863;-0.1334877;0.0
1531048621988;-;-;0.75203615;1.3220508;9.570498;0.046656106;-0.032369126;0.010131049;-13.650001;29.1;-37.2;22.918814;-8.041365;4.5519156;1020.72943;-;-;51.52502863;-0.1334877;0.0
1531048621998;-;-;0.7711963;1.4130616;9.546548;0.024818182;-0.032901756;0.0074678874;-13.650001;29.1;-37.2;22.918814;-8.041365;4.5519156;1020.72943;-;-;51.52502863;-0.1334877;0.0
1531048622008;-;-;0.79993653;1.4465919;9.565708;0.027481344;0.0033172336;0.015457372;-14.1;28.800001;-37.65;22.928196;-8.111292;4.5930653;1020.7269;-;-;51.52502863;-0.1334877;0.0
1531048622018;-;-;0.9196875;1.3843213;9.69504;0.023752918;-9.438243E-4;0.0069352556;-14.1;28.800001;-37.65;22.928196;-8.111292;4.5930653;1020.7269;-;-;51.52502863;-0.1334877;0.0
1531048622029;-;-;1.1304493;1.3891114;9.872271;0.028013976;0.013969879;-0.030881634;-14.400001;28.800001;-37.65;22.922726;-8.152972;4.628959;1020.7269;-;-;51.52502863;-0.1334877;0.0
1531048622039;-;-;1.0873389;1.3028907;9.924961;0.047188736;0.0192962;-0.061774302;-15.750001;29.85;-38.4;22.911762;-8.182349;4.629436;1020.7269;-;-;51.52502863;-0.1334877;0.0
1531048622049;-;-;0.8909473;1.1256592;9.75252;0.05517822;0.02195936;-0.07295958;-15.750001;29.85;-38.4;22.911762;-8.182349;4.629436;1020.7269;-;-;51.52502863;-0.1334877;0.0
1531048622059;-;-;0.732876;1.1735597;9.656719;0.033872932;0.0054477626;-0.05698061;-13.500001;29.250002;-37.050003;22.95747;-8.229349;4.6044755;1020.7269;-;-;51.52502863;-0.1334877;0.0
1531048622069;-;-;0.57001466;1.4322218;9.474698;-0.014596601;-0.04834809;-0.0085110795;-13.500001;29.250002;-37.050003;22.95747;-8.229349;4.6044755;1020.7269;-;-;51.52502863;-0.1334877;0.0
1531048622080;-;-;0.60354495;1.5232325;9.532178;-0.041228212;-0.03822808;0.010131049;-14.400001;28.800001;-36.45;23.026478;-8.283994;4.582901;1020.7269;-;-;51.52502863;-0.1334877;0.0
1531048622090;-;-;0.9532178;1.4609619;9.594449;-0.085969314;-0.016922792;0.03463213;-14.400001;28.800001;-36.45;23.026478;-8.283994;4.582901;1020.7269;-;-;51.52502863;-0.1334877;0.0
1531048622100;-;-;1.0346485;1.4705421;9.508228;-0.0939588;-0.010531205;0.029838441;-13.35;30.45;-38.100002;23.026478;-8.283994;4.582901;1020.7269;-;-;51.52502863;-0.1334877;0.0
1531048622110;-;-;1.22146;1.4226416;9.479487;-0.13124306;0.01183935;0.0010763009;-13.35;30.45;-38.100002;23.033316;-8.25636;4.6275544;1020.72046;-;-;51.52502863;-0.1334877;0.0
1531048622120;-;-;1.331631;1.2885206;9.484278;-0.14775467;0.0145025095;-0.010641607;-16.050001;30.900002;-37.65;23.00227;-8.154299;4.6528707;1020.72046;-;-;51.52502863;-0.1334877;0.0
1531048622130;-;-;1.2741505;1.3220508;9.599238;-0.17758207;0.004382498;-0.04313217;-16.050001;30.900002;-37.65;23.00227;-8.154299;4.6528707;1020.72046;-;-;51.52502863;-0.1334877;0.0
1531048622141;-;-;1.3076807;1.21188;9.800421;-0.18397366;-0.003074353;-0.05431745;-14.55;30.000002;-35.850002;22.999592;-8.003744;4.640113;1020.72046;-;-;51.52502863;-0.1334877;0.0
1531048622151;-;-;1.0729688;1.2166699;9.972861;-0.1749189;0.009176188;-0.09213434;-14.55;30.000002;-35.850002;22.999592;-8.003744;4.640113;1020.72046;-;-;51.52502863;-0.1334877;0.0
1531048622161;-;-;0.89573735;1.2358302;10.030342;-0.15893994;0.0027846014;-0.0947975;-14.85;29.7;-37.800003;23.051165;-7.8034487;4.6316442;1020.72046;-;-;51.52502863;-0.1334877;0.0
1531048622171;-;-;0.728086;1.2597803;10.207574;-0.11632936;0.0145025095;-0.09799329;-14.85;29.7;-37.800003;23.051165;-7.8034487;4.6316442;1020.72046;-;-;51.52502863;-0.1334877;0.0
1531048622181;-;-;0.8382569;1.2502003;10.303374;-0.09289353;0.013969879;-0.09959119;-15.3;29.7;-39.45;23.1519;-7.6152396;4.606737;1020.72046;-;-;51.52502863;-0.1334877;0.0
1531048622192;-;-;0.852627;1.2693604;10.336905;-0.073186144;0.007578292;-0.09959119;-15.3;29.7;-39.45;23.1519;-7.6152396;4.606737;1020.72046;-;-;51.52502863;-0.1334877;0.0
1531048622201;-;-;0.8143067;1.1735597;10.236314;-0.06519666;-0.0041396176;-0.09959119;-14.1;29.400002;-37.2;23.264177;-7.4888444;4.57965;1020.72046;-;-;51.52502863;-0.1334877;0.0
1531048622211;-;-;0.7568262;1.1687696;10.083033;-0.048685063;-0.02331438;-0.09852593;-14.1;29.400002;-37.2;23.264177;-7.4888444;4.57965;1020.7266;-;-;51.52502863;-0.1334877;0.0
1531048622221;-;-;0.74724615;1.101709;9.987232;-0.03856544;-0.027045436;-0.09321013;-14.1;29.400002;-37.2;23.264177;-7.4888444;4.57965;1020.7266;-;-;51.52502863;-0.1334877;0.0
1531048622231;-;-;0.9244776;1.1496094;9.7812605;-0.02152121;-0.08190656;-0.09001434;-15.3;31.050001;-37.5;23.376144;-7.414674;4.5600705;1020.7266;-;-;51.52502863;-0.1334877;0.0
1531048622241;-;-;1.0346485;1.2406201;9.613608;-0.012466462;-0.076580234;-0.097471185;-14.700001;30.150002;-38.4;23.487822;-7.371746;4.57985;1020.7266;-;-;51.52502863;-0.1334877;0.0
1531048622252;-;-;1.0825489;1.1687696;9.378897;-0.045489658;-0.09202657;-0.12357017;-14.700001;30.150002;-38.4;23.487822;-7.371746;4.57985;1020.7266;-;-;51.52502863;-0.1334877;0.0
1531048622262;-;-;1.0202783;1.1543995;9.3453665;-0.062001258;-0.095754996;-0.13049437;-15.450001;29.400002;-38.4;23.600485;-7.359111;4.6540213;1020.7266;-;-;51.52502863;-0.1334877;0.0
1531048622272;-;-;0.8765772;1.0202783;9.407638;-0.10088342;-0.11013606;-0.14167966;-15.450001;29.400002;-38.4;23.600485;-7.359111;4.6540213;1020.7266;-;-;51.52502863;-0.1334877;0.0
1531048622282;-;-;0.8334668;1.0681788;9.508228;-0.1418961;-0.13037609;-0.13954912;-14.700001;30.150002;-39.300003;23.741802;-7.3239346;4.740478;1020.7266;-;-;51.52502863;-0.1334877;0.0
1531048622292;-;-;0.67539555;1.1496094;9.977652;-0.15734243;-0.1436919;-0.11451542;-14.700001;30.150002;-39.300003;23.741802;-7.3239346;4.740478;1020.7266;-;-;51.52502863;-0.1334877;0.0
1531048622303;-;-;0.79035646;1.1112891;10.188414;-0.1520161;-0.124517135;-0.10013435;-15.150001;30.45;-37.65;23.911718;-7.221739;4.849156;1020.7218;-;-;51.52502863;-0.1334877;0.0
1531048622312;-;-;0.92926764;1.2693604;10.466236;-0.09555709;-0.10587501;-0.09427539;-15.150001;30.45;-37.65;23.911718;-7.221739;4.849156;1020.7218;-;-;51.52502863;-0.1334877;0.0
1531048622322;-;-;0.977168;1.2693604;10.485396;-0.039630704;-0.08030866;-0.09906908;-15.450001;29.1;-36.45;24.064905;-7.0610814;4.9829073;1020.7218;-;-;51.52502863;-0.1334877;0.0
1531048622332;-;-;0.9388477;1.1160791;10.585987;0.0546452;-0.054742314;-0.10546067;-15.450001;29.1;-36.45;24.064905;-7.0610814;4.9829073;1020.7218;-;-;51.52502863;-0.1334877;0.0
1531048622342;-;-;0.8334668;1.1304493;10.3512745;0.12069159;-0.041959137;-0.10705857;-14.700001;30.45;-37.2;24.184893;-6.9672174;5.0828023;1020.7218;-;-;51.52502863;-0.1334877;0.0
1531048622353;-;-;0.7807764;1.1879297;9.948912;0.14466004;-0.048883356;-0.09214487;-14.700001;30.45;-37.2;24.184893;-6.9672174;5.0828023;1020.7218;-;-;51.52502863;-0.1334877;0.0
1531048622362;-;-;0.8143067;1.2502003;9.857901;0.12761581;-0.0611339;-0.08202485;-13.950001;30.300001;-37.050003;24.313272;-7.0377145;5.136337;1020.7218;-;-;51.52502863;-0.1334877;0.0
1531048622372;-;-;0.9484278;1.1735597;9.77647;0.12761581;-0.08350445;-0.075633265;-13.950001;30.300001;-37.050003;24.313272;-7.0377145;5.136337;1020.7218;-;-;51.52502863;-0.1334877;0.0
1531048622382;-;-;0.9196875;1.2502003;9.929751;0.13454004;-0.08883078;-0.08788381;-14.55;29.250002;-37.800003;24.426477;-7.198776;5.1830993;1020.7218;-;-;51.52502863;-0.1334877;0.0
1531048622392;-;-;0.82388675;1.2693604;9.881851;0.12015896;-0.09735289;-0.08894907;-14.55;29.250002;-37.800003;24.426477;-7.198776;5.1830993;1020.7218;-;-;51.52502863;-0.1334877;0.0
1531048622402;-;-;0.79035646;1.2885206;9.80521;0.11270211;-0.091493934;-0.076698534;-14.85;30.6;-36.15;24.534597;-7.357847;5.2595167;1020.7185;-;-;51.52502863;-0.1334877;0.0
1531048622413;-;-;0.7759864;1.3555812;9.74773;0.09352735;-0.0611339;-0.045805857;-14.85;30.6;-36.15;24.534597;-7.357847;5.2595167;1020.7185;-;-;51.52502863;-0.1334877;0.0
1531048622422;-;-;0.8047266;1.346001;9.632769;0.070624165;-0.03982861;-0.030892156;-14.250001;28.650002;-37.5;24.648634;-7.5109043;5.348785;1020.7185;-;-;51.52502863;-0.1334877;0.0
1531048622433;-;-;1.0106983;1.3747413;9.637559;0.05038414;-0.008403309;-0.015445821;-14.250001;28.650002;-37.5;24.648634;-7.5109043;5.348785;1020.7185;-;-;51.52502863;-0.1334877;0.0
1531048622447;-;-;1.0777588;1.2645704;9.77168;0.041862026;0.02728305;-0.007456338;-15.900001;30.6;-37.050003;24.715975;-7.621724;5.4134836;1020.7185;-;-;51.52502863;-0.1334877;0.0
1531048622453;-;-;0.87178713;1.2070899;9.78605;0.031742014;0.033142004;-0.009054234;-15.900001;30.6;-37.050003;24.715975;-7.621724;5.4134836;1020.7185;-;-;51.52502863;-0.1334877;0.0
1531048622463;-;-;0.852627;1.3220508;9.7621;0.041329395;0.04379465;0.0015984098;-15.150001;29.85;-36.45;24.740616;-7.6863804;5.421292;1020.7185;-;-;51.52502863;-0.1334877;0.0
1531048622473;-;-;0.87178713;1.4178516;9.881851;0.033872545;0.0363378;0.019707907;-15.150001;29.85;-36.45;24.740616;-7.6863804;5.421292;1020.7185;-;-;51.52502863;-0.1334877;0.0
1531048622483;-;-;0.9196875;1.3028907;9.85311;0.045590453;0.04805571;0.029827919;-16.050001;29.400002;-38.4;24.741617;-7.7302856;5.389036;1020.7185;-;-;51.52502863;-0.1334877;0.0
1531048622494;-;-;0.9580079;1.2454102;9.632769;0.0546452;0.046457812;0.03036055;-16.050001;29.400002;-38.4;24.741617;-7.7302856;5.389036;1020.7164;-;-;51.52502863;-0.1334877;0.0
1531048622504;-;-;1.0346485;1.336421;9.498648;0.041862026;0.061904147;0.033556346;-16.35;28.95;-37.800003;24.71016;-7.7701364;5.345111;1020.7164;-;-;51.52502863;-0.1334877;0.0
1531048622514;-;-;0.9963282;1.3076807;9.560919;0.005110401;0.05551256;0.03675214;-16.35;28.95;-37.800003;24.71016;-7.7701364;5.345111;1020.7164;-;-;51.52502863;-0.1334877;0.0
1531048622524;-;-;0.9532178;1.2310401;9.83874;0.00244724;0.06350204;0.021305803;-16.5;29.85;-37.2;24.664465;-7.821216;5.289137;1020.7164;-;-;51.52502863;-0.1334877;0.0
1531048622534;-;-;0.9580079;1.1831397;10.020762;0.013632517;0.05817572;0.02077317;-16.5;29.85;-37.2;24.664465;-7.821216;5.289137;1020.7164;-;-;51.52502863;-0.1334877;0.0
1531048622544;-;-;0.9867481;1.2933106;10.092612;0.02641569;0.040066224;0.013848951;-16.35;30.000002;-38.25;24.615396;-7.8361773;5.2359266;1020.7164;-;-;51.52502863;-0.1334877;0.0
1531048622555;-;-;1.0298585;1.2789404;10.083033;0.034405176;0.024087258;0.015446849;-16.35;30.000002;-38.25;24.615396;-7.8361773;5.2359266;1020.7164;-;-;51.52502863;-0.1334877;0.0
1531048622565;-;-;1.0633887;1.2166699;10.116563;0.056243096;0.021956727;0.013316318;-16.800001;30.150002;-40.050003;24.584621;-7.8467703;5.1723456;1020.7164;-;-;51.52502863;-0.1334877;0.0
1531048622575;-;-;1.0106983;1.2406201;10.078242;0.08074418;0.032609373;0.010653159;-16.800001;30.150002;-40.050003;24.584621;-7.8467703;5.1723456;1020.7164;-;-;51.52502863;-0.1334877;0.0
1531048622586;-;-;0.9196875;1.3651612;9.920172;0.09192945;0.016630407;0.019707907;-17.1;29.85;-37.2;24.564096;-7.88391;5.1410375;1020.7164;-;-;51.52502863;-0.1334877;0.0
1531048622596;-;-;0.90052736;1.3268409;9.599238;0.08074418;0.0065103928;0.03249108;-17.1;29.85;-37.2;24.564096;-7.88391;5.1410375;1020.70984;-;-;51.52502863;-0.1334877;0.0
1531048622605;-;-;0.9963282;1.3220508;9.354947;0.04718835;0.0017167032;0.034621608;-16.650002;29.7;-37.050003;24.549261;-7.9651017;5.1140485;1020.70984;-;-;51.52502863;-0.1334877;0.0
1531048622615;-;-;1.1112891;1.2885206;9.101074;-0.009270669;0.010238819;0.026632125;-16.650002;29.7;-37.050003;24.549261;-7.9651017;5.1140485;1020.70984;-;-;51.52502863;-0.1334877;0.0
1531048622625;-;-;1.1112891;1.3603711;8.957374;-0.057207566;0.0512515;0.013316318;-14.700001;30.45;-36.45;24.521133;-8.051151;5.10759;1020.70984;-;-;51.52502863;-0.1334877;0.0
1531048622636;-;-;1.22146;1.3220508;8.689131;-0.120590806;0.10984105;-0.0031952802;-14.700001;30.45;-36.45;24.521133;-8.051151;5.10759;1020.70984;-;-;51.52502863;-0.1334877;0.0
1531048622646;-;-;1.1496094;1.3076807;8.49274;-0.23084567;0.14286424;-0.014913188;-15.150001;29.85;-36.75;24.486984;-8.055478;5.098565;1020.70984;-;-;51.52502863;-0.1334877;0.0
1531048622669;-;-;0.9963282;1.3076807;9.105865;-0.42099538;0.13114634;-0.042610064;-15.450001;29.400002;-37.2;24.47041;-7.933924;4.990957;1020.70984;-;-;51.52502863;-0.1334877;0.0
1531048622667;-;-;1.0873389;1.3651612;8.962164;-0.40554905;0.12635264;-0.03888164;-15.450001;29.400002;-37.2;24.47041;-7.933924;4.990957;1020.70984;-;-;51.52502863;-0.1334877;0.0
1531048622694;-;-;1.0394385;1.1879297;10.720108;-0.42632172;0.015032508;-0.08628591;-17.1;31.2;-38.4;24.470726;-7.6216393;4.816024;1020.71655;-;-;51.52502863;-0.1334877;0.0
1531048622692;-;-;0.9627979;1.1735597;10.643467;-0.45188805;0.03420727;-0.082557485;-17.1;31.2;-38.4;24.470726;-7.6216393;4.816024;1020.71655;-;-;51.52502863;-0.1334877;0.0
1531048622698;-;-;0.97237796;1.21188;10.744058;-0.42632172;0.015032508;-0.08628591;-16.650002;32.100002;-39.0;24.509474;-7.1321883;4.6773515;1020.71655;-;-;51.52502863;-0.1334877;0.0
1531048622710;-;-;0.8909473;0.9627979;11.184742;-0.30434892;-0.014794896;-0.080426954;-16.650002;32.100002;-39.0;24.509474;-7.1321883;4.6773515;1020.71655;-;-;51.52502863;-0.1334877;0.0
1531048622738;-;-;1.0106983;1.21188;11.136841;-0.03590228;0.061371513;-0.052197445;-16.050001;32.550003;-38.4;24.601147;-6.6446695;4.637623;1020.71655;-;-;51.52502863;-0.1334877;0.0
1531048622738;-;-;1.0106983;1.21188;11.136841;-0.03590228;0.061371513;-0.052197445;-16.050001;32.550003;-38.4;24.601147;-6.6446695;4.637623;1020.71655;-;-;51.52502863;-0.1334877;0.0
1531048622739;-;-;1.0106983;1.21188;11.136841;-0.03590228;0.061371513;-0.052197445;-16.5;31.2;-37.2;24.601147;-6.6446695;4.637623;1020.71655;-;-;51.52502863;-0.1334877;0.0
1531048622750;-;-;1.0681788;1.0585986;10.93087;0.09352735;0.08214417;-0.055925872;-16.5;31.2;-37.2;24.694082;-6.3360868;4.6363916;1020.71655;-;-;51.52502863;-0.1334877;0.0
1531048622760;-;-;1.0346485;1.1112891;10.782378;0.13507266;0.08161154;-0.056991134;-16.800001;32.550003;-39.600002;24.754776;-6.269511;4.5687914;1020.71655;-;-;51.52502863;-0.1334877;0.0
1531048622780;-;-;0.8813672;1.0633887;10.121353;0.21869592;0.10398209;-0.05059955;-16.800001;32.25;-39.600002;24.807055;-6.4076552;4.4712253;1020.71655;-;-;51.52502863;-0.1334877;0.0
1531048622772;-;-;0.93405765;1.0585986;10.236314;0.2165654;0.09599261;-0.06071956;-16.800001;32.550003;-39.600002;24.754776;-6.269511;4.5687914;1020.71655;-;-;51.52502863;-0.1334877;0.0
1531048622791;-;-;0.57959473;1.0154883;9.666299;0.2165654;0.079481006;-0.019706879;-16.800001;32.25;-39.600002;24.807055;-6.4076552;4.4712253;1020.7117;-;-;51.52502863;-0.1334877;0.0
1531048622801;-;-;0.5029541;1.0585986;9.599238;0.20324959;0.06509994;-0.0085216025;-16.95;30.6;-39.45;24.848686;-6.6539745;4.3567443;1020.7117;-;-;51.52502863;-0.1334877;0.0
1531048622811;-;-;0.60833496;1.1064991;9.465117;0.15957375;0.00810829;0.034621608;-16.95;30.6;-39.45;24.848686;-6.6539745;4.3567443;1020.7117;-;-;51.52502863;-0.1334877;0.0
1531048622824;-;-;0.81909674;1.2070899;9.613608;0.1324095;-0.0062727802;0.0394153;-16.95;32.7;-39.0;24.85377;-6.8890386;4.277751;1020.7117;-;-;51.52502863;-0.1334877;0.0
1531048622833;-;-;0.9053174;1.22146;9.656719;0.12974635;-0.015327528;0.041013196;-16.95;32.7;-39.0;24.85377;-6.8890386;4.277751;1020.7117;-;-;51.52502863;-0.1334877;0.0
1531048622843;-;-;0.9244776;1.1831397;9.82437;0.1174958;-0.024382275;0.031425815;-16.5;31.500002;-40.95;24.805695;-7.0651345;4.2721796;1020.7117;-;-;51.52502863;-0.1334877;0.0
1531048622854;-;-;0.89573735;1.1639795;9.75731;0.10364736;0.0129019795;-0.015978454;-16.5;31.500002;-40.95;24.805695;-7.0651345;4.2721796;1020.7117;-;-;51.52502863;-0.1334877;0.0
1531048622864;-;-;0.86220706;1.0873389;9.7142;0.10364736;0.0129019795;-0.015978454;-16.050001;30.150002;-39.300003;24.769924;-7.200811;4.298597;1020.7117;-;-;51.52502863;-0.1334877;0.0
1531048622874;-;-;0.6658155;1.1304493;9.7621;0.1009842;0.038468327;-0.009586867;-16.050001;30.150002;-39.300003;24.769924;-7.200811;4.298597;1020.7117;-;-;51.52502863;-0.1334877;0.0
1531048622884;-;-;0.56522465;1.101709;9.6615095;0.08021154;0.016097773;0.007989997;-15.900001;32.4;-38.25;24.785007;-7.3196554;4.294522;1020.7117;-;-;51.52502863;-0.1334877;0.0
1531048622894;-;-;0.50774413;1.1783496;9.560919;0.063699946;0.005445129;0.028230023;-15.900001;32.4;-38.25;24.785007;-7.3196554;4.294522;1020.7117;-;-;51.52502863;-0.1334877;0.0
1531048622905;-;-;0.5939649;1.1352394;9.546548;0.06423257;0.0070430255;0.03994793;-17.25;31.050001;-38.7;24.79507;-7.430973;4.261771;1020.71094;-;-;51.52502863;-0.1334877;0.0
1531048622917;-;-;0.7232959;1.2070899;9.651929;0.05038414;0.016630407;0.050600577;-17.25;31.050001;-38.7;24.79507;-7.430973;4.261771;1020.71094;-;-;51.52502863;-0.1334877;0.0
1531048622928;-;-;0.728086;1.1879297;9.589659;0.048253614;0.0198262;0.057524793;-18.300001;32.4;-39.9;24.76186;-7.5048594;4.253519;1020.71094;-;-;51.52502863;-0.1334877;0.0
1531048622939;-;-;0.6610254;1.22625;9.580078;0.032274645;0.0049124965;0.07510165;-17.550001;31.500002;-40.5;24.76186;-7.5048594;4.253519;1020.71094;-;-;51.52502863;-0.1334877;0.0
1531048622948;-;-;0.67539555;1.3268409;9.508228;-0.012999095;-9.4645796E-4;0.07669955;-17.550001;31.500002;-40.5;24.705465;-7.560051;4.243327;1020.71094;-;-;51.52502863;-0.1334877;0.0
1531048622959;-;-;0.6562354;1.3076807;9.4507475;-0.0412286;0.0022493354;0.08202587;-17.550001;31.500002;-40.5;24.705465;-7.560051;4.243327;1020.71094;-;-;51.52502863;-0.1334877;0.0
1531048622968;-;-;0.7807764;1.3220508;9.584868;-0.08117602;-0.0020117224;0.096406944;-17.85;30.900002;-39.300003;24.633879;-7.5917454;4.2415595;1020.71094;-;-;51.52502863;-0.1334877;0.0
1531048622978;-;-;0.847837;1.2789404;9.699829;-0.08490445;-0.019588586;0.08841746;-15.6;31.650002;-38.7;24.633879;-7.5917454;4.2415595;1020.71094;-;-;51.52502863;-0.1334877;0.0
1531048622991;-;-;0.96758795;1.2693604;10.087823;-0.06626232;-0.044089667;0.059655324;-15.6;31.650002;-38.7;24.535656;-7.5527835;4.25429;1020.71094;-;-;51.52502863;-0.1334877;0.0
1531048623000;-;-;1.0011182;1.1975098;10.279425;-0.05081598;-0.043557037;0.04687215;-18.0;30.300001;-38.25;24.535656;-7.5527835;4.25429;1020.71014;-;-;51.52502863;-0.1334877;0.0
1531048623010;-;-;1.0442286;1.2358302;10.188414;0.028013587;-0.009468573;0.029295284;-18.0;30.300001;-38.25;24.439302;-7.449074;4.2888575;1020.71014;-;-;51.52502863;-0.1334877;0.0
1531048623022;-;-;1.0538087;1.1879297;10.197993;0.034405176;-0.003609619;0.028762653;-18.0;30.300001;-38.25;24.439302;-7.449074;4.2888575;1020.71014;-;-;51.52502863;-0.1334877;0.0
1531048623032;-;-;0.852627;1.2406201;9.733359;0.06423257;0.046457812;0.041545827;-16.5;30.45;-39.600002;24.390337;-7.3851376;4.3455844;1020.71014;-;-;51.52502863;-0.1334877;0.0
1531048623042;-;-;0.852627;1.2454102;9.77168;0.05784099;0.042196754;0.04740478;-18.150002;30.45;-38.850002;24.360785;-7.4163685;4.3573465;1020.71014;-;-;51.52502863;-0.1334877;0.0
1531048623052;-;-;0.9244776;1.2741505;9.503438;0.014697781;0.037935697;0.05859006;-18.150002;30.45;-38.850002;24.360785;-7.4163685;4.3573465;1020.71014;-;-;51.52502863;-0.1334877;0.0
1531048623064;-;-;0.98195803;1.2358302;9.68067;0.005110401;0.03900096;0.06072059;-16.050001;31.2;-39.600002;24.306633;-7.4837413;4.3168225;1020.71014;-;-;51.52502863;-0.1334877;0.0
1531048623074;-;-;1.0729688;1.2933106;9.666299;-0.036967542;0.031011477;0.03036055;-16.050001;31.2;-39.600002;24.306633;-7.4837413;4.3168225;1020.71014;-;-;51.52502863;-0.1334877;0.0
1531048623104;-;-;1.0729688;1.22625;10.241104;-0.03377175;0.032076743;-0.025033202;-17.7;31.050001;-40.2;24.18125;-7.452534;4.2605753;1020.7129;-;-;51.52502863;-0.1334877;0.0
1531048623101;-;-;1.0490186;1.2645704;10.193204;-0.03590228;0.015032508;-0.005325809;-17.7;31.050001;-40.2;24.18125;-7.452534;4.2605753;1020.7129;-;-;51.52502863;-0.1334877;0.0
1531048623111;-;-;1.0873389;1.2310401;10.178833;0.008306194;0.07521995;-0.021304775;-17.7;31.050001;-40.2;24.18125;-7.452534;4.2605753;1020.7129;-;-;51.52502863;-0.1334877;0.0
1531048623122;-;-;0.9627979;1.1879297;10.145303;0.0093714595;0.08374207;-0.027696362;-17.7;31.050001;-40.2;24.18125;-7.452534;4.2605753;1020.7129;-;-;51.52502863;-0.1334877;0.0
1531048623132;-;-;0.78556645;1.1879297;9.814791;0.041329395;0.1141021;-0.030359523;-17.85;29.85;-38.4;24.174644;-7.410615;4.2387443;1020.7129;-;-;51.52502863;-0.1334877;0.0
1531048623143;-;-;0.7664063;1.1352394;9.800421;0.029611483;0.11090631;-0.019706879;-16.650002;31.650002;-39.0;24.19043;-7.4220715;4.1462803;1020.7129;-;-;51.52502863;-0.1334877;0.0
1531048623153;-;-;0.7376661;1.2358302;9.75252;0.012567252;0.08161154;0.009055261;-16.650002;31.650002;-39.0;24.19043;-7.4220715;4.1462803;1020.7129;-;-;51.52502863;-0.1334877;0.0
1531048623163;-;-;0.7041358;1.22625;9.699829;-0.0034117145;0.06829573;0.02077317;-15.750001;31.2;-40.050003;24.202854;-7.4638944;4.0164604;1020.7129;-;-;51.52502863;-0.1334877;0.0
1531048623176;-;-;0.86220706;1.1304493;9.72378;-0.0082054045;0.06509994;0.007989997;-15.750001;31.2;-40.050003;24.202854;-7.4638944;4.0164604;1020.7129;-;-;51.52502863;-0.1334877;0.0
1531048623187;-;-;0.9196875;1.1831397;9.642349;-0.01193383;0.049120974;0.009587893;-15.900001;32.100002;-39.0;24.188509;-7.4752574;3.9241152;1020.7129;-;-;51.52502863;-0.1334877;0.0
1531048623197;-;-;0.7424561;1.1352394;9.431587;-0.046554923;0.05604519;-0.0015973835;-15.900001;32.100002;-39.0;24.188509;-7.4752574;3.9241152;1020.7129;-;-;51.52502863;-0.1334877;0.0
1531048623208;-;-;0.5891748;1.21188;9.489068;-0.07158864;0.033142004;0.015446849;-17.1;32.550003;-39.300003;24.161396;-7.4626303;3.8601584;1020.7113;-;-;51.52502863;-0.1334877;0.0
1531048623218;-;-;0.5125342;1.2310401;9.551338;-0.10514447;0.018228304;0.010120526;-17.1;32.550003;-39.300003;24.161396;-7.4626303;3.8601584;1020.7113;-;-;51.52502863;-0.1334877;0.0
1531048623228;-;-;0.5939649;1.1783496;9.513018;-0.10940498;0.015568828;0.03197318;-17.85;31.500002;-39.300003;24.145357;-7.4182243;3.7990346;1020.7113;-;-;51.52502863;-0.1334877;0.0
1531048623242;-;-;0.6322852;1.1783496;9.833951;-0.13337342;-0.015323841;0.04635425;-17.550001;33.300003;-38.850002;24.120722;-7.3098655;3.7784941;1020.7113;-;-;51.52502863;-0.1334877;0.0
1531048623250;-;-;0.6610254;1.1064991;10.020762;-0.13230817;-0.022780692;0.023451064;-17.550001;33.300003;-38.850002;24.120722;-7.3098655;3.7784941;1020.7113;-;-;51.52502863;-0.1334877;0.0
1531048623260;-;-;0.7232959;1.1064991;10.164463;-0.091828115;0.0070467126;0.033038445;-17.7;32.100002;-37.800003;24.120722;-7.3098655;3.7784941;1020.7113;-;-;51.52502863;-0.1334877;0.0
1531048623274;-;-;0.7041358;0.96758795;9.910591;-0.044423852;0.029949898;0.05327847;-17.7;32.100002;-37.800003;24.084328;-7.157203;3.7920947;1020.7113;-;-;51.52502863;-0.1334877;0.0
1531048623284;-;-;0.7041358;0.96758795;9.910591;-0.044423852;0.029949898;0.05327847;-16.95;31.650002;-38.25;24.084328;-7.157203;3.7920947;1020.7113;-;-;51.52502863;-0.1334877;0.0
1531048623294;-;-;0.5029541;1.0585986;9.599238;-0.043358587;0.051787823;0.07937745;-16.95;31.650002;-38.25;24.043531;-7.0468936;3.7980318;1020.7113;-;-;51.52502863;-0.1334877;0.0
1531048623309;-;-;0.60354495;1.1543995;9.79084;-0.06732703;0.0022530225;0.09535641;-17.25;32.7;-38.25;23.987417;-6.990968;3.772808;1020.71466;-;-;51.52502863;-0.1334877;0.0
1531048623315;-;-;0.67539555;1.2358302;9.83874;-0.06945756;-0.010530151;0.114531174;-17.25;32.7;-38.25;23.987417;-6.990968;3.772808;1020.71466;-;-;51.52502863;-0.1334877;0.0
1531048623325;-;-;0.728086;1.0873389;10.059082;-0.06253334;-0.022780692;0.102813266;-18.0;32.7;-39.0;23.890884;-6.9301233;3.7371373;1020.71466;-;-;51.52502863;-0.1334877;0.0
1531048623335;-;-;0.75203615;1.096919;10.154883;-0.036966998;-0.019052267;0.093758516;-18.0;32.7;-39.0;23.890884;-6.9301233;3.7371373;1020.71466;-;-;51.52502863;-0.1334877;0.0
1531048623345;-;-;0.68018556;1.1352394;10.0063925;-0.005009065;-0.009997519;0.083638504;-17.1;31.800001;-40.5;23.773054;-6.841945;3.7645943;1020.71466;-;-;51.52502863;-0.1334877;0.0
1531048623355;-;-;0.6706055;1.1448194;10.054293;0.0077741086;0.0022530225;0.08310588;-17.1;31.800001;-40.5;23.773054;-6.841945;3.7645943;1020.71466;-;-;51.52502863;-0.1334877;0.0
1531048623365;-;-;0.7232959;1.1831397;10.126143;0.01789412;1.224936E-4;0.080975346;-15.6;31.35;-38.7;23.672516;-6.7900925;3.797602;1020.71466;-;-;51.52502863;-0.1334877;0.0
1531048623376;-;-;0.7568262;1.1543995;10.111773;0.021089913;0.024090944;0.07564902;-15.6;31.35;-38.7;23.672516;-6.7900925;3.797602;1020.71466;-;-;51.52502863;-0.1334877;0.0
1531048623386;-;-;0.87178713;1.1256592;10.197993;0.016828855;0.001187758;0.05594163;-14.85;29.7;-38.25;23.579735;-6.7868123;3.8128858;1020.71466;-;-;51.52502863;-0.1334877;0.0
1531048623396;-;-;0.9053174;1.2022998;10.202784;0.029079396;0.0150361955;0.052213207;-14.85;29.7;-38.25;23.579735;-6.7868123;3.8128858;1020.71466;-;-;51.52502863;-0.1334877;0.0
1531048623406;-;-;0.9196875;1.1879297;10.020762;0.035470985;0.041135177;0.0388974;-15.150001;30.900002;-38.4;23.488403;-6.803173;3.813376;1020.71576;-;-;51.52502863;-0.1334877;0.0
1531048623416;-;-;0.852627;1.1879297;10.011182;0.038666777;0.061907835;0.017592108;-15.150001;30.900002;-38.4;23.488403;-6.803173;3.813376;1020.71576;-;-;51.52502863;-0.1334877;0.0
1531048623427;-;-;0.71371585;1.2070899;9.972861;0.021622546;0.04433097;0.030907916;-16.650002;32.7;-38.7;23.421623;-6.8301873;3.800398;1020.71576;-;-;51.52502863;-0.1334877;0.0
1531048623437;-;-;0.6849756;1.2454102;9.85311;0.023220442;0.03634149;0.004808936;-16.35;30.6;-39.9;23.421623;-6.8301873;3.800398;1020.71576;-;-;51.52502863;-0.1334877;0.0
1531048623449;-;-;0.82388675;1.1735597;9.75731;0.025350971;0.03740675;0.0042763036;-16.35;30.6;-39.9;23.381723;-6.871978;3.745034;1020.71576;-;-;51.52502863;-0.1334877;0.0
1531048623458;-;-;0.9053174;1.1208692;9.541759;0.022687811;0.037939385;0.011733154;-15.750001;31.500002;-37.65;23.357758;-6.900227;3.7000878;1020.71576;-;-;51.52502863;-0.1334877;0.0
1531048623468;-;-;0.6849756;1.3172607;9.68067;-0.011933284;0.034743592;-0.0037131798;-15.750001;31.500002;-37.65;23.357758;-6.900227;3.7000878;1020.71576;-;-;51.52502863;-0.1334877;0.0
1531048623479;-;-;0.78556645;1.2310401;9.80521;-0.019390136;0.019297253;-0.0031805476;-15.450001;31.800001;-40.95;23.339022;-6.9237576;3.6522539;1020.71576;-;-;51.52502863;-0.1334877;0.0
1531048623488;-;-;0.7807764;1.1112891;9.81958;-0.042825952;-0.006269093;-0.010104766;-15.450001;31.800001;-40.95;23.339022;-6.9237576;3.6522539;1020.71576;-;-;51.52502863;-0.1334877;0.0
1531048623499;-;-;0.852627;1.1448194;9.867481;-0.040695425;-0.0025406675;-0.0037131798;-17.1;30.45;-37.65;23.337488;-6.904762;3.6255205;1020.70996;-;-;51.52502863;-0.1334877;0.0
1531048623510;-;-;0.67539555;1.1639795;10.073453;-0.025781723;-0.013193312;0.0021457747;-17.1;30.45;-37.65;23.337488;-6.904762;3.6255205;1020.70996;-;-;51.52502863;-0.1334877;0.0
1531048623522;-;-;0.6849756;1.1352394;10.011182;-0.012465917;-0.017987002;0.03197318;-16.800001;31.500002;-40.5;23.346779;-6.8590746;3.632206;1020.70996;-;-;51.52502863;-0.1334877;0.0
1531048623530;-;-;0.67539555;1.0442286;10.068663;0.0051109474;-0.023313325;0.050082676;-16.800001;31.500002;-40.5;23.346779;-6.8590746;3.632206;1020.70996;-;-;51.52502863;-0.1334877;0.0
1531048623541;-;-;0.68018556;1.1304493;10.068663;0.0072414763;-0.013725944;0.030907916;-18.6;31.800001;-37.65;23.338326;-6.834754;3.6526253;1020.70996;-;-;51.52502863;-0.1334877;0.0
1531048623550;-;-;0.74724615;1.0681788;10.164463;0.032807823;-0.017987002;0.059670057;-18.6;31.800001;-37.65;23.338326;-6.834754;3.6526253;1020.70996;-;-;51.52502863;-0.1334877;0.0
1531048623561;-;-;0.7232959;1.0777588;10.250684;0.054113112;-0.013725944;0.06712691;-16.800001;31.500002;-40.050003;23.294218;-6.8396654;3.676589;1020.70996;-;-;51.52502863;-0.1334877;0.0
1531048623570;-;-;0.7568262;1.1352394;10.260264;0.08607105;-0.009997519;0.06979007;-16.800001;31.500002;-40.050003;23.294218;-6.8396654;3.676589;1020.70996;-;-;51.52502863;-0.1334877;0.0
1531048623580;-;-;0.7041358;1.1831397;10.159674;0.09991949;0.0017203903;0.06765954;-16.650002;31.050001;-38.25;23.230213;-6.8807745;3.7019875;1020.70996;-;-;51.52502863;-0.1334877;0.0
1531048623590;-;-;0.7376661;1.0633887;9.642349;0.10258265;0.023025678;0.059137426;-16.650002;31.050001;-38.25;23.230213;-6.8807745;3.7019875;1020.70996;-;-;51.52502863;-0.1334877;0.0
1531048623601;-;-;0.8047266;1.0538087;9.604029;0.09832159;0.027819369;0.06499638;-16.800001;31.800001;-39.600002;23.153408;-6.9806204;3.7100685;1020.721;-;-;51.52502863;-0.1334877;0.0
1531048623611;-;-;0.7807764;1.1304493;9.570498;0.07115734;-0.00786699;0.06925744;-16.800001;31.800001;-39.600002;23.153408;-6.9806204;3.7100685;1020.721;-;-;51.52502863;-0.1334877;0.0
1531048623622;-;-;0.7807764;1.0681788;9.73815;0.05571101;-0.03183544;0.047419515;-16.5;31.800001;-40.050003;23.081348;-7.085639;3.6962523;1020.721;-;-;51.52502863;-0.1334877;0.0
1531048623632;-;-;0.9627979;1.2166699;9.800421;0.042927835;-0.060597584;0.046886884;-16.5;31.800001;-40.050003;23.081348;-7.085639;3.6962523;1020.721;-;-;51.52502863;-0.1334877;0.0
1531048623642;-;-;0.90052736;1.2310401;9.929751;0.045590997;-0.068587065;0.01812474;-18.150002;33.300003;-40.050003;23.017092;-7.1593413;3.7159667;1020.721;-;-;51.52502863;-0.1334877;0.0
1531048623653;-;-;0.8909473;1.1639795;9.972861;0.059439436;-0.07071759;0.011733154;-18.150002;33.300003;-40.050003;23.017092;-7.1593413;3.7159667;1020.721;-;-;51.52502863;-0.1334877;0.0
1531048623663;-;-;0.8334668;1.22146;9.867481;0.07595104;-0.056336522;0.0037436713;-14.85;31.050001;-40.65;22.980124;-7.208736;3.7882776;1020.721;-;-;51.52502863;-0.1334877;0.0
1531048623686;-;-;0.7424561;1.1831397;9.70941;0.057308905;-4.1013863E-4;0.018657373;-18.150002;31.800001;-39.300003;22.987074;-7.278258;3.862682;1020.721;-;-;51.52502863;-0.1334877;0.0
1531048623675;-;-;0.79993653;1.2502003;9.77168;0.0786142;-0.03716176;0.004808936;-14.85;31.050001;-40.65;22.980124;-7.208736;3.7882776;1020.721;-;-;51.52502863;-0.1334877;0.0
1531048623694;-;-;0.7376661;1.1975098;9.589659;0.03653625;0.0027856547;0.019190006;-18.150002;31.800001;-39.300003;22.987074;-7.278258;3.862682;1020.721;-;-;51.52502863;-0.1334877;0.0
1531048623704;-;-;0.90052736;1.22146;9.565708;0.012567798;0.03261306;0.025581593;-18.150002;31.800001;-38.4;22.989773;-7.3580017;3.9024148;1020.71375;-;-;51.52502863;-0.1334877;0.0
1531048623715;-;-;0.93405765;1.2166699;9.469908;-0.009270122;0.02568884;0.008537361;-18.150002;31.800001;-38.4;22.989773;-7.3580017;3.9024148;1020.71375;-;-;51.52502863;-0.1334877;0.0
1531048623724;-;-;0.977168;1.1208692;9.72857;-0.022053484;0.010773874;0.0021407234;-19.2;32.25;-40.050003;22.962954;-7.4012957;3.8977766;1020.71375;-;-;51.52502863;-0.1334877;0.0
1531048623734;-;-;0.9915381;1.2597803;9.75731;-0.025249276;-0.003074564;-0.009577186;-19.2;32.25;-40.050003;22.962954;-7.4012957;3.8977766;1020.71375;-;-;51.52502863;-0.1334877;0.0
1531048623746;-;-;0.93405765;1.22146;9.877061;-0.011933471;-0.02331459;-0.021295095;-16.5;31.2;-39.300003;22.939281;-7.387803;3.874583;1020.71375;-;-;51.52502863;-0.1334877;0.0
1531048623755;-;-;0.9244776;1.2549903;9.910591;0.008306553;-0.039293557;-0.037806693;-16.5;31.2;-39.300003;22.939281;-7.387803;3.874583;1020.71375;-;-;51.52502863;-0.1334877;0.0
1531048623766;-;-;0.8765772;1.2358302;9.924961;0.034938164;-0.031836703;-0.036741428;-17.1;31.800001;-40.5;22.946377;-7.3645835;3.8818636;1020.71375;-;-;51.52502863;-0.1334877;0.0
1531048623776;-;-;0.89573735;1.22625;9.939331;0.04346028;-0.01425984;-0.038339324;-17.550001;32.25;-39.600002;22.946377;-7.3645835;3.8818636;1020.71375;-;-;51.52502863;-0.1334877;0.0
1531048623788;-;-;0.847837;1.2885206;9.73815;0.032275002;0.023557046;-0.037806693;-17.550001;32.25;-39.600002;22.984856;-7.373509;3.919356;1020.71375;-;-;51.52502863;-0.1334877;0.0
1531048623798;-;-;0.8143067;1.2981006;9.637559;0.027481314;0.03154653;-0.02928458;-16.95;31.35;-39.0;23.031025;-7.4169197;3.9331515;1020.7144;-;-;51.52502863;-0.1334877;0.0
1531048623808;-;-;0.9196875;1.2502003;9.81958;-0.01885769;0.076287635;-0.041535117;-16.95;31.35;-39.0;23.031025;-7.4169197;3.9331515;1020.7144;-;-;51.52502863;-0.1334877;0.0
1531048623818;-;-;0.8909473;1.2837305;9.85311;-0.016194528;0.078418165;-0.030349843;-17.25;31.050001;-38.7;23.060555;-7.444391;3.8891912;1020.7144;-;-;51.52502863;-0.1334877;0.0
1531048623828;-;-;0.8430469;1.21188;9.929751;-0.02418401;0.10291925;-0.05378566;-17.25;31.050001;-38.7;23.060555;-7.444391;3.8891912;1020.7144;-;-;51.52502863;-0.1334877;0.0
1531048623839;-;-;0.79035646;1.2597803;10.035132;-0.015129265;0.101321355;-0.03993722;-17.1;32.850002;-37.2;23.090458;-7.427675;3.7892022;1020.7144;-;-;51.52502863;-0.1334877;0.0
1531048623849;-;-;0.79993653;1.1352394;10.178833;0.033872902;0.13807298;-0.017034037;-17.1;32.850002;-37.2;23.090458;-7.427675;3.7892022;1020.7144;-;-;51.52502863;-0.1334877;0.0
1531048623859;-;-;0.8095166;1.1831397;10.289004;0.08553822;0.15937828;-0.013305611;-16.800001;32.850002;-39.300003;23.122255;-7.4125905;3.6649358;1020.7144;-;-;51.52502863;-0.1334877;0.0
1531048623870;-;-;0.6466553;1.1112891;10.255474;0.15318252;0.1913362;0.01598916;-16.800001;32.850002;-39.300003;23.122255;-7.4125905;3.6649358;1020.7144;-;-;51.52502863;-0.1334877;0.0
1531048623879;-;-;0.53169435;1.1208692;10.284214;0.17235728;0.19399936;0.031435497;-16.35;29.7;-38.25;23.122993;-7.4723907;3.4990277;1020.7144;-;-;51.52502863;-0.1334877;0.0
1531048623889;-;-;0.4263135;1.2789404;10.188414;0.2208268;0.148193;0.0942861;-16.35;29.7;-38.25;23.122993;-7.4723907;3.4990277;1020.7144;-;-;51.52502863;-0.1334877;0.0
1531048623899;-;-;0.37362307;1.341211;10.015972;0.23147945;0.12688771;0.100677684;-15.6;31.35;-40.2;23.065163;-7.6540685;3.292623;1020.71387;-;-;51.52502863;-0.1334877;0.0
1531048623910;-;-;0.21076173;1.21188;10.054293;0.24479526;0.023557046;0.18163778;-15.6;31.35;-40.2;23.065163;-7.6540685;3.292623;1020.71387;-;-;51.52502863;-0.1334877;0.0
1531048623919;-;-;0.244292;1.1735597;10.020762;0.2320121;-0.017455634;0.20560622;-16.35;32.100002;-40.65;22.932001;-7.9047575;3.1583626;1020.71387;-;-;51.52502863;-0.1334877;0.0
1531048623930;-;-;0.5221143;1.3843213;9.685459;0.1627699;-0.16765791;0.35687378;-16.35;32.100002;-40.65;22.932001;-7.9047575;3.1583626;1020.71387;-;-;51.52502863;-0.1334877;0.0
1531048623940;-;-;0.8813672;1.8633252;9.460327;0.1595741;-0.15274422;0.32757902;-16.800001;31.500002;-37.2;22.702751;-8.163102;3.187207;1020.71387;-;-;51.52502863;-0.1334877;0.0
1531048623950;-;-;1.0729688;1.5376027;9.259146;0.11802879;-0.055805154;0.24821681;-16.800001;31.500002;-37.2;22.702751;-8.163102;3.187207;1020.71387;-;-;51.52502863;-0.1334877;0.0
1531048623960;-;-;1.0106983;1.4322218;9.057964;0.07648347;-0.017988266;0.19388832;-14.85;30.300001;-40.65;22.338505;-8.338102;3.4256911;1020.71387;-;-;51.52502863;-0.1334877;0.0
1531048623970;-;-;0.8909473;1.6238233;9.321417;-0.043891404;-0.0046724607;0.13689667;-14.85;30.300001;-40.65;22.338505;-8.338102;3.4256911;1020.71387;-;-;51.52502863;-0.1334877;0.0
1531048623981;-;-;1.0729688;1.5567628;9.580078;-0.09182831;-0.031836703;0.113993496;-17.85;30.45;-39.300003;22.072248;-8.447256;3.5307333;1020.71387;-;-;51.52502863;-0.1334877;0.0
1531048623991;-;-;1.2645704;1.4274317;9.75731;-0.1264494;-0.038228292;0.0628608;-17.85;30.45;-39.300003;22.072248;-8.447256;3.5307333;1020.71387;-;-;51.52502863;-0.1334877;0.0
1531048624002;-;-;1.3555812;1.3843213;9.81;-0.124318875;-0.017455634;0.0016080912;-14.85;31.35;-37.050003;21.915907;-8.386968;3.5673058;1020.7217;-;-;51.52502863;-0.1334877;0.0
1531048624013;-;-;1.4178516;1.2741505;9.7812605;-0.124318875;0.035274956;-0.084145695;-14.85;31.35;-37.050003;21.915907;-8.386968;3.5673058;1020.7217;-;-;51.52502863;-0.1334877;0.0
1531048624023;-;-;0.91010743;1.2981006;10.365645;-0.10088306;0.053917084;-0.14166999;-16.5;30.45;-40.5;21.8643;-8.2425585;3.6168664;1020.7217;-;-;51.52502863;-0.1334877;0.0
1531048624033;-;-;1.1208692;1.5471827;9.972861;-0.05507668;0.16843303;-0.16617107;-16.5;30.45;-40.5;21.8643;-8.2425585;3.6168664;1020.7217;-;-;51.52502863;-0.1334877;0.0
1531048624043;-;-;0.98195803;1.2933106;10.044712;-0.022053484;0.2696331;-0.21251006;-17.1;30.900002;-38.100002;21.96153;-8.111993;3.5701945;1020.7217;-;-;51.52502863;-0.1334877;0.0
1531048624053;-;-;0.6179151;1.2885206;10.193204;-0.01672716;0.22808783;-0.23328273;-16.650002;32.4;-38.25;22.123474;-8.05912;3.3436306;1020.7217;-;-;51.52502863;-0.1334877;0.0
1531048624063;-;-;0.2682422;1.2645704;10.083033;-0.014064;0.13061613;-0.18215004;-16.650002;32.4;-38.25;22.123474;-8.05912;3.3436306;1020.7217;-;-;51.52502863;-0.1334877;0.0
1531048624074;-;-;0.26345217;1.1879297;9.963282;-0.0012808265;0.114104524;-0.14539841;-14.400001;31.800001;-38.100002;22.3324;-8.056451;3.0653093;1020.7217;-;-;51.52502863;-0.1334877;0.0
1531048624084;-;-;0.4167334;1.3603711;9.891431;-7.4819435E-4;0.12635507;-0.11184257;-14.400001;31.800001;-38.100002;22.3324;-8.056451;3.0653093;1020.7217;-;-;51.52502863;-0.1334877;0.0
1531048624094;-;-;0.48379397;1.3220508;9.857901;0.013100243;0.11996348;-0.10172256;-17.1;32.25;-39.600002;22.3324;-8.056451;3.0653093;1020.7211;-;-;51.52502863;-0.1334877;0.0
1531048624104;-;-;0.5364844;1.2741505;9.867481;0.012034979;0.037938118;-0.0809499;-17.1;32.25;-39.600002;22.479374;-8.060646;2.9031644;1020.7211;-;-;51.52502863;-0.1334877;0.0
1531048624115;-;-;0.5125342;1.2885206;9.671089;0.013632876;0.00970861;-0.07402568;-14.400001;31.800001;-36.45;22.577463;-8.07472;2.7629452;1020.7211;-;-;51.52502863;-0.1334877;0.0
1531048624125;-;-;0.5604346;1.3172607;9.637559;8.4970234E-4;-0.014792473;-0.07455832;-14.400001;31.800001;-36.45;22.577463;-8.07472;2.7629452;1020.7211;-;-;51.52502863;-0.1334877;0.0
1531048624135;-;-;0.60833496;1.3507911;9.656719;-0.0039439877;-0.0062703574;-0.06497094;-15.150001;30.150002;-38.850002;22.663605;-8.091232;2.7329004;1020.7211;-;-;51.52502863;-0.1334877;0.0
1531048624145;-;-;0.5939649;1.2597803;9.532178;-0.03749982;-0.007335622;-0.07082989;-15.150001;30.150002;-38.850002;22.663605;-8.091232;2.7329004;1020.7211;-;-;51.52502863;-0.1334877;0.0
1531048624156;-;-;0.64186525;1.2645704;9.575289;-0.047087196;-0.020118795;-0.06550357;-15.3;30.6;-37.5;22.74238;-8.086333;2.7314465;1020.7211;-;-;51.52502863;-0.1334877;0.0
1531048624167;-;-;0.5556446;1.2693604;9.81;-0.05241352;-0.03609776;-0.058046717;-15.3;30.6;-37.5;22.74238;-8.086333;2.7314465;1020.7211;-;-;51.52502863;-0.1334877;0.0
1531048624177;-;-;0.51732427;1.3172607;9.905801;-0.049217727;-0.046217777;-0.04899197;-15.450001;29.85;-36.0;22.818985;-8.040032;2.7389586;1020.7211;-;-;51.52502863;-0.1334877;0.0
1531048624187;-;-;0.57001466;1.2693604;9.867481;-0.026314542;-0.034499865;-0.034078266;-15.450001;29.85;-36.0;22.818985;-8.040032;2.7389586;1020.7211;-;-;51.52502863;-0.1334877;0.0
1531048624197;-;-;0.5939649;1.2693604;9.77168;-0.01672716;-0.011596679;-0.043665648;-14.700001;30.900002;-38.850002;22.88698;-7.983113;2.7786095;1020.7206;-;-;51.52502863;-0.1334877;0.0
1531048624208;-;-;0.7376661;1.331631;9.5561285;-0.030042967;0.0033170227;-0.04206775;-14.700001;30.900002;-38.850002;22.88698;-7.983113;2.7786095;1020.7206;-;-;51.52502863;-0.1334877;0.0
1531048624217;-;-;0.8047266;1.2933106;9.508228;-0.048685092;0.008643345;-0.050057232;-15.450001;31.2;-40.050003;22.935333;-7.9565554;2.7936587;1020.7206;-;-;51.52502863;-0.1334877;0.0
1531048624227;-;-;0.63707525;1.3699512;9.513018;-0.08597041;-0.0014838307;-0.049553227;-15.450001;31.2;-40.050003;22.935333;-7.9565554;2.7936587;1020.7206;-;-;51.52502863;-0.1334877;0.0
1531048624237;-;-;0.64186525;1.2549903;9.541759;-0.12325467;-9.511985E-4;-0.05221639;-13.650001;30.900002;-37.2;22.985556;-7.9096284;2.781355;1020.7206;-;-;51.52502863;-0.1334877;0.0
1531048624247;-;-;0.67539555;1.2022998;9.493857;-0.1504189;1.14065944E-4;-0.0623364;-13.650001;30.900002;-37.2;22.985556;-7.9096284;2.781355;1020.7206;-;-;51.52502863;-0.1334877;0.0
1531048624258;-;-;0.60354495;1.22146;9.651929;-0.1701263;0.013429872;-0.054346915;-14.400001;30.45;-37.2;23.051863;-7.796388;2.7709095;1020.7206;-;-;51.52502863;-0.1334877;0.0
1531048624268;-;-;0.68976563;1.2597803;9.766891;-0.18770316;0.020886723;-0.06020587;-14.400001;30.45;-37.2;23.051863;-7.796388;2.7709095;1020.7206;-;-;51.52502863;-0.1334877;0.0
1531048624278;-;-;0.7376661;1.1831397;10.015972;-0.18557264;0.059236243;-0.070858516;-15.6;30.000002;-38.7;23.117828;-7.622194;2.74813;1020.7206;-;-;51.52502863;-0.1334877;0.0
1531048624288;-;-;0.7664063;1.1687696;9.968072;-0.17545262;0.0949226;-0.08044589;-15.6;30.000002;-38.7;23.117828;-7.622194;2.74813;1020.7214;-;-;51.52502863;-0.1334877;0.0
1531048624299;-;-;0.6322852;1.2310401;10.102193;-0.16746314;0.09066155;-0.10068592;-14.1;30.150002;-36.75;23.182318;-7.4160986;2.6940289;1020.7214;-;-;51.52502863;-0.1334877;0.0
1531048624309;-;-;0.5508545;1.1783496;10.039923;-0.13071153;0.07894364;-0.09322907;-14.1;30.150002;-36.75;23.182318;-7.4160986;2.6940289;1020.7214;-;-;51.52502863;-0.1334877;0.0
1531048624319;-;-;0.44547364;1.1304493;10.169253;-0.0939599;0.06882363;-0.07831537;-14.1;31.800001;-39.300003;23.264963;-7.223047;2.5772114;1020.7214;-;-;51.52502863;-0.1334877;0.0
1531048624329;-;-;0.43110353;1.1448194;10.178833;-0.055077743;0.058170978;-0.0639343;-14.1;31.800001;-39.300003;23.264963;-7.223047;2.5772114;1020.7214;-;-;51.52502863;-0.1334877;0.0
1531048624339;-;-;0.4406836;1.2022998;10.078242;-0.030044029;0.04432254;-0.061271135;-16.050001;30.150002;-40.050003;23.355068;-7.082796;2.4786282;1020.7214;-;-;51.52502863;-0.1334877;0.0
1531048624350;-;-;0.45984375;1.1496094;9.929751;-0.019924015;0.03686569;-0.0458248;-16.050001;30.150002;-40.050003;23.355068;-7.082796;2.4786282;1020.7214;-;-;51.52502863;-0.1334877;0.0
1531048624359;-;-;0.53169435;1.1639795;9.920172;-0.007673474;0.029408839;-0.039965846;-14.85;29.7;-38.25;23.426601;-7.0260677;2.406248;1020.7214;-;-;51.52502863;-0.1334877;0.0
1531048624369;-;-;0.51732427;1.1064991;9.982442;-0.0055429456;0.017158296;-0.051151123;-14.85;29.7;-38.25;23.426601;-7.0260677;2.406248;1020.7214;-;-;51.52502863;-0.1334877;0.0
1531048624379;-;-;0.52690434;1.1639795;9.877061;-0.0028797842;0.014495135;-0.034639522;-14.250001;32.100002;-39.0;23.4814;-7.0086455;2.357745;1020.7214;-;-;51.52502863;-0.1334877;0.0
1531048624389;-;-;0.5508545;1.1160791;9.987232;-7.492554E-4;0.0054403883;-0.04049848;-14.250001;32.100002;-39.0;23.4814;-7.0086455;2.357745;1020.71906;-;-;51.52502863;-0.1334877;0.0
1531048624399;-;-;0.5460645;1.1687696;10.030342;-2.1662316E-4;0.014495135;-0.043161638;-12.450001;31.050001;-38.25;23.53234;-7.0037274;2.3340993;1020.71906;-;-;51.52502863;-0.1334877;0.0
1531048624410;-;-;0.5843848;1.2070899;9.977652;0.005642331;0.026213044;-0.05274902;-12.450001;31.050001;-38.25;23.53234;-7.0037274;2.3340993;1020.71906;-;-;51.52502863;-0.1334877;0.0
1531048624420;-;-;0.6706055;1.1448194;9.963282;-2.1662316E-4;0.038996216;-0.049553227;-14.250001;29.7;-39.45;23.579937;-7.004045;2.3240967;1020.71906;-;-;51.52502863;-0.1334877;0.0
1531048624430;-;-;0.6514453;1.1256592;9.939331;0.005109699;0.062432032;-0.061271135;-14.250001;29.7;-39.45;23.579937;-7.004045;2.3240967;1020.71906;-;-;51.52502863;-0.1334877;0.0
1531048624471;-;-;0.52690434;1.1831397;9.80521;-0.014597693;0.008636181;-0.070858516;-14.250001;29.250002;-39.9;23.684761;-7.015575;2.2078028;1020.71906;-;-;51.52502863;-0.1334877;0.0
1531048624461;-;-;0.45984375;1.1831397;9.881851;-0.008738739;0.024082515;-0.051683754;-14.250001;29.250002;-39.9;23.684761;-7.015575;2.2078028;1020.71906;-;-;51.52502863;-0.1334877;0.0
1531048624451;-;-;0.43589357;1.1927198;9.843531;-0.007673474;0.05444255;-0.055944815;-15.3;30.000002;-39.45;23.628214;-7.0101867;2.2834754;1020.71906;-;-;51.52502863;-0.1334877;0.0
1531048624450;-;-;0.43589357;1.1927198;9.843531;-0.007673474;0.05444255;-0.055944815;-15.3;30.000002;-39.45;23.628214;-7.0101867;2.2834754;1020.71906;-;-;51.52502863;-0.1334877;0.0
1531048624481;-;-;0.46463382;1.2022998;9.929751;3.1600907E-4;-0.021191224;-0.06446693;-16.650002;30.6;-40.2;23.734024;-7.0079517;2.1451976;1020.71906;-;-;51.52502863;-0.1334877;0.0
1531048624491;-;-;0.49337405;1.2166699;9.992022;0.009370757;-0.036104925;-0.079913266;-16.650002;30.6;-40.2;23.734024;-7.0079517;2.1451976;1020.7154;-;-;51.52502863;-0.1334877;0.0
1531048624502;-;-;0.5221143;1.1208692;9.948912;0.02481709;-0.031843867;-0.07298905;-15.750001;30.45;-38.4;23.806839;-6.9978924;2.1301916;1020.7154;-;-;51.52502863;-0.1334877;0.0
1531048624512;-;-;0.46463382;1.1304493;9.877061;0.02481709;-0.037702825;-0.069793254;-15.750001;30.45;-38.4;23.806839;-6.9978924;2.1301916;1020.7154;-;-;51.52502863;-0.1334877;0.0
1531048624522;-;-;0.3784131;1.0202783;9.82437;0.029078148;-0.010538579;-0.046357434;-15.750001;29.400002;-38.850002;23.889482;-7.01499;2.1613555;1020.7154;-;-;51.52502863;-0.1334877;0.0
1531048624532;-;-;0.34967285;1.0538087;9.81958;0.026414989;-0.0062775207;-0.02398688;-15.750001;29.400002;-38.850002;23.889482;-7.01499;2.1613555;1020.7154;-;-;51.52502863;-0.1334877;0.0
1531048624542;-;-;0.34009278;1.1208692;9.77647;0.022686563;0.02248462;0.0037099968;-13.950001;30.000002;-38.7;23.960443;-7.051673;2.1910582;1020.7154;-;-;51.52502863;-0.1334877;0.0
1531048624552;-;-;0.46463382;1.22625;9.733359;0.01736024;0.04006148;0.014895274;-14.250001;30.000002;-38.25;23.98041;-7.084579;2.1853542;1020.7154;-;-;51.52502863;-0.1334877;0.0
1531048624563;-;-;0.47900394;1.22146;9.546548;-0.023652442;0.0304741;0.014895274;-14.250001;30.000002;-38.25;23.98041;-7.084579;2.1853542;1020.7154;-;-;51.52502863;-0.1334877;0.0
1531048624573;-;-;0.52690434;1.2502003;9.608819;-0.051349316;0.033137262;0.0069057904;-14.55;30.300001;-38.25;23.959787;-7.0906286;2.1481152;1020.7154;-;-;51.52502863;-0.1334877;0.0
1531048624583;-;-;0.5508545;1.1639795;9.877061;-0.074785136;0.023549883;0.007971055;-14.55;30.300001;-38.25;23.959787;-7.0906286;2.1481152;1020.71124;-;-;51.52502863;-0.1334877;0.0
1531048624593;-;-;0.46942386;1.0681788;9.963282;-0.080644086;0.01076671;-1.8428778E-5;-13.200001;30.6;-37.800003;23.947784;-7.024128;2.1178284;1020.71124;-;-;51.52502863;-0.1334877;0.0
1531048624603;-;-;0.49337405;1.1208692;10.035132;-0.066795655;0.024615148;0.008503688;-13.200001;30.6;-37.800003;23.947784;-7.024128;2.1178284;1020.71124;-;-;51.52502863;-0.1334877;0.0
1531048624614;-;-;0.47900394;1.1064991;10.121353;-0.054012477;0.0304741;0.0037099968;-14.700001;30.150002;-38.850002;23.947178;-6.9362245;2.100441;1020.71124;-;-;51.52502863;-0.1334877;0.0
1531048624623;-;-;0.57001466;1.2022998;10.217154;-0.020456648;0.02994147;0.0010468357;-14.700001;30.150002;-38.850002;23.947178;-6.9362245;2.100441;1020.71124;-;-;51.52502863;-0.1334877;0.0
1531048624633;-;-;0.51732427;1.2022998;10.183623;-0.01619559;0.03686569;-0.0053447513;-13.35;30.45;-38.4;23.935831;-6.877973;2.0646048;1020.71124;-;-;51.52502863;-0.1334877;0.0
