TimeStamp[ms];Prox[Cm];Lux[lux];AccX[m/s^2];AccY[m/s^2];AccZ[m/s^2];GyroX[rad/s];GyroY[rad/s];GyroZ[rad/s];MagnX[uT];MagnY[uT];MagnZ[uT];OrienYaw[degrees];OrienPitch[degrees];OrienRoll[degrees];Press[Pa];Temp[C°];Batt[%];Lat;Lng;Speed[m/s]
1531048200154;-;-;0.34967285;1.7387843;9.484278;0.080762416;0.03752621;-0.048509583;-14.1;40.5;-39.300003;17.271296;-10.608401;0.25950643;0.0;-;-;51.52536432;-0.133432;0.0
1531048200154;-;-;0.34967285;1.7387843;9.484278;0.080762416;0.03752621;-0.048509583;-14.1;40.5;-39.300003;17.271296;-10.608401;0.25950643;0.0;-;-;51.52536432;-0.133432;0.0
1531048200171;-;-;0.1820215;1.7962648;9.259146;0.06265292;0.035928313;-0.06981487;-16.650002;41.7;-40.65;17.314846;-10.661703;0.26921362;0.0;-;-;51.52536432;-0.133432;0.0
1531048200173;-;-;0.1820215;1.7962648;9.259146;0.050935015;0.036460947;-0.0703475;-16.650002;41.7;-40.65;17.314846;-10.661703;0.26921362;0.0;-;-;51.52536432;-0.133432;0.0
1531048200184;-;-;0.1101709;1.9160157;9.398057;8.670221E-4;-0.0034902631;-0.053318426;-16.650002;41.7;-40.65;17.314846;-10.661703;0.26921362;0.0;-;-;51.52536432;-0.133432;0.0
1531048200194;-;-;0.12933107;1.8968556;9.618399;-0.01884037;7.707948E-4;-0.040535253;-14.400001;41.850002;-39.600002;17.373028;-10.747905;0.21410418;0.0;-;-;51.52536432;-0.133432;0.0
1531048200203;-;-;0.21076173;1.7962648;9.508228;-0.015111946;0.011956072;-0.036806826;-14.400001;41.850002;-39.600002;17.373028;-10.747905;0.21410418;0.0;-;-;51.52536432;-0.133432;0.0
1531048200213;-;-;0.22513184;1.8154249;9.627979;-0.008187726;0.031663463;-0.030947872;-15.6;42.300003;-39.9;17.442928;-10.762629;0.19297156;0.0;-;-;51.52536432;-0.133432;0.0
1531048200223;-;-;0.2203418;1.7818946;9.460327;-0.021503532;0.07746984;-0.035741564;-15.6;42.300003;-39.9;17.442928;-10.762629;0.19297156;1020.7488;-;-;51.52536432;-0.133432;0.0
1531048200233;-;-;0.16765137;1.6621436;9.532178;-0.04227619;0.08492669;-0.029882608;-16.95;40.95;-39.0;17.483128;-10.74557;0.17613976;1020.7488;-;-;51.52536432;-0.133432;0.0
1531048200244;-;-;0.12933107;1.7914747;9.704619;-0.048667774;0.08066563;-0.041067883;-16.95;40.95;-39.0;17.483128;-10.74557;0.17613976;1020.7488;-;-;51.52536432;-0.133432;0.0
1531048200254;-;-;0.033530276;1.7675245;9.867481;-0.055591993;0.058295075;-0.028284712;-14.400001;39.75;-39.600002;17.506056;-10.729678;0.095320135;1020.7488;-;-;51.52536432;-0.133432;0.0
1531048200264;-;-;-0.033530276;1.8250049;9.992022;-0.041743558;0.039652947;-0.027219446;-14.400001;39.75;-39.600002;17.506056;-10.729678;0.095320135;1020.7488;-;-;51.52536432;-0.133432;0.0
1531048200274;-;-;-0.15328126;1.7387843;9.833951;-0.027895119;0.032728728;-0.0021857326;-14.700001;41.100002;-39.600002;17.52935;-10.678345;-0.00510706;1020.7488;-;-;51.52536432;-0.133432;0.0
1531048200284;-;-;-0.20597169;1.8441651;9.656719;-0.022568796;0.05190349;0.006336383;-14.700001;41.100002;-39.600002;17.52935;-10.678345;-0.00510706;1020.7488;-;-;51.52536432;-0.133432;0.0
1531048200295;-;-;-0.17723145;1.7579445;9.81;-0.023101429;0.03326136;0.020184822;-14.85;42.300003;-38.7;17.549536;-10.623601;-0.060711212;1020.7488;-;-;51.52536432;-0.133432;0.0
1531048200305;-;-;-0.06706055;1.7339942;9.79084;-0.04227619;0.0071623814;0.030837465;-14.85;42.300003;-38.7;17.549536;-10.623601;-0.060711212;1020.7488;-;-;51.52536432;-0.133432;0.0
1531048200315;-;-;0.043110352;1.7866846;10.102193;-0.043341454;0.0018360593;0.021250086;-15.450001;40.800003;-40.5;17.540148;-10.594642;-0.10048782;1020.7488;-;-;51.52536432;-0.133432;0.0
1531048200325;-;-;0.1101709;1.7723145;10.059082;-0.024166692;0.009292911;0.008466912;-15.450001;40.800003;-40.5;17.540148;-10.594642;-0.10048782;1020.7697;-;-;51.52536432;-0.133432;0.0
1531048200336;-;-;0.119750984;1.7004639;10.054293;-0.01404668;0.017282393;-5.878359E-4;-16.650002;42.0;-39.0;17.504791;-10.558789;-0.10895994;1020.7697;-;-;51.52536432;-0.133432;0.0
1531048200346;-;-;0.100590825;1.7339942;9.920172;0.0035301833;0.0098255435;-0.013903642;-16.650002;42.0;-39.0;17.504791;-10.558789;-0.10895994;1020.7697;-;-;51.52536432;-0.133432;0.0
1531048200357;-;-;0.014370117;1.7339942;9.75731;-0.0028614034;-0.00508816;-0.014436273;-15.3;40.65;-39.45;17.48386;-10.516851;-0.1049855;1020.7697;-;-;51.52536432;-0.133432;0.0
1531048200367;-;-;0.019160157;1.7771046;9.690249;-0.009785622;-0.023197656;-0.014436273;-15.3;40.65;-39.45;17.48386;-10.516851;-0.1049855;1020.7697;-;-;51.52536432;-0.133432;0.0
1531048200391;-;-;-0.17723145;1.8345851;9.72378;-0.010318255;0.027402405;-0.0064467904;-13.35;41.850002;-39.300003;17.513165;-10.505667;-0.109678596;1020.7697;-;-;51.52536432;-0.133432;0.0
1531048200391;-;-;-0.17723145;1.8345851;9.72378;-0.010318255;0.027402405;-0.0064467904;-13.35;41.850002;-39.300003;17.513165;-10.505667;-0.109678596;1020.7697;-;-;51.52536432;-0.133432;0.0
1531048200401;-;-;-0.42152345;1.7818946;9.72857;-0.0060571968;0.06734983;0.008999545;-13.35;41.850002;-39.300003;17.513165;-10.505667;-0.109678596;1020.7697;-;-;51.52536432;-0.133432;0.0
1531048200419;-;-;-0.25866213;1.7148341;9.905801;-0.014579313;0.043914005;0.04841433;-14.700001;42.9;-39.600002;17.530596;-10.493792;-0.11323244;1020.78796;-;-;51.52536432;-0.133432;0.0
1531048200436;-;-;0.009580079;1.6094532;9.82437;-0.019905634;-0.024795553;0.04575117;-15.6;42.0;-39.9;17.504236;-10.487126;-0.18158314;1020.78796;-;-;51.52536432;-0.133432;0.0
1531048200437;-;-;0.009580079;1.6094532;9.82437;-0.019905634;-0.024795553;0.04575117;-15.6;42.0;-39.9;17.504236;-10.487126;-0.18158314;1020.78796;-;-;51.52536432;-0.133432;0.0
1531048200452;-;-;0.033530276;1.5663428;9.82437;-0.0049919323;-0.037046093;0.028706938;-15.150001;41.850002;-40.95;17.440958;-10.46783;-0.2147712;1020.78796;-;-;51.52536432;-0.133432;0.0
1531048200453;-;-;0.1101709;1.585503;9.7142;0.0013996543;-0.0338503;0.028706938;-15.150001;41.850002;-40.95;17.440958;-10.46783;-0.2147712;1020.78796;-;-;51.52536432;-0.133432;0.0
1531048200469;-;-;0.1101709;1.7387843;9.704619;0.0056607123;0.010890807;0.008999545;-16.35;43.050003;-39.45;17.395403;-10.451965;-0.1710634;1020.78796;-;-;51.52536432;-0.133432;0.0
1531048200486;-;-;0.028740235;1.6190332;9.7142;0.014715459;0.04018558;0.0047384864;-16.35;43.050003;-39.45;17.395403;-10.451965;-0.1710634;1020.78796;-;-;51.52536432;-0.133432;0.0
1531048200486;-;-;0.028740235;1.6190332;9.7142;0.014715459;0.04018558;0.0047384864;-16.35;43.050003;-39.45;17.395403;-10.451965;-0.1710634;1020.78796;-;-;51.52536432;-0.133432;0.0
1531048200503;-;-;0.081430666;1.7387843;9.733359;0.008856505;0.032196097;0.011662705;-17.85;42.15;-41.25;17.378283;-10.454417;-0.15100318;1020.78796;-;-;51.52536432;-0.133432;0.0
1531048200503;-;-;0.081430666;1.7387843;9.733359;0.008856505;0.032196097;0.011662705;-17.85;42.15;-41.25;17.378283;-10.454417;-0.15100318;1020.78796;-;-;51.52536432;-0.133432;0.0
1531048200520;-;-;0.081430666;1.7004639;9.877061;-0.008720359;0.017815026;0.018586924;-16.800001;41.4;-41.7;17.360275;-10.467043;-0.18622917;1020.79285;-;-;51.52536432;-0.133432;0.0
1531048200536;-;-;0.16286133;1.7531544;9.977652;-0.01617721;0.014619232;0.0052711186;-16.050001;41.100002;-40.95;17.334497;-10.476556;-0.22482704;1020.79285;-;-;51.52536432;-0.133432;0.0
1531048200536;-;-;0.16286133;1.7531544;9.977652;-0.01617721;0.014619232;0.0052711186;-16.050001;41.100002;-40.95;17.334497;-10.476556;-0.22482704;1020.79285;-;-;51.52536432;-0.133432;0.0
1531048200554;-;-;0.2203418;1.7244141;9.939331;-0.0060571968;0.04977296;-0.0021857326;-14.250001;40.95;-39.0;17.306608;-10.467102;-0.2367983;1020.79285;-;-;51.52536432;-0.133432;0.0
1531048200554;-;-;0.2203418;1.7244141;9.939331;-0.0060571968;0.04977296;-0.0021857326;-14.250001;40.95;-39.0;17.306608;-10.467102;-0.2367983;1020.79285;-;-;51.52536432;-0.133432;0.0
1531048200571;-;-;0.16765137;1.7387843;9.857901;-0.0055245645;0.058827706;-0.0069794226;-14.1;41.100002;-39.600002;17.290682;-10.454702;-0.26099306;1020.79285;-;-;51.52536432;-0.133432;0.0
1531048200587;-;-;0.07664063;1.7675245;9.843531;-0.001796139;0.0455119;-0.003250997;-14.1;41.100002;-39.600002;17.290682;-10.454702;-0.26099306;1020.79285;-;-;51.52536432;-0.133432;0.0
1531048200586;-;-;0.07664063;1.7675245;9.843531;-0.001796139;0.0455119;-0.003250997;-14.1;41.100002;-39.600002;17.290682;-10.454702;-0.26099306;1020.79285;-;-;51.52536432;-0.133432;0.0
1531048200603;-;-;0.019160157;1.7675245;9.7621;-0.009785622;0.019945554;-0.0011204681;-15.6;42.300003;-40.65;17.285913;-10.448206;-0.32383284;1020.79285;-;-;51.52536432;-0.133432;0.0
1531048200620;-;-;0.038320314;1.8106349;9.968072;-0.007655093;-0.0061534243;0.015391132;-15.150001;41.850002;-39.600002;17.282482;-10.4446125;-0.38468915;1020.79193;-;-;51.52536432;-0.133432;0.0
1531048200620;-;-;0.038320314;1.8106349;9.968072;-0.007655093;-0.0061534243;0.015391132;-15.150001;41.850002;-39.600002;17.282482;-10.4446125;-0.38468915;1020.79193;-;-;51.52536432;-0.133432;0.0
1531048200636;-;-;0.1820215;1.7675245;10.087823;0.0035301833;-0.020001862;0.0047384864;-14.700001;41.4;-40.5;17.280664;-10.435544;-0.40741777;1020.79193;-;-;51.52536432;-0.133432;0.0
1531048200637;-;-;0.19160157;1.8250049;10.087823;0.0040628156;-0.025860816;0.011662705;-14.700001;41.4;-40.5;17.280664;-10.435544;-0.40741777;1020.79193;-;-;51.52536432;-0.133432;0.0
1531048200653;-;-;0.12933107;1.7723145;10.092612;0.032824956;-0.034382932;0.0068690157;-14.250001;42.300003;-39.45;17.267012;-10.419154;-0.39581284;1020.79193;-;-;51.52536432;-0.133432;0.0
1531048200655;-;-;0.10538086;1.7531544;9.953702;0.050401818;-0.037578728;-0.009109952;-14.250001;42.300003;-39.45;17.267012;-10.419154;-0.39581284;1020.79193;-;-;51.52536432;-0.133432;0.0
1531048200665;-;-;0.12933107;1.8058448;9.800421;0.057326037;-0.054090325;-0.013371009;-14.250001;42.300003;-39.45;17.267012;-10.419154;-0.39581284;1020.79193;-;-;51.52536432;-0.133432;0.0
1531048200675;-;-;0.16286133;1.8441651;9.7812605;0.054130245;-0.05515559;-0.010707848;-14.55;41.7;-38.25;17.262598;-10.433393;-0.37081346;1020.79193;-;-;51.52536432;-0.133432;0.0
1531048200685;-;-;0.13891114;1.7723145;9.627979;0.059988607;-0.0519638;-0.023507018;-14.55;41.7;-38.25;17.262598;-10.433393;-0.37081346;1020.79193;-;-;51.52536432;-0.133432;0.0
1531048200696;-;-;0.14849122;1.8729054;9.632769;0.050401226;-0.050898533;-0.008593315;-14.250001;41.25;-40.2;17.279222;-10.488105;-0.32393375;1020.79193;-;-;51.52536432;-0.133432;0.0
1531048200706;-;-;0.1341211;1.8776954;9.74294;0.04454227;-0.04557221;-0.0027343603;-14.250001;41.25;-40.2;17.279222;-10.488105;-0.32393375;1020.79193;-;-;51.52536432;-0.133432;0.0
1531048200716;-;-;0.13891114;1.8776954;9.814791;0.04400964;-0.030125877;-0.006462786;-13.650001;40.800003;-39.300003;17.310432;-10.547703;-0.26544023;1020.8009;-;-;51.52536432;-0.133432;0.0
1531048200726;-;-;0.13891114;1.8872755;9.862691;0.03442226;-0.03811536;-0.006995418;-13.650001;40.800003;-39.300003;17.310432;-10.547703;-0.26544023;1020.8009;-;-;51.52536432;-0.133432;0.0
1531048200737;-;-;0.12454102;1.9064356;9.80521;0.02962857;-0.07273646;0.005787755;-14.700001;41.4;-39.600002;17.330523;-10.604733;-0.21628976;1020.8009;-;-;51.52536432;-0.133432;0.0
1531048200746;-;-;0.11496094;1.9112257;9.718989;0.023769615;-0.0652796;0.0015266975;-14.700001;41.4;-39.600002;17.330523;-10.604733;-0.21628976;1020.8009;-;-;51.52536432;-0.133432;0.0
1531048200756;-;-;0.06227051;1.9447559;9.78605;0.014714867;-0.05942065;0.0031245942;-15.150001;41.850002;-40.050003;17.344389;-10.649723;-0.17898357;1020.8009;-;-;51.52536432;-0.133432;0.0
1531048200767;-;-;0.11496094;1.8345851;9.75731;0.022171719;-0.05729012;-0.006995418;-15.150001;41.850002;-40.050003;17.344389;-10.649723;-0.17898357;1020.8009;-;-;51.52536432;-0.133432;0.0
1531048200776;-;-;0.17244141;1.7435743;9.70941;0.024302248;-0.061018545;-0.009658579;-14.250001;40.65;-38.25;17.358236;-10.684607;-0.10890093;1020.8009;-;-;51.52536432;-0.133432;0.0
1531048200786;-;-;0.16286133;1.8154249;9.81958;0.033356994;-0.061018545;-0.02617018;-14.250001;40.65;-38.25;17.358236;-10.684607;-0.10890093;1020.8009;-;-;51.52536432;-0.133432;0.0
1531048200797;-;-;0.20118165;1.8106349;9.68067;0.03388963;-0.041843783;-0.02883334;-14.85;41.7;-39.9;17.372023;-10.704604;-0.03787276;1020.8009;-;-;51.52536432;-0.133432;0.0
1531048200807;-;-;0.16286133;1.8824854;9.599238;0.025367511;-0.0130816465;-0.038953353;-14.85;41.7;-39.9;17.372023;-10.704604;-0.03787276;1020.8009;-;-;51.52536432;-0.133432;0.0
1531048200817;-;-;0.09101075;2.0309765;9.651929;0.010453809;0.04497527;-0.029898604;-15.6;40.95;-39.9;17.404676;-10.739784;0.020162504;1020.8142;-;-;51.52536432;-0.133432;0.0
1531048200828;-;-;0.17244141;1.8681153;9.704619;-1.9883527E-4;0.060954235;-0.038953353;-15.6;40.95;-39.9;17.404676;-10.739784;0.020162504;1020.8142;-;-;51.52536432;-0.133432;0.0
1531048200837;-;-;0.019160157;1.8441651;9.934542;0.006725384;0.04976896;-0.032561764;-14.250001;41.25;-38.7;17.450092;-10.777239;0.051486712;1020.8142;-;-;51.52536432;-0.133432;0.0
1531048200847;-;-;-0.19160157;1.8633252;9.915381;0.002996958;0.026865771;-0.025104914;-14.250001;41.25;-38.7;17.450092;-10.777239;0.051486712;1020.8142;-;-;51.52536432;-0.133432;0.0
1531048200857;-;-;-0.25866213;1.8872755;9.8866415;-0.005525158;0.006093114;-0.0027343603;-15.150001;41.850002;-38.100002;17.477566;-10.78828;-0.008219171;1020.8142;-;-;51.52536432;-0.133432;0.0
1531048200868;-;-;-0.34009278;1.8824854;10.020762;-0.0044598933;-0.013614278;0.004722491;-14.250001;42.300003;-40.2;17.477566;-10.78828;-0.008219171;1020.8142;-;-;51.52536432;-0.133432;0.0
1531048200878;-;-;-0.22513184;1.949546;9.982442;0.011519074;-0.018940601;0.020701457;-14.250001;42.300003;-40.2;17.501495;-10.793903;-0.06231919;1020.8142;-;-;51.52536432;-0.133432;0.0
1531048200888;-;-;-0.14849122;1.7723145;9.915381;0.014714867;-0.014679544;0.021766722;-13.950001;40.65;-39.45;17.503849;-10.792376;-0.068750456;1020.8142;-;-;51.52536432;-0.133432;0.0
1531048200898;-;-;0.028740235;1.695674;9.7621;0.012584338;-0.005624795;0.009516181;-13.950001;40.65;-39.45;17.503849;-10.792376;-0.068750456;1020.8142;-;-;51.52536432;-0.133432;0.0
1531048200909;-;-;0.05269043;1.7292042;9.73815;0.012051706;0.01674576;-7.1199145E-5;-14.1;40.800003;-39.300003;17.503849;-10.792376;-0.068750456;1020.8142;-;-;51.52536432;-0.133432;0.0
1531048200919;-;-;0.081430666;1.7244141;9.666299;0.013116971;0.019408919;-0.011256477;-14.1;40.800003;-39.300003;17.489367;-10.802367;-0.04629876;1020.8157;-;-;51.52536432;-0.133432;0.0
1531048200929;-;-;-0.12933107;1.7339942;9.74294;0.0077906484;-0.030125877;-0.013387006;-13.200001;41.25;-39.45;17.485332;-10.814721;-0.04467147;1020.8157;-;-;51.52536432;-0.133432;0.0
1531048200939;-;-;0.13891114;1.7818946;9.4507475;-0.004992525;-0.034386933;-0.0101912115;-13.200001;41.25;-39.45;17.485332;-10.814721;-0.04467147;1020.8157;-;-;51.52536432;-0.133432;0.0
1531048200950;-;-;0.07185059;1.9016455;9.455538;-0.0044598933;-0.030125877;-7.1199145E-5;-14.55;41.25;-38.7;17.499039;-10.825904;-0.052556496;1020.8157;-;-;51.52536432;-0.133432;0.0
1531048200960;-;-;0.19639161;1.839375;9.508228;-0.02310202;-0.024266923;0.0031245942;-14.55;41.25;-38.7;17.499039;-10.825904;-0.052556496;1020.8157;-;-;51.52536432;-0.133432;0.0
1531048200970;-;-;0.2682422;1.8441651;9.546548;-0.041211516;-0.027462717;-0.004864889;-13.35;41.4;-38.850002;17.514921;-10.8264475;-0.02281614;1020.8157;-;-;51.52536432;-0.133432;0.0
1531048200981;-;-;0.25866213;1.8058448;9.733359;-0.03961362;-2.984727E-4;-0.013919637;-13.35;41.4;-38.850002;17.514921;-10.8264475;-0.02281614;1020.8157;-;-;51.52536432;-0.133432;0.0
1531048200991;-;-;0.26345217;1.8489552;9.78605;-0.04174415;0.013549965;-0.029365972;-14.250001;40.95;-40.2;17.515507;-10.799432;0.012116222;1020.8157;-;-;51.52536432;-0.133432;0.0
1531048201001;-;-;0.20597169;1.9064356;9.82437;-0.03535256;0.050834224;-0.025104914;-14.250001;40.95;-40.2;17.515507;-10.799432;0.012116222;1020.8157;-;-;51.52536432;-0.133432;0.0
1531048201012;-;-;0.15328126;1.8920655;9.901011;-0.03535256;0.05988897;-0.030431237;-15.3;40.65;-39.9;17.529293;-10.754678;0.020049166;1020.80695;-;-;51.52536432;-0.133432;0.0
1531048201021;-;-;0.07185059;1.8824854;10.011182;-0.022569388;0.048171062;-0.01924596;-15.3;40.65;-39.9;17.529293;-10.754678;0.020049166;1020.80695;-;-;51.52536432;-0.133432;0.0
1531048201031;-;-;-0.009580079;1.9591261;10.068663;0.010453809;0.062552124;-0.011256477;-13.35;41.850002;-40.95;17.549696;-10.7107725;-0.03033778;1020.80695;-;-;51.52536432;-0.133432;0.0
1531048201042;-;-;-0.086220704;1.9112257;9.905801;0.046672802;0.06521529;0.0153751355;-13.35;41.850002;-40.95;17.549696;-10.7107725;-0.03033778;1020.80695;-;-;51.52536432;-0.133432;0.0
1531048201051;-;-;-0.10538086;1.8537452;9.75731;0.022171719;0.030061563;0.016440399;-16.650002;41.25;-41.850002;17.564756;-10.684679;-0.099540874;1020.80695;-;-;51.52536432;-0.133432;0.0
1531048201061;-;-;-0.16765137;1.9974464;9.915381;-0.023634654;-0.08019331;0.046800435;-16.650002;41.25;-41.850002;17.564756;-10.684679;-0.099540874;1020.80695;-;-;51.52536432;-0.133432;0.0
1531048201071;-;-;-0.043110352;1.9160157;10.039923;-0.026830446;-0.10469439;0.04733307;-14.1;41.4;-38.4;17.539991;-10.727509;-0.16351034;1020.80695;-;-;51.52536432;-0.133432;0.0
1531048201081;-;-;0.019160157;1.9399658;10.135723;0.0019316936;-0.10096597;0.06331204;-14.1;41.4;-38.4;17.539991;-10.727509;-0.16351034;1020.80695;-;-;51.52536432;-0.133432;0.0
1531048201092;-;-;0.06706055;1.8872755;10.001602;0.022704352;-0.07433435;0.05745308;-14.85;41.7;-40.2;17.503143;-10.712093;-0.096339;1020.80695;-;-;51.52536432;-0.133432;0.0
1531048201102;-;-;0.16765137;1.829795;9.814791;0.059455976;-0.00935322;0.039343584;-14.85;41.7;-40.2;17.503143;-10.712093;-0.096339;1020.80695;-;-;51.52536432;-0.133432;0.0
1531048201112;-;-;0.21076173;1.7962648;9.608819;0.050401226;0.016213126;0.031354103;-14.700001;41.850002;-39.300003;17.45741;-10.7039175;0.035570025;1020.8083;-;-;51.52536432;-0.133432;0.0
1531048201122;-;-;0.19160157;1.8489552;9.498648;0.023769615;0.05030159;0.01164671;-14.700001;41.850002;-39.300003;17.45741;-10.7039175;0.035570025;1020.8083;-;-;51.52536432;-0.133432;0.0
1531048201133;-;-;0.09580079;1.8824854;9.656719;-0.01830833;0.05722581;-0.0032669925;-14.400001;41.100002;-39.300003;17.412691;-10.761529;0.068573296;1020.8083;-;-;51.52536432;-0.133432;0.0
1531048201142;-;-;0.06706055;1.829795;9.72857;-0.0177757;0.05722581;0.0036572265;-14.400001;41.100002;-39.300003;17.412691;-10.761529;0.068573296;1020.8083;-;-;51.52536432;-0.133432;0.0
1531048201152;-;-;0.07185059;1.8441651;10.0063925;-0.017243067;0.054030016;-7.1199145E-5;-14.55;41.25;-41.100002;17.391155;-10.793479;0.023984317;1020.8083;-;-;51.52536432;-0.133432;0.0
1531048201163;-;-;0.038320314;1.7818946;10.073453;-0.0023293642;0.013017332;0.0068530203;-14.55;41.25;-41.100002;17.391155;-10.793479;0.023984317;1020.8083;-;-;51.52536432;-0.133432;0.0
1531048201172;-;-;0.038320314;1.8202149;9.977652;0.016845396;-0.009885853;0.0031245942;-15.150001;40.050003;-39.300003;17.381472;-10.771642;-0.038821943;1020.8083;-;-;51.52536432;-0.133432;0.0
1531048201182;-;-;-0.023950197;1.8250049;9.872271;0.037618395;-0.007753006;0.003666487;-15.150001;40.050003;-39.300003;17.381472;-10.771642;-0.038821943;1020.8083;-;-;51.52536432;-0.133432;0.0
1531048201201;-;-;-0.014370117;1.8537452;9.608819;0.037085764;0.0018343738;-6.193854E-5;-14.250001;42.0;-40.2;17.375916;-10.766438;-0.067613974;1020.8083;-;-;51.52536432;-0.133432;0.0
1531048201203;-;-;-0.014370117;1.8537452;9.608819;0.037085764;0.0018343738;-6.193854E-5;-14.250001;42.0;-40.2;17.375916;-10.766438;-0.067613974;1020.8083;-;-;51.52536432;-0.133432;0.0
1531048201216;-;-;-0.014370117;1.7818946;9.469908;0.022172062;0.014617546;0.007927544;-15.750001;41.850002;-40.050003;17.374216;-10.8065815;-0.060524024;1020.81195;-;-;51.52536432;-0.133432;0.0
1531048201226;-;-;0.081430666;1.9112257;9.426797;0.017378371;0.032727044;0.0073949127;-15.750001;41.850002;-40.050003;17.374216;-10.8065815;-0.060524024;1020.81195;-;-;51.52536432;-0.133432;0.0
1531048201233;-;-;0.023950197;1.8250049;9.474698;-0.0012637564;0.04870601;0.0015359581;-15.150001;42.45;-41.25;17.374735;-10.850266;-0.059271753;1020.81195;-;-;51.52536432;-0.133432;0.0
1531048201243;-;-;-0.043110352;1.8776954;9.5561285;-0.025232207;0.05616286;0.014319131;-15.150001;42.45;-41.25;17.374735;-10.850266;-0.059271753;1020.81195;-;-;51.52536432;-0.133432;0.0
1531048201258;-;-;0.06227051;1.7579445;9.85311;-0.043874335;0.03911863;0.013786498;-16.050001;42.45;-40.5;17.36208;-10.871756;-0.07967716;1020.81195;-;-;51.52536432;-0.133432;0.0
1531048201264;-;-;0.09101075;1.839375;9.968072;-0.036417484;0.027933352;0.016982293;-16.050001;42.45;-40.5;17.36208;-10.871756;-0.07967716;1020.81195;-;-;51.52536432;-0.133432;0.0
1531048201275;-;-;0.019160157;1.7675245;9.992022;-0.029493265;-0.0056224773;0.01644966;-15.450001;42.15;-40.5;17.336996;-10.859115;-0.13724189;1020.81195;-;-;51.52536432;-0.133432;0.0
1531048201284;-;-;0.05748047;1.8250049;10.025552;-0.015644826;-0.011481431;0.015384397;-15.450001;42.15;-40.5;17.336996;-10.859115;-0.13724189;1020.81195;-;-;51.52536432;-0.133432;0.0
1531048201295;-;-;0.1580713;1.7771046;9.75731;-0.0044595497;-0.014144593;0.015384397;-14.400001;41.100002;-40.5;17.31531;-10.817638;-0.17802425;1020.81195;-;-;51.52536432;-0.133432;0.0
1531048201308;-;-;0.19639161;1.7531544;9.6615095;-0.0028616532;0.009291225;0.0026012226;-14.700001;41.850002;-38.100002;17.29946;-10.792536;-0.16540712;1020.8025;-;-;51.52536432;-0.133432;0.0
1531048201315;-;-;0.06706055;1.6908839;9.718989;8.667725E-4;0.028998617;-0.0075187897;-14.700001;41.850002;-38.100002;17.29946;-10.792536;-0.16540712;1020.8025;-;-;51.52536432;-0.133432;0.0
1531048201325;-;-;0.038320314;1.7579445;9.699829;0.0077909916;0.056695495;-0.017638803;-14.700001;41.850002;-38.100002;17.29946;-10.792536;-0.16540712;1020.8025;-;-;51.52536432;-0.133432;0.0
1531048201336;-;-;0.028740235;1.8250049;9.627979;0.0077909916;0.070011295;-0.001127203;-14.400001;40.5;-38.850002;17.291891;-10.786855;-0.16356008;1020.8025;-;-;51.52536432;-0.133432;0.0
1531048201345;-;-;-0.1341211;1.7627344;9.580078;-0.0039269174;0.06361971;0.0047317515;-14.400001;40.5;-38.850002;17.291891;-10.786855;-0.16356008;1020.8025;-;-;51.52536432;-0.133432;0.0
1531048201361;-;-;-0.1341211;1.7627344;9.69504;-0.034286954;0.01781334;0.027102305;-15.3;41.7;-41.100002;17.288315;-10.789686;-0.21532989;1020.8025;-;-;51.52536432;-0.133432;0.0
1531048201365;-;-;-0.05748047;1.7627344;9.74773;-0.027362736;0.015150179;0.030298099;-15.3;41.7;-41.100002;17.288315;-10.789686;-0.21532989;1020.8025;-;-;51.52536432;-0.133432;0.0
1531048201378;-;-;0.043110352;1.6669337;9.8866415;-0.046004865;-0.01574249;0.034559157;-15.150001;42.15;-40.95;17.27452;-10.7925;-0.2828582;1020.8025;-;-;51.52536432;-0.133432;0.0
1531048201386;-;-;0.11496094;1.7579445;9.857901;-0.031623792;-0.012014064;0.03083073;-15.150001;42.15;-40.95;17.27452;-10.7925;-0.2828582;1020.8025;-;-;51.52536432;-0.133432;0.0
1531048201396;-;-;0.17244141;1.719624;9.905801;-0.021503782;-0.013079328;0.026569672;-14.400001;42.15;-39.600002;17.240475;-10.76703;-0.30387437;1020.8025;-;-;51.52536432;-0.133432;0.0
1531048201410;-;-;0.15328126;1.6573536;9.77168;-0.011916401;-0.0018940518;0.0041991193;-14.700001;40.5;-38.850002;17.209698;-10.726954;-0.28721023;1020.80426;-;-;51.52536432;-0.133432;0.0
1531048201416;-;-;0.119750984;1.7579445;9.632769;-0.008187976;0.011954387;-0.008584054;-14.700001;40.5;-38.850002;17.209698;-10.726954;-0.28721023;1020.80426;-;-;51.52536432;-0.133432;0.0
1531048201427;-;-;0.100590825;1.7627344;9.68067;-0.01404693;0.019943869;-0.014443008;-14.400001;41.850002;-40.95;17.209698;-10.726954;-0.28721023;1020.80426;-;-;51.52536432;-0.133432;0.0
1531048201436;-;-;0.038320314;1.7914747;9.589659;-0.021503782;0.035922837;-0.023497757;-14.400001;41.850002;-40.95;17.19613;-10.707588;-0.2729881;1020.80426;-;-;51.52536432;-0.133432;0.0
1531048201446;-;-;0.05269043;1.7962648;9.594449;-0.026830103;0.03911863;-0.016573537;-15.450001;42.15;-39.300003;17.19613;-10.707588;-0.2729881;1020.80426;-;-;51.52536432;-0.133432;0.0
1531048201460;-;-;-0.0047900393;1.7387843;9.599238;-0.050265923;0.046575483;-0.011247216;-15.450001;42.15;-39.300003;17.201307;-10.69453;-0.2889275;1020.80426;-;-;51.52536432;-0.133432;0.0
1531048201467;-;-;-0.014370117;1.8489552;9.6758795;-0.049200658;0.047108114;-0.018704066;-15.900001;42.300003;-41.100002;17.213657;-10.66526;-0.33530197;1020.80426;-;-;51.52536432;-0.133432;0.0
1531048201476;-;-;-0.028740235;1.7483643;9.75252;-0.058255404;0.036988102;0.0010033259;-15.900001;42.300003;-41.100002;17.213657;-10.66526;-0.33530197;1020.80426;-;-;51.52536432;-0.133432;0.0
1531048201486;-;-;-0.07185059;1.8441651;9.948912;-0.04973329;0.02473756;0.010590706;-15.450001;41.100002;-38.850002;17.220366;-10.611262;-0.3852737;1020.80426;-;-;51.52536432;-0.133432;0.0
1531048201496;-;-;0.05748047;1.8968556;9.920172;-0.057722773;0.009823858;0.014851764;-15.450001;41.100002;-38.850002;17.220366;-10.611262;-0.3852737;1020.80426;-;-;51.52536432;-0.133432;0.0
1531048201511;-;-;0.14370118;1.8010547;10.154883;-0.040678542;0.007160696;0.0026012226;-14.250001;40.65;-40.2;17.211058;-10.545168;-0.41891918;1020.80334;-;-;51.52536432;-0.133432;0.0
1531048201517;-;-;0.081430666;1.7914747;10.126143;-0.032689057;0.0013017416;-0.0069861575;-14.250001;40.65;-40.2;17.211058;-10.545168;-0.41891918;1020.80334;-;-;51.52536432;-0.133432;0.0
1531048201528;-;-;0.038320314;1.7627344;10.039923;-0.02363431;-8.2878734E-4;-0.0064535253;-15.750001;40.050003;-41.25;17.198503;-10.489635;-0.42550078;1020.80334;-;-;51.52536432;-0.133432;0.0
1531048201537;-;-;-0.023950197;1.7818946;10.068663;-0.007122711;0.0066280635;-0.018704066;-15.750001;40.050003;-41.25;17.198503;-10.489635;-0.42550078;1020.80334;-;-;51.52536432;-0.133432;0.0
1531048201548;-;-;-0.023950197;1.7962648;9.944121;0.001932037;0.015150179;-0.020301964;-15.150001;42.45;-41.7;17.20652;-10.4565525;-0.42444357;1020.80334;-;-;51.52536432;-0.133432;0.0
1531048201560;-;-;-0.11496094;1.7962648;9.733359;-0.0017963886;0.019411236;-0.012845112;-15.150001;42.45;-41.7;17.20652;-10.4565525;-0.42444357;1020.80334;-;-;51.52536432;-0.133432;0.0
1531048201568;-;-;-0.07664063;1.7723145;9.718989;-0.0033942854;0.01301965;-0.0075187897;-16.5;42.9;-41.25;17.225105;-10.453307;-0.43547004;1020.80334;-;-;51.52536432;-0.133432;0.0
1531048201579;-;-;-0.09580079;1.705254;9.7812605;-0.008187976;0.033259675;-0.009116687;-16.5;42.9;-41.25;17.225105;-10.453307;-0.43547004;1020.80334;-;-;51.52536432;-0.133432;0.0
1531048201588;-;-;-0.038320314;1.7148341;9.671089;-0.0065900786;0.042314425;-0.0043229964;-14.55;41.7;-40.2;17.23803;-10.455288;-0.4583907;1020.80334;-;-;51.52536432;-0.133432;0.0
1531048201598;-;-;-0.033530276;1.7244141;9.79084;-0.0028616532;0.052434437;-6.193854E-5;-14.55;41.7;-40.2;17.23803;-10.455288;-0.4583907;1020.79474;-;-;51.52536432;-0.133432;0.0
1531048201612;-;-;-0.0047900393;1.6669337;9.79563;-0.0028616532;0.044977587;-0.0016598352;-13.650001;42.45;-39.600002;17.238047;-10.447661;-0.50088024;1020.79474;-;-;51.52536432;-0.133432;0.0
1531048201619;-;-;-0.014370117;1.7723145;9.766891;-0.0033942854;0.032194413;0.0041991193;-13.650001;42.45;-39.600002;17.238047;-10.447661;-0.50088024;1020.79474;-;-;51.52536432;-0.133432;0.0
1531048201628;-;-;-0.05269043;1.7435743;9.704619;-0.011383769;0.010889121;0.0047317515;-14.700001;40.800003;-39.600002;17.232885;-10.443625;-0.5523443;1020.79474;-;-;51.52536432;-0.133432;0.0
1531048201638;-;-;-0.06706055;1.695674;9.74294;-0.01884062;-0.02053618;0.020178087;-14.700001;40.800003;-39.600002;17.232885;-10.443625;-0.5523443;1020.79474;-;-;51.52536432;-0.133432;0.0
1531048201648;-;-;-0.05748047;1.8010547;9.79563;-0.040145908;-0.045037262;0.013253868;-14.700001;42.45;-40.95;17.223383;-10.436179;-0.5796496;1020.79474;-;-;51.52536432;-0.133432;0.0
1531048201661;-;-;-0.1341211;1.7866846;9.800421;-0.031623792;-0.0423741;0.028700203;-14.700001;42.45;-40.95;17.223383;-10.436179;-0.5796496;1020.79474;-;-;51.52536432;-0.133432;0.0
1531048201669;-;-;0.0047900393;1.7771046;9.77168;-0.03801538;-0.037047777;0.019645454;-15.6;41.7;-41.100002;17.213057;-10.41025;-0.55198705;1020.79474;-;-;51.52536432;-0.133432;0.0
1531048201679;-;-;0.12933107;1.7148341;9.85311;-0.029493265;0.0028996384;0.0031338548;-15.6;41.7;-41.100002;17.213057;-10.41025;-0.55198705;1020.79474;-;-;51.52536432;-0.133432;0.0
1531048201689;-;-;0.07664063;1.7339942;9.877061;-0.022036929;0.0076898523;0.0041852286;-14.250001;41.25;-41.850002;17.196972;-10.372666;-0.49815735;1020.79474;-;-;51.52536432;-0.133432;0.0
1531048201700;-;-;-0.028740235;1.7675245;9.867481;-0.022036929;0.038582522;-0.011793738;-14.250001;41.25;-41.850002;17.196972;-10.372666;-0.49815735;1020.7922;-;-;51.52536432;-0.133432;0.0
1531048201711;-;-;-0.06706055;1.7914747;9.72378;-0.02043903;0.046039373;-0.017652694;-13.05;41.4;-39.600002;17.18891;-10.34294;-0.49130055;1020.7922;-;-;51.52536432;-0.133432;0.0
1531048201720;-;-;-0.047900394;1.8345851;9.896221;-0.018841134;0.05030043;-0.018185325;-13.05;41.4;-39.600002;17.18891;-10.34294;-0.49130055;1020.7922;-;-;51.52536432;-0.133432;0.0
1531048201730;-;-;-0.043110352;1.8729054;9.987232;-0.017243238;0.039115153;-0.009130578;-14.85;42.0;-39.9;17.195715;-10.324726;-0.53540397;1020.7922;-;-;51.52536432;-0.133432;0.0
1531048201745;-;-;0.0;1.7339942;9.891431;-0.013514813;0.020473026;0.005783125;-14.85;42.600002;-40.65;17.202164;-10.301389;-0.59076947;1020.7922;-;-;51.52536432;-0.133432;0.0
1531048201751;-;-;0.06227051;1.7962648;9.963282;-0.019906398;0.01940776;9.89435E-4;-14.85;42.600002;-40.65;17.202164;-10.301389;-0.59076947;1020.7922;-;-;51.52536432;-0.133432;0.0
1531048201763;-;-;0.06706055;1.7579445;9.934542;-0.009253755;0.032190938;0.008978919;-14.85;42.600002;-40.65;17.202164;-10.301389;-0.59076947;1020.7922;-;-;51.52536432;-0.133432;0.0
1531048201772;-;-;-0.014370117;1.6860938;9.891431;0.001931522;0.023668818;0.013239977;-15.900001;44.100002;-40.2;17.19282;-10.284484;-0.62004095;1020.7922;-;-;51.52536432;-0.133432;0.0
1531048201783;-;-;-0.019160157;1.705254;9.829161;0.013116798;0.01940776;0.018033665;-15.900001;44.100002;-40.2;17.19282;-10.284484;-0.62004095;1020.7922;-;-;51.52536432;-0.133432;0.0
1531048201796;-;-;-0.07664063;1.7435743;9.73815;0.011518902;0.009820381;0.013239977;-16.050001;42.45;-40.050003;17.17803;-10.272243;-0.64648557;1020.7959;-;-;51.52536432;-0.133432;0.0
1531048201803;-;-;-0.1101709;1.705254;9.70941;0.0056599476;7.6563295E-4;0.01909893;-16.050001;42.45;-40.050003;17.17803;-10.272243;-0.64648557;1020.7959;-;-;51.52536432;-0.133432;0.0
1531048201813;-;-;-0.05748047;1.7962648;9.733359;-0.016177973;-2.996315E-4;0.027088413;-14.55;43.050003;-39.45;17.159124;-10.282095;-0.6747653;1020.7959;-;-;51.52536432;-0.133432;0.0
1531048201823;-;-;0.028740235;1.7723145;9.843531;-0.020971663;0.006091955;0.02602315;-14.55;43.050003;-39.45;17.159124;-10.282095;-0.6747653;1020.7959;-;-;51.52536432;-0.133432;0.0
1531048201833;-;-;0.033530276;1.8202149;9.992022;-0.010851652;0.031658303;0.015903138;-14.400001;41.850002;-38.4;17.139662;-10.293106;-0.67845887;1020.7959;-;-;51.52536432;-0.133432;0.0
1531048201846;-;-;0.081430666;1.705254;9.924961;3.336253E-4;0.037517257;0.013772608;-13.950001;42.600002;-41.100002;17.111912;-10.270886;-0.67719793;1020.7959;-;-;51.52536432;-0.133432;0.0
1531048201854;-;-;-0.023950197;1.6908839;9.83874;0.0035294187;0.043376215;0.0015220672;-13.950001;42.600002;-41.100002;17.111912;-10.270886;-0.67719793;1020.7959;-;-;51.52536432;-0.133432;0.0
1531048201864;-;-;-0.086220704;1.6765138;9.78605;-0.0017969036;0.040713053;-0.005934784;-13.950001;42.600002;-41.100002;17.111912;-10.270886;-0.67719793;1020.7959;-;-;51.52536432;-0.133432;0.0
1531048201874;-;-;-0.19639161;1.7531544;9.74294;-0.017243238;0.015679335;0.0015220672;-14.250001;42.600002;-39.9;17.08692;-10.265739;-0.71298844;1020.7959;-;-;51.52536432;-0.133432;0.0
1531048201885;-;-;-0.22513184;1.710044;9.867481;-0.011916916;0.0092877485;0.005783125;-14.250001;42.600002;-39.9;17.08692;-10.265739;-0.71298844;1020.7959;-;-;51.52536432;-0.133432;0.0
1531048201896;-;-;-0.16765137;1.7387843;9.982442;-0.010851652;0.0028961617;0.022294722;-15.900001;42.300003;-41.550003;17.076054;-10.264856;-0.7562628;1020.7994;-;-;51.52536432;-0.133432;0.0
1531048201905;-;-;-0.100590825;1.6860938;9.872271;-0.0060579614;0.003428794;0.0143052405;-15.900001;42.300003;-41.550003;17.076054;-10.264856;-0.7562628;1020.7994;-;-;51.52536432;-0.133432;0.0
1531048201916;-;-;-0.009580079;1.7818946;9.867481;3.336253E-4;0.01461407;0.013772608;-15.3;41.7;-39.45;17.067398;-10.248771;-0.77094144;1020.7994;-;-;51.52536432;-0.133432;0.0
1531048201930;-;-;-0.081430666;1.6813037;9.75252;0.0077904765;0.04231095;0.009511551;-13.650001;42.45;-39.300003;17.048822;-10.24104;-0.7701866;1020.7994;-;-;51.52536432;-0.133432;0.0
1531048201935;-;-;-0.06227051;1.6238233;9.7142;0.0056599476;0.036984626;9.89435E-4;-13.650001;42.45;-39.300003;17.048822;-10.24104;-0.7701866;1020.7994;-;-;51.52536432;-0.133432;0.0
1531048201947;-;-;-0.028740235;1.6477735;9.618399;-0.009253755;0.03112567;0.0036525961;-14.700001;42.9;-40.5;17.032356;-10.251729;-0.794078;1020.7994;-;-;51.52536432;-0.133432;0.0
1531048201955;-;-;-0.05748047;1.719624;9.690249;-0.027895883;0.018342497;0.0041852286;-14.700001;42.9;-40.5;17.032356;-10.251729;-0.794078;1020.7994;-;-;51.52536432;-0.133432;0.0
1531048201966;-;-;-0.12933107;1.6334034;9.81;-0.022036929;0.015679335;0.0047178604;-14.400001;42.15;-39.600002;17.018448;-10.251428;-0.8356258;1020.7994;-;-;51.52536432;-0.133432;0.0
1531048201982;-;-;-0.14370118;1.7579445;9.920172;-0.0065905936;-0.01894176;0.016435768;-14.400001;42.15;-39.600002;17.018448;-10.251428;-0.8356258;1020.7994;-;-;51.52536432;-0.133432;0.0
1531048201986;-;-;-0.100590825;1.7723145;9.920172;0.0056599476;-0.013615437;0.020164195;-14.85;43.050003;-40.65;17.009111;-10.224106;-0.8515555;1020.7994;-;-;51.52536432;-0.133432;0.0
1531048201998;-;-;-0.15328126;1.7292042;9.800421;0.010986269;-0.012017541;0.030816838;-14.85;43.050003;-40.65;17.009111;-10.224106;-0.8515555;1020.799;-;-;51.52536432;-0.133432;0.0
1531048202007;-;-;-0.1341211;1.710044;9.74773;0.0024641543;-0.010952276;0.030816838;-15.450001;42.45;-40.95;16.992727;-10.219777;-0.8348084;1020.799;-;-;51.52536432;-0.133432;0.0
1531048202017;-;-;-0.12454102;1.6813037;9.829161;0.00619258;0.013548806;0.03294737;-15.450001;42.45;-40.95;16.992727;-10.219777;-0.8348084;1020.799;-;-;51.52536432;-0.133432;0.0
1531048202032;-;-;-0.11496094;1.710044;9.83874;0.008855741;0.021005658;0.028686311;-13.650001;42.45;-41.25;16.968426;-10.227674;-0.8187597;1020.799;-;-;51.52536432;-0.133432;0.0
1531048202038;-;-;-0.086220704;1.6908839;9.718989;0.01577996;0.027397243;0.031882104;-13.650001;42.45;-41.25;16.968426;-10.227674;-0.8187597;1020.799;-;-;51.52536432;-0.133432;0.0
1531048202048;-;-;-0.033530276;1.7292042;9.833951;0.023769444;0.03272357;0.041469485;-13.950001;42.600002;-39.9;16.929045;-10.234448;-0.8218473;1020.799;-;-;51.52536432;-0.133432;0.0
1531048202058;-;-;-0.0047900393;1.6238233;9.79563;0.008855741;0.025799347;0.02389262;-13.950001;42.600002;-39.9;16.929045;-10.234448;-0.8218473;1020.799;-;-;51.52536432;-0.133432;0.0
1531048202068;-;-;0.028740235;1.6765138;9.905801;0.0051273154;-0.0018975282;0.02655578;-14.1;41.850002;-38.100002;16.887732;-10.251577;-0.845421;1020.799;-;-;51.52536432;-0.133432;0.0
1531048202081;-;-;0.009580079;1.6765138;9.915381;-0.0023295358;-0.01414807;0.018566297;-14.1;41.850002;-38.100002;16.887732;-10.251577;-0.845421;1020.799;-;-;51.52536432;-0.133432;0.0
1531048202089;-;-;0.06706055;1.6717237;9.881851;8.662575E-4;-0.022137552;0.014837873;-16.800001;43.2;-40.050003;16.851429;-10.262359;-0.85883224;1020.7927;-;-;51.52536432;-0.133432;0.0
1531048202099;-;-;0.023950197;1.7148341;9.958491;0.011518902;-0.017876495;0.014837873;-16.800001;43.2;-40.050003;16.851429;-10.262359;-0.85883224;1020.7927;-;-;51.52536432;-0.133432;0.0
1531048202109;-;-;-0.019160157;1.7244141;9.829161;0.023769444;-0.008821747;0.01909893;-15.3;42.300003;-39.45;16.832472;-10.26393;-0.8367805;1020.7927;-;-;51.52536432;-0.133432;0.0
1531048202120;-;-;-0.014370117;1.7339942;9.6615095;0.020041019;0.017277231;0.018566297;-15.3;42.300003;-39.45;16.832472;-10.26393;-0.8367805;1020.7927;-;-;51.52536432;-0.133432;0.0
1531048202132;-;-;0.023950197;1.719624;9.580078;0.01577996;0.03112567;0.010576815;-13.650001;42.9;-38.850002;16.817373;-10.279707;-0.81444633;1020.7927;-;-;51.52536432;-0.133432;0.0
1531048202140;-;-;0.05748047;1.7579445;9.666299;-0.0065905936;0.02633198;-0.0011410939;-13.650001;42.9;-38.850002;16.817373;-10.279707;-0.81444633;1020.7927;-;-;51.52536432;-0.133432;0.0
1531048202151;-;-;0.043110352;1.6669337;9.7621;-0.013514813;0.01195091;-0.005934784;-14.85;41.25;-41.550003;16.796331;-10.305301;-0.82690054;1020.7927;-;-;51.52536432;-0.133432;0.0
1531048202160;-;-;0.1101709;1.6765138;9.862691;-0.0023295358;0.0071572196;-0.008065313;-14.85;41.25;-41.550003;16.796331;-10.305301;-0.82690054;1020.7927;-;-;51.52536432;-0.133432;0.0
1531048202170;-;-;0.06227051;1.6142433;9.905801;0.016312592;0.0092877485;-0.013924267;-14.1;41.850002;-40.95;16.780357;-10.306576;-0.8555731;1020.7927;-;-;51.52536432;-0.133432;0.0
1531048202182;-;-;0.043110352;1.705254;9.829161;0.029095765;-8.3226373E-4;-0.013391635;-14.1;41.850002;-40.95;16.780357;-10.306576;-0.8555731;1020.7927;-;-;51.52536432;-0.133432;0.0
1531048202191;-;-;0.05748047;1.7579445;9.6615095;0.022170814;0.004489107;-0.016607212;-15.6;42.600002;-42.75;16.785318;-10.2997265;-0.86296844;1020.78107;-;-;51.52536432;-0.133432;0.0
1531048202200;-;-;-0.028740235;1.7723145;9.613608;0.016311858;0.011945959;-0.023531431;-15.6;42.600002;-42.75;16.785318;-10.2997265;-0.86296844;1020.78107;-;-;51.52536432;-0.133432;0.0
1531048202210;-;-;-0.033530276;1.7914747;9.685459;-0.00978712;0.023131235;-0.017139845;-15.3;42.300003;-39.9;16.799978;-10.324578;-0.86605483;1020.78107;-;-;51.52536432;-0.133432;0.0
1531048202220;-;-;-0.11496094;1.7675245;9.79563;-0.019907132;0.039642833;-0.007019832;-15.3;42.300003;-39.9;16.799978;-10.324578;-0.86605483;1020.78107;-;-;51.52536432;-0.133432;0.0
1531048202232;-;-;-0.119750984;1.7866846;9.77168;-0.023635559;0.038044937;-0.0011608775;-14.1;42.9;-40.050003;16.816538;-10.336488;-0.88430613;1020.78107;-;-;51.52536432;-0.133432;0.0
1531048202240;-;-;-0.18681154;1.7531544;9.85311;-0.025233455;0.039642833;0.0020349158;-14.1;42.9;-40.050003;16.816538;-10.336488;-0.88430613;1020.78107;-;-;51.52536432;-0.133432;0.0
1531048202250;-;-;-0.20597169;1.7435743;9.877061;-0.017776605;0.026327029;0.015883354;-13.05;41.100002;-41.7;16.824398;-10.316099;-0.9242475;1020.78107;-;-;51.52536432;-0.133432;0.0
1531048202261;-;-;-0.21076173;1.8154249;9.934542;-0.017776605;0.026327029;0.026003366;-13.05;41.100002;-41.7;16.824398;-10.316099;-0.9242475;1020.78107;-;-;51.52536432;-0.133432;0.0
1531048202270;-;-;-0.1580713;1.7579445;9.896221;-0.010319753;0.01727228;0.016415985;-13.650001;43.2;-40.050003;16.819351;-10.286952;-0.9708312;1020.78107;-;-;51.52536432;-0.133432;0.0
1531048202283;-;-;-0.12933107;1.7244141;9.848321;-0.0124502815;0.0028912106;0.028666528;-13.650001;43.2;-40.050003;16.819351;-10.286952;-0.9708312;1020.78107;-;-;51.52536432;-0.133432;0.0
1531048202291;-;-;-0.19160157;1.6908839;9.690249;-0.009254488;-0.008826698;0.021742309;-14.400001;42.9;-42.15;16.797424;-10.26803;-0.9954506;1020.7896;-;-;51.52536432;-0.133432;0.0
1531048202315;-;-;-0.16765137;1.8058448;9.833951;-0.010852385;0.030588085;0.014285456;-15.450001;42.15;-40.5;16.775633;-10.260293;-0.99494475;1020.7896;-;-;51.52536432;-0.133432;0.0
1531048202315;-;-;-0.16765137;1.8058448;9.833951;-0.010852385;0.030588085;0.014285456;-15.450001;42.15;-40.5;16.775633;-10.260293;-0.99494475;1020.7896;-;-;51.52536432;-0.133432;0.0
1531048202332;-;-;-0.14370118;1.7723145;9.992022;0.01418133;0.049230214;-0.002226142;-15.150001;42.9;-40.95;16.753756;-10.243674;-0.99495554;1020.7896;-;-;51.52536432;-0.133432;0.0
1531048202350;-;-;-0.1820215;1.7148341;9.857901;0.0285624;0.0391102;0.0041654445;-14.700001;40.800003;-40.5;16.737059;-10.229177;-1.028096;1020.7896;-;-;51.52536432;-0.133432;0.0
1531048202350;-;-;-0.1820215;1.7148341;9.857901;0.0285624;0.0391102;0.0041654445;-14.700001;40.800003;-40.5;16.737059;-10.229177;-1.028096;1020.7896;-;-;51.52536432;-0.133432;0.0
1531048202367;-;-;-0.21555176;1.705254;9.666299;0.007789743;0.015141752;-0.0054219356;-14.700001;41.850002;-40.95;16.726755;-10.249004;-1.0795714;1020.7896;-;-;51.52536432;-0.133432;0.0
1531048202366;-;-;-0.21555176;1.705254;9.666299;0.007789743;0.015141752;-0.0054219356;-14.700001;41.850002;-40.95;16.726755;-10.249004;-1.0795714;1020.7896;-;-;51.52536432;-0.133432;0.0
1531048202383;-;-;-0.244292;1.705254;9.848321;-0.0124502815;7.606817E-4;0.008426502;-14.700001;41.850002;-40.95;16.726755;-10.249004;-1.0795714;1020.7896;-;-;51.52536432;-0.133432;0.0
1531048202400;-;-;-0.06706055;1.6525636;9.82437;0.0024634209;0.0039564753;0.01961178;-16.35;42.0;-40.65;16.723503;-10.260846;-1.1038492;1020.7899;-;-;51.52536432;-0.133432;0.0
1531048202400;-;-;-0.06706055;1.6525636;9.82437;0.0024634209;0.0039564753;0.01961178;-16.35;42.0;-40.65;16.723503;-10.260846;-1.1038492;1020.7899;-;-;51.52536432;-0.133432;0.0
1531048202417;-;-;0.05748047;1.6621436;9.958491;0.011518169;-0.026936194;0.011089664;-15.750001;43.95;-40.5;16.715347;-10.255206;-1.1056627;1020.7899;-;-;51.52536432;-0.133432;0.0
1531048202417;-;-;0.086220704;1.6334034;9.972861;0.008855008;-0.017881446;0.01748125;-15.750001;43.95;-40.5;16.715347;-10.255206;-1.1056627;1020.7899;-;-;51.52536432;-0.133432;0.0
1531048202434;-;-;0.119750984;1.6621436;9.843531;0.0067244787;-0.025338298;-0.008085096;-15.6;42.0;-40.2;16.692556;-10.257339;-1.1009554;1020.7899;-;-;51.52536432;-0.133432;0.0
1531048202451;-;-;-0.023950197;1.705254;9.77168;-0.010852385;0.025794396;-0.04004303;-14.55;42.300003;-41.100002;16.68495;-10.271151;-1.0743005;1020.7899;-;-;51.52536432;-0.133432;0.0
1531048202451;-;-;-0.023950197;1.705254;9.77168;-0.010852385;0.025794396;-0.04004303;-14.55;42.300003;-41.100002;16.68495;-10.271151;-1.0743005;1020.7899;-;-;51.52536432;-0.133432;0.0
1531048202468;-;-;-0.20597169;1.8537452;9.877061;-0.004460798;0.06733971;-0.022466166;-14.85;41.7;-41.550003;16.705439;-10.269226;-1.0645366;1020.7899;-;-;51.52536432;-0.133432;0.0
1531048202469;-;-;-0.20597169;1.8537452;9.877061;-0.004460798;0.06733971;-0.022466166;-14.85;41.7;-41.550003;16.705439;-10.269226;-1.0645366;1020.7899;-;-;51.52536432;-0.133432;0.0
1531048202484;-;-;-0.18681154;1.7675245;9.77647;-0.0012650047;0.061480753;-0.019803006;-15.750001;40.050003;-40.95;16.705439;-10.269226;-1.0645366;1020.7899;-;-;51.52536432;-0.133432;0.0
1531048202501;-;-;-0.20597169;1.6860938;9.68067;-0.0023302692;0.008217533;0.0031001803;-15.750001;40.050003;-40.95;16.728226;-10.26052;-1.1229668;1020.78577;-;-;51.52536432;-0.133432;0.0
1531048202500;-;-;-0.20597169;1.6860938;9.68067;-0.0023302692;0.008217533;0.0031001803;-15.750001;40.050003;-40.95;16.728226;-10.26052;-1.1229668;1020.78577;-;-;51.52536432;-0.133432;0.0
1531048202518;-;-;-0.19639161;1.7435743;9.72857;-0.02896188;-0.015218285;-0.009150361;-14.700001;43.2;-41.7;16.728916;-10.261346;-1.1901083;1020.78577;-;-;51.52536432;-0.133432;0.0
1531048202517;-;-;-0.19639161;1.7435743;9.72857;-0.02896188;-0.015218285;-0.009150361;-14.700001;43.2;-41.7;16.728916;-10.261346;-1.1901083;1020.78577;-;-;51.52536432;-0.133432;0.0
1531048202534;-;-;-0.17244141;1.7387843;9.6758795;-0.019907132;0.014609119;0.014818089;-15.6;43.65;-43.5;16.724455;-10.248322;-1.1989856;1020.78577;-;-;51.52536432;-0.133432;0.0
1531048202551;-;-;-0.17244141;1.7292042;9.6758795;-0.007656591;0.033251245;0.018013882;-14.1;42.15;-40.5;16.721598;-10.218624;-1.1846496;1020.78577;-;-;51.52536432;-0.133432;0.0
1531048202551;-;-;-0.17244141;1.7292042;9.6758795;-0.007656591;0.033251245;0.018013882;-14.1;42.15;-40.5;16.721598;-10.218624;-1.1846496;1020.78577;-;-;51.52536432;-0.133432;0.0
1531048202569;-;-;-0.07664063;1.7627344;9.814791;-0.02416819;-0.013087756;0.013220193;-14.250001;42.300003;-41.100002;16.709759;-10.198668;-1.2063601;1020.78577;-;-;51.52536432;-0.133432;0.0
1531048202568;-;-;-0.07664063;1.7627344;9.814791;-0.02416819;-0.013087756;0.013220193;-14.250001;42.300003;-41.100002;16.709759;-10.198668;-1.2063601;1020.78577;-;-;51.52536432;-0.133432;0.0
1531048202585;-;-;-0.21076173;1.719624;10.049502;-0.022037663;-0.03279515;0.01748125;-12.900001;42.300003;-41.100002;16.696444;-10.175869;-1.2178748;1020.781;-;-;51.52536432;-0.133432;0.0
1531048202603;-;-;-0.009580079;1.7675245;10.102193;3.3289194E-4;-0.03545831;0.01748125;-14.55;42.600002;-41.550003;16.685863;-10.152301;-1.1782408;1020.781;-;-;51.52536432;-0.133432;0.0
1531048202604;-;-;-0.009580079;1.7675245;10.102193;3.3289194E-4;-0.03545831;0.01748125;-14.55;42.600002;-41.550003;16.685863;-10.152301;-1.1782408;1020.781;-;-;51.52536432;-0.133432;0.0
1531048202620;-;-;-0.081430666;1.839375;10.030342;0.026431872;0.0114133265;-0.0059545673;-14.55;42.600002;-41.550003;16.685863;-10.152301;-1.1782408;1020.781;-;-;51.52536432;-0.133432;0.0
1531048202620;-;-;-0.081430666;1.839375;10.030342;0.026431872;0.0114133265;-0.0059545673;-14.55;42.600002;-41.550003;16.685863;-10.152301;-1.1782408;1020.781;-;-;51.52536432;-0.133432;0.0
1531048202636;-;-;-0.033530276;1.7387843;9.843531;0.03814978;0.037512302;-0.01607458;-15.150001;42.15;-40.5;16.682995;-10.150382;-1.1343673;1020.781;-;-;51.52536432;-0.133432;0.0
1531048202653;-;-;-0.14849122;1.6525636;9.74294;0.024833973;0.0076849014;-0.017139845;-14.400001;41.4;-40.5;16.69036;-10.178276;-1.145639;1020.781;-;-;51.52536432;-0.133432;0.0
1531048202653;-;-;-0.14849122;1.6525636;9.74294;0.024833973;0.0076849014;-0.017139845;-14.400001;41.4;-40.5;16.69036;-10.178276;-1.145639;1020.781;-;-;51.52536432;-0.133432;0.0
1531048202670;-;-;-0.043110352;1.7435743;9.642349;0.016311858;-0.030131986;-0.0032914064;-14.700001;41.100002;-40.95;16.704231;-10.217608;-1.1855584;1020.781;-;-;51.52536432;-0.133432;0.0
1531048202688;-;-;-0.06706055;1.6908839;9.70941;0.018442389;-0.03279515;-0.0016935098;-13.500001;42.0;-40.65;16.719429;-10.238192;-1.1772894;1020.7724;-;-;51.52536432;-0.133432;0.0
1531048202688;-;-;-0.0047900393;1.7244141;9.618399;0.018442389;-0.03279515;-0.0016935098;-13.500001;42.0;-40.65;16.719429;-10.238192;-1.1772894;1020.7724;-;-;51.52536432;-0.133432;0.0
1531048202704;-;-;0.043110352;1.6860938;9.718989;0.007789197;-0.0082977535;-0.0049040355;-14.85;42.300003;-39.45;16.730955;-10.251795;-1.136057;1020.7724;-;-;51.52536432;-0.133432;0.0
1531048202705;-;-;0.043110352;1.6860938;9.718989;0.007789197;-0.0082977535;-0.0049040355;-14.85;42.300003;-39.45;16.730955;-10.251795;-1.136057;1020.7724;-;-;51.52536432;-0.133432;0.0
1531048202720;-;-;-0.14370118;1.6908839;9.623189;3.3234584E-4;0.025258077;-0.023546163;-14.85;42.300003;-39.45;16.730955;-10.251795;-1.136057;1020.7724;-;-;51.52536432;-0.133432;0.0
1531048202737;-;-;-0.1341211;1.6573536;9.642349;-0.02736453;0.03963915;-0.033133544;-14.700001;42.15;-42.15;16.742668;-10.261228;-1.1189487;1020.7724;-;-;51.52536432;-0.133432;0.0
1531048202738;-;-;-0.1341211;1.6573536;9.642349;-0.02736453;0.03963915;-0.033133544;-14.700001;42.15;-42.15;16.742668;-10.261228;-1.1189487;1020.7724;-;-;51.52536432;-0.133432;0.0
1531048202754;-;-;-0.1820215;1.6525636;9.814791;-0.023636105;0.022062283;-0.008099829;-15.750001;41.850002;-41.25;16.760471;-10.262867;-1.1487713;1020.7724;-;-;51.52536432;-0.133432;0.0
1531048202755;-;-;-0.1820215;1.6525636;9.814791;-0.023636105;0.022062283;-0.008099829;-15.750001;41.850002;-41.25;16.760471;-10.262867;-1.1487713;1020.7724;-;-;51.52536432;-0.133432;0.0
1531048202771;-;-;-0.12454102;1.719624;9.72378;-0.010852931;7.569946E-4;-0.0017082423;-14.55;42.0;-40.65;16.774534;-10.238932;-1.1973301;1020.7724;-;-;51.52536432;-0.133432;0.0
1531048202788;-;-;-0.06706055;1.6573536;9.642349;-0.0071245055;0.016735962;-0.012893519;-13.05;41.850002;-40.95;16.785318;-10.212866;-1.2194502;1020.76215;-;-;51.52536432;-0.133432;0.0
1531048202789;-;-;-0.038320314;1.6429834;9.69504;-0.011385563;0.011942272;-0.015024048;-13.05;41.850002;-40.95;16.785318;-10.212866;-1.2194502;1020.76215;-;-;51.52536432;-0.133432;0.0
1531048202805;-;-;-0.11496094;1.7627344;9.7812605;-0.01298346;0.008746478;-0.0049040355;-13.05;42.15;-39.600002;16.794422;-10.201196;-1.2298273;1020.76215;-;-;51.52536432;-0.133432;0.0
1531048202805;-;-;-0.11496094;1.7627344;9.7812605;-0.01298346;0.008746478;-0.0049040355;-13.05;42.15;-39.600002;16.794422;-10.201196;-1.2298273;1020.76215;-;-;51.52536432;-0.133432;0.0
1531048202821;-;-;-0.25387207;1.719624;9.843531;-0.014581356;0.0151380645;-0.012893519;-13.05;42.15;-39.600002;16.794422;-10.201196;-1.2298273;1020.76215;-;-;51.52536432;-0.133432;0.0
1531048202838;-;-;-0.22513184;1.7962648;9.910591;-0.010852931;0.014605432;-0.0059693;-16.050001;40.800003;-41.7;16.808;-10.18635;-1.2485659;1020.76215;-;-;51.52536432;-0.133432;0.0
1531048202838;-;-;-0.22513184;1.7962648;9.910591;-0.010852931;0.014605432;-0.0059693;-16.050001;40.800003;-41.7;16.808;-10.18635;-1.2485659;1020.76215;-;-;51.52536432;-0.133432;0.0
1531048202855;-;-;-0.10538086;1.7818946;9.901011;-0.011385563;0.030584397;-0.003306139;-15.450001;43.95;-41.7;16.818047;-10.162476;-1.2648973;1020.76215;-;-;51.52536432;-0.133432;0.0
1531048202855;-;-;-0.10538086;1.7818946;9.901011;-0.011385563;0.030584397;-0.003306139;-15.450001;43.95;-41.7;16.818047;-10.162476;-1.2648973;1020.76215;-;-;51.52536432;-0.133432;0.0
1531048202869;-;-;-0.07185059;1.8202149;9.82437;-0.025766633;0.019399121;0.0148033565;-14.85;42.0;-41.100002;16.8154;-10.150486;-1.2842185;1020.76215;-;-;51.52536432;-0.133432;0.0
1531048202887;-;-;-0.05748047;1.7914747;9.833951;-0.033223487;0.02632334;0.0020201833;-13.500001;41.7;-39.9;16.799908;-10.133093;-1.3079664;1020.7658;-;-;51.52536432;-0.133432;0.0
1531048202887;-;-;-0.05748047;1.7914747;9.833951;-0.033223487;0.02632334;0.0020201833;-13.500001;41.7;-39.9;16.799908;-10.133093;-1.3079664;1020.7658;-;-;51.52536432;-0.133432;0.0
1531048202903;-;-;-0.119750984;1.7435743;9.968072;-0.02257084;0.019399121;-0.0059693;-13.200001;42.300003;-41.100002;16.786985;-10.09467;-1.3298149;1020.7658;-;-;51.52536432;-0.133432;0.0
1531048202920;-;-;-0.086220704;1.6669337;9.968072;0.010984991;0.024192812;-0.014491416;-13.200001;42.300003;-41.100002;16.786985;-10.09467;-1.3298149;1020.7658;-;-;51.52536432;-0.133432;0.0
1531048202921;-;-;-0.086220704;1.6669337;9.968072;0.010984991;0.024192812;-0.014491416;-13.200001;42.300003;-41.100002;16.786985;-10.09467;-1.3298149;1020.7658;-;-;51.52536432;-0.133432;0.0
1531048202939;-;-;-0.1101709;1.6525636;9.81958;0.036018703;-0.022146191;-0.036861967;-14.700001;42.45;-41.25;16.789703;-10.071522;-1.3627323;1020.7658;-;-;51.52536432;-0.133432;0.0
1531048202938;-;-;-0.1101709;1.6525636;9.81958;0.036018703;-0.022146191;-0.036861967;-14.700001;42.45;-41.25;16.789703;-10.071522;-1.3627323;1020.7658;-;-;51.52536432;-0.133432;0.0
1531048202954;-;-;-0.1341211;1.7627344;9.599238;0.022170268;-0.042918846;-0.052308302;-14.85;43.350002;-40.2;16.80983;-10.09064;-1.3894758;1020.7658;-;-;51.52536432;-0.133432;0.0
1531048202954;-;-;-0.1341211;1.7627344;9.599238;0.022170268;-0.042918846;-0.052308302;-14.85;43.350002;-40.2;16.80983;-10.09064;-1.3894758;1020.7658;-;-;51.52536432;-0.133432;0.0
1531048202971;-;-;-0.16765137;1.7004639;9.642349;0.012050255;-0.02427672;-0.0539062;-15.450001;42.9;-40.95;16.859816;-10.12608;-1.3703022;1020.7658;-;-;51.52536432;-0.133432;0.0
1531048202988;-;-;-0.11496094;1.6621436;9.671089;-0.0049939766;-0.010428282;-0.048047245;-13.950001;42.600002;-39.9;16.921194;-10.143816;-1.3415654;1020.7642;-;-;51.52536432;-0.133432;0.0
1531048202988;-;-;-0.1101709;1.719624;9.704619;-7.329186E-4;-8.409021E-4;-0.040590394;-13.950001;42.600002;-39.9;16.921194;-10.143816;-1.3415654;1020.7642;-;-;51.52536432;-0.133432;0.0
1531048203006;-;-;-0.019160157;1.6381935;9.800421;-0.016711885;0.010344375;-0.050710406;-14.85;42.0;-40.65;16.921194;-10.143816;-1.3415654;1020.7642;-;-;51.52536432;-0.133432;0.0
1531048203006;-;-;-0.019160157;1.6381935;9.800421;-0.016711885;0.010344375;-0.050710406;-14.85;42.0;-40.65;16.921194;-10.143816;-1.3415654;1020.7642;-;-;51.52536432;-0.133432;0.0
1531048203022;-;-;0.086220704;1.5136524;10.106983;0.008854462;-0.011493546;-0.051243037;-13.950001;42.300003;-39.45;17.028044;-10.135592;-1.3570634;1020.7642;-;-;51.52536432;-0.133432;0.0
1531048203040;-;-;-0.033530276;1.5423926;9.80521;0.0376166;-0.030135674;-0.08000518;-13.950001;42.300003;-39.45;17.028044;-10.135592;-1.3570634;1020.7642;-;-;51.52536432;-0.133432;0.0
1531048203040;-;-;-0.033530276;1.5423926;9.80521;0.0376166;-0.030135674;-0.08000518;-13.950001;42.300003;-39.45;17.028044;-10.135592;-1.3570634;1020.7642;-;-;51.52536432;-0.133432;0.0
1531048203057;-;-;-0.11496094;1.5711329;9.5561285;0.021637635;-0.0035040632;-0.09332099;-14.85;41.7;-43.95;17.088764;-10.151225;-1.3606533;1020.7642;-;-;51.52536432;-0.133432;0.0
1531048203057;-;-;-0.11496094;1.5711329;9.5561285;0.021637635;-0.0035040632;-0.09332099;-14.85;41.7;-43.95;17.088764;-10.151225;-1.3606533;1020.7642;-;-;51.52536432;-0.133432;0.0
1531048203073;-;-;-0.23950197;1.5376027;9.79084;0.018974474;0.02152965;-0.09758204;-14.400001;42.15;-41.25;17.184923;-10.187056;-1.3459933;1020.7642;-;-;51.52536432;-0.133432;0.0
1531048203091;-;-;-0.06706055;1.5423926;9.704619;0.015246049;-0.0066998564;-0.1002452;-15.6;42.0;-40.65;17.287554;-10.210351;-1.370741;1020.7638;-;-;51.52536432;-0.133432;0.0
1531048203091;-;-;-0.06706055;1.5423926;9.704619;0.015246049;-0.0066998564;-0.1002452;-15.6;42.0;-40.65;17.287554;-10.210351;-1.370741;1020.7638;-;-;51.52536432;-0.133432;0.0
1531048203107;-;-;-0.038320314;1.585503;9.513018;-0.0033960799;-0.013091443;-0.109832585;-14.400001;42.9;-40.5;17.394417;-10.233806;-1.40609;1020.7638;-;-;51.52536432;-0.133432;0.0
1531048203124;-;-;-0.23950197;1.7818946;9.637559;-0.0017981831;0.003952788;-0.09651678;-13.500001;41.25;-39.9;17.394417;-10.233806;-1.40609;1020.7638;-;-;51.52536432;-0.133432;0.0
1531048203123;-;-;-0.23950197;1.7818946;9.637559;-0.0017981831;0.003952788;-0.09651678;-13.500001;41.25;-39.9;17.394417;-10.233806;-1.40609;1020.7638;-;-;51.52536432;-0.133432;0.0
1531048203140;-;-;-0.3879932;1.7914747;9.982442;0.008321829;0.006615949;-0.052308302;-13.500001;41.25;-39.9;17.514273;-10.242452;-1.4093782;1020.7638;-;-;51.52536432;-0.133432;0.0
1531048203140;-;-;-0.3879932;1.7914747;9.982442;0.008321829;0.006615949;-0.052308302;-13.500001;41.25;-39.9;17.514273;-10.242452;-1.4093782;1020.7638;-;-;51.52536432;-0.133432;0.0
1531048203157;-;-;-0.39757326;1.8729054;9.74773;0.0019302425;-0.046114642;-0.036861967;-15.750001;40.800003;-42.15;17.622461;-10.23039;-1.4361981;1020.7638;-;-;51.52536432;-0.133432;0.0
1531048203175;-;-;-0.5412744;2.4093897;9.445957;-0.061985627;-0.07540942;0.010542299;-15.3;40.65;-41.850002;17.68207;-10.241211;-1.464845;1020.76654;-;-;51.52536432;-0.133432;0.0
1531048203174;-;-;-0.5412744;2.4093897;9.445957;-0.061985627;-0.07540942;0.010542299;-15.3;40.65;-41.850002;17.68207;-10.241211;-1.464845;1020.76654;-;-;51.52536432;-0.133432;0.0
1531048203191;-;-;-0.5508545;1.839375;9.455538;-0.06997511;-0.022678824;0.04942445;-15.6;41.7;-40.2;17.72024;-10.215084;-1.3915014;1020.76654;-;-;51.52536432;-0.133432;0.0
1531048203191;-;-;-0.5508545;1.839375;9.455538;-0.06997511;-0.022678824;0.04942445;-15.6;41.7;-40.2;17.72024;-10.215084;-1.3915014;1020.76654;-;-;51.52536432;-0.133432;0.0
1531048203209;-;-;0.21555176;1.5807129;9.934542;-0.026832568;-0.027477045;-0.04167376;-14.700001;41.100002;-40.95;17.689787;-10.146453;-1.3324546;1020.76654;-;-;51.52536432;-0.133432;0.0
1531048203224;-;-;0.16286133;1.829795;9.8866415;-0.0033967507;-0.008834915;-0.09493698;-14.700001;41.100002;-40.95;17.689787;-10.146453;-1.3324546;1020.76654;-;-;51.52536432;-0.133432;0.0
1531048203223;-;-;0.16286133;1.829795;9.8866415;-0.0033967507;-0.008834915;-0.09493698;-14.700001;41.100002;-40.95;17.689787;-10.146453;-1.3324546;1020.76654;-;-;51.52536432;-0.133432;0.0
1531048203240;-;-;-0.13891114;2.0501368;10.116563;-0.0023314862;0.036971457;-0.08055591;-13.200001;41.25;-39.45;17.674196;-10.083859;-1.3185872;1020.76654;-;-;51.52536432;-0.133432;0.0
1531048203259;-;-;-0.14849122;1.8824854;10.039923;0.009919055;0.019927224;-0.06404431;-14.55;41.25;-41.100002;17.767134;-10.070687;-1.3237121;1020.76654;-;-;51.52536432;-0.133432;0.0
1531048203259;-;-;-0.15328126;1.8729054;10.130933;0.017375907;0.035906192;-0.068838;-14.55;41.25;-41.100002;17.767134;-10.070687;-1.3237121;1020.76654;-;-;51.52536432;-0.133432;0.0
1531048203275;-;-;-0.06227051;1.8633252;9.972861;0.028028551;0.006611419;-0.061381154;-15.900001;42.300003;-41.100002;17.852646;-10.070374;-1.3748436;1020.76605;-;-;51.52536432;-0.133432;0.0
1531048203275;-;-;-0.06227051;1.8633252;9.972861;0.028028551;0.006611419;-0.061381154;-15.900001;42.300003;-41.100002;17.852646;-10.070374;-1.3748436;1020.76605;-;-;51.52536432;-0.133432;0.0
1531048203292;-;-;-0.09101075;1.8824854;10.049502;0.027495919;-0.013628605;-0.05126114;-15.6;42.0;-39.9;17.924614;-10.089073;-1.4165008;1020.76605;-;-;51.52536432;-0.133432;0.0
1531048203293;-;-;-0.081430666;1.8872755;9.987232;0.025898023;-0.018954929;-0.052326404;-15.6;42.0;-39.9;17.924614;-10.089073;-1.4165008;1020.76605;-;-;51.52536432;-0.133432;0.0
1531048203308;-;-;-0.1341211;1.9782863;10.0063925;0.037083298;-0.018422296;-0.034216907;-14.85;41.7;-41.550003;17.99224;-10.114615;-1.4244998;1020.76605;-;-;51.52536432;-0.133432;0.0
1531048203325;-;-;-0.09580079;1.9591261;9.953702;0.030691713;-0.023215987;-0.018237941;-14.85;41.7;-41.550003;17.99224;-10.114615;-1.4244998;1020.76605;-;-;51.52536432;-0.133432;0.0
1531048203325;-;-;-0.09580079;1.9591261;9.953702;0.030691713;-0.023215987;-0.018237941;-14.85;41.7;-41.550003;17.99224;-10.114615;-1.4244998;1020.76605;-;-;51.52536432;-0.133432;0.0
1531048203342;-;-;-0.12454102;2.0932472;9.972861;0.023767494;7.5246475E-4;-0.004389504;-14.250001;41.7;-40.65;18.06791;-10.182968;-1.393309;1020.76605;-;-;51.52536432;-0.133432;0.0
1531048203358;-;-;-0.1580713;2.0357666;10.346485;0.043474883;0.013003006;0.017981049;-14.250001;41.7;-40.65;18.06791;-10.182968;-1.393309;1020.76605;-;-;51.52536432;-0.133432;0.0
1531048203358;-;-;-0.1580713;2.0357666;10.346485;0.043474883;0.013003006;0.017981049;-14.250001;41.7;-40.65;18.06791;-10.182968;-1.393309;1020.76605;-;-;51.52536432;-0.133432;0.0
1531048203376;-;-;-0.038320314;1.6765138;10.471025;0.093542315;-0.015226502;0.011589463;-15.3;41.7;-41.100002;18.069527;-10.2070875;-1.3926338;1020.7619;-;-;51.52536432;-0.133432;0.0
1531048203376;-;-;-0.038320314;1.6765138;10.471025;0.093542315;-0.015226502;0.011589463;-15.3;41.7;-41.100002;18.069527;-10.2070875;-1.3926338;1020.7619;-;-;51.52536432;-0.133432;0.0
1531048203392;-;-;0.12454102;1.6238233;10.011182;0.1281634;-0.06529393;-0.036347438;-14.55;40.65;-41.850002;18.05311;-10.261464;-1.4051398;1020.7619;-;-;51.52536432;-0.133432;0.0
1531048203408;-;-;0.21555176;1.6190332;9.7142;0.1180434;-0.061032873;-0.09546961;-14.250001;40.65;-41.850002;18.07018;-10.386839;-1.3644606;1020.7619;-;-;51.52536432;-0.133432;0.0
1531048203408;-;-;0.21555176;1.6190332;9.7142;0.1180434;-0.061032873;-0.09546961;-14.250001;40.65;-41.850002;18.07018;-10.386839;-1.3644606;1020.7619;-;-;51.52536432;-0.133432;0.0
1531048203425;-;-;0.14849122;1.6621436;9.77647;0.11697814;-0.021618089;-0.12582965;-14.700001;40.5;-39.600002;18.166254;-10.52509;-1.3052841;1020.7619;-;-;51.52536432;-0.133432;0.0
1531048203425;-;-;0.14849122;1.6621436;9.77647;0.11697814;-0.021618089;-0.12582965;-14.700001;40.5;-39.600002;18.166254;-10.52509;-1.3052841;1020.7619;-;-;51.52536432;-0.133432;0.0
1531048203442;-;-;0.10538086;1.590293;9.584868;0.12496762;-0.006171754;-0.12476438;-14.1;41.4;-40.050003;18.166254;-10.52509;-1.3052841;1020.7619;-;-;51.52536432;-0.133432;0.0
1531048203459;-;-;0.28261232;1.4944923;9.254355;0.060519114;-0.030672837;-0.11251384;-14.1;41.4;-40.050003;18.30941;-10.653203;-1.2962093;1020.7619;-;-;51.52536432;-0.133432;0.0
1531048203460;-;-;0.28261232;1.4944923;9.254355;0.060519114;-0.030672837;-0.11251384;-14.1;41.4;-40.050003;18.30941;-10.653203;-1.2962093;1020.7619;-;-;51.52536432;-0.133432;0.0
