TimeStamp[ms];Prox[Cm];Lux[lux];AccX[m/s^2];AccY[m/s^2];AccZ[m/s^2];GyroX[rad/s];GyroY[rad/s];GyroZ[rad/s];MagnX[uT];MagnY[uT];MagnZ[uT];OrienYaw[degrees];OrienPitch[degrees];OrienRoll[degrees];Press[Pa];Temp[C°];Batt[%];Lat;Lng;Speed[m/s]
1531156008146;-;-;-0.34009278;0.6945557;9.996812;-0.063903295;0.072321884;0.021173535;14.1;58.65;-42.15;-;-;-;-;-;-;-;-;-
1531156008146;-;-;-0.34009278;0.6945557;9.996812;-0.063903295;0.072321884;0.021173535;14.1;58.65;-42.15;-;-;-;-;-;-;-;-;-
1531156008162;-;-;-0.43110353;0.5987549;10.332115;-0.05538118;0.12931353;0.023304064;14.1;58.65;-42.15;-;-;-;-;-;-;-;-;-
1531156008165;-;-;-0.4167334;0.56522465;10.289004;-0.048989594;0.13677038;0.022771431;12.450001;60.600002;-44.25;-;-;-;-;-;-;-;-;-
1531156008175;-;-;-0.49337405;0.6322852;10.126143;-0.029282203;0.1500862;0.037152503;12.450001;60.600002;-44.25;-;-;-;-;-;-;-;-;-
1531156008185;-;-;-0.40715334;0.613125;10.087823;-0.020760087;0.16340199;0.038217768;13.200001;59.850002;-44.25;-;-;-;-;-;-;-;-;-
1531156008196;-;-;-0.31135255;0.6227051;9.934542;-0.035141155;0.15274934;0.027565122;13.200001;59.850002;-44.25;-;-;-;-;-;-;-;-;-
1531156008206;-;-;-0.26345217;0.6466553;9.953702;-0.04259801;0.14156407;0.025434593;13.650001;58.95;-43.65;-;-;-;-;-;-;-;-;-
1531156008216;-;-;-0.2203418;0.60354495;9.72378;-0.07242541;0.11333457;-0.0043928106;13.650001;58.95;-43.65;-;-;-;-;-;-;-;-;-
1531156008227;-;-;-0.2778223;0.51732427;9.766891;-0.09639386;0.11386719;-0.017175986;13.500001;57.750004;-43.5;-;-;-;-;-;-;-;-;-
1531156008237;-;-;-0.37362307;0.488584;10.0063925;-0.12249284;0.08350716;-0.018241249;13.500001;57.750004;-43.5;-;-;-;-;-;-;-;-;-
1531156008248;-;-;-0.4023633;0.52690434;10.154883;-0.11397073;0.08350716;-0.03049179;12.450001;59.100002;-45.600002;-;-;-;-;-;-;-;-;-
1531156008257;-;-;-0.43110353;0.5604346;10.327325;-0.088937014;0.09309454;-0.031024422;12.450001;59.100002;-45.600002;-;-;-;-;-;-;-;-;-
1531156008267;-;-;-0.4023633;0.5412744;10.394385;-0.052185386;0.10800824;-0.04327496;13.650001;59.7;-42.45;-;-;-;-;-;-;-;-;-
1531156008277;-;-;-0.48379397;0.4406836;10.2315235;0.0026757307;0.15381461;-0.042209696;13.650001;59.7;-42.45;-;-;-;-;-;-;-;-;-
1531156008288;-;-;-0.5843848;0.4263135;10.111773;0.021850491;0.18310939;-0.049133915;15.150001;58.65;-44.100002;-;-;-;-;-;-;-;-;-
1531156008298;-;-;-0.6706055;0.5412744;9.992022;0.036231562;0.15754303;-0.026763365;15.150001;58.65;-44.100002;-;-;-;-;-;-;-;-;-
1531156008308;-;-;-0.6658155;0.52690434;9.833951;0.03303577;0.1389009;-0.026763365;13.650001;58.95;-41.25;-;-;-;-;-;-;-;-;-
1531156008319;-;-;-0.5460645;0.53169435;9.699829;0.030372607;0.07764821;0.012118788;13.650001;58.95;-41.25;-;-;-;-;-;-;-;-;-
1531156008329;-;-;-0.46463382;0.57001466;9.68067;0.020252595;0.051016595;0.017977742;14.250001;60.600002;-40.65;-;-;-;-;-;-;-;-;-
1531156008339;-;-;-0.48379397;0.5460645;9.560919;-0.005846385;-0.01716033;0.017977742;14.250001;60.600002;-40.65;-;-;-;-;-;-;-;-;-
1531156008350;-;-;-0.4981641;0.5508545;9.608819;-0.010640075;-0.042194046;0.011053524;14.700001;58.65;-43.350002;-;-;-;-;-;-;-;-;-
1531156008360;-;-;-0.5029541;0.5364844;9.594449;-0.025553778;-0.100783594;0.010520891;14.700001;58.65;-43.350002;-;-;-;-;-;-;-;-;-
1531156008370;-;-;-0.488584;0.51732427;9.833951;-0.029282203;-0.117827825;-0.0059907073;14.1;57.9;-41.25;-;-;-;-;-;-;-;-;-
1531156008381;-;-;-0.44547364;0.44547364;10.154883;-0.010640075;-0.13274153;-0.026763365;14.1;57.9;-41.25;-;-;-;-;-;-;-;-;-
1531156008391;-;-;-0.6514453;0.40715334;10.121353;0.003208363;-0.12102362;-0.028893894;13.500001;58.500004;-43.5;-;-;-;-;-;-;-;-;-
1531156008401;-;-;-0.4742139;0.37362307;10.164463;0.040492617;-0.07734777;-0.0043928106;13.500001;58.500004;-43.5;-;-;-;-;-;-;-;-;-
1531156008411;-;-;-0.50774413;0.43589357;10.102193;0.06765687;0.014264971;0.019575639;13.650001;59.7;-45.0;-;-;-;-;-;-;-;-;-
1531156008421;-;-;-0.613125;0.5508545;10.030342;0.07351582;0.044092376;0.02436933;13.650001;59.7;-45.0;-;-;-;-;-;-;-;-;-
1531156008431;-;-;-0.60354495;0.4981641;10.092612;0.08203793;0.004144958;0.04354409;13.650001;58.350002;-44.550003;-;-;-;-;-;-;-;-;-
1531156008442;-;-;-0.57959473;0.5125342;9.958491;0.08842952;-0.017692963;0.045141988;13.650001;58.350002;-44.550003;-;-;-;-;-;-;-;-;-
1531156008451;-;-;-0.488584;0.60833496;9.992022;0.09482111;-0.032074034;0.039815664;14.55;59.100002;-43.050003;-;-;-;-;-;-;-;-;-
1531156008461;-;-;-0.4981641;0.5508545;9.877061;0.0799074;-0.038998254;0.027032489;14.55;59.100002;-43.050003;-;-;-;-;-;-;-;-;-
1531156008471;-;-;-0.60833496;0.47900394;9.958491;0.06392844;-0.06722776;0.02436933;14.1;58.65;-42.45;-;-;-;-;-;-;-;-;-
1531156008481;-;-;-0.5748047;0.45984375;9.920172;0.054341055;-0.0794783;0.035554606;14.1;58.65;-42.45;-;-;-;-;-;-;-;-;-
1531156008491;-;-;-0.5843848;0.5412744;9.829161;0.04688421;-0.07468461;0.06644727;14.55;57.750004;-42.300003;-;-;-;-;-;-;-;-;-
1531156008502;-;-;-0.4981641;0.5891748;10.020762;0.033570014;-0.09492805;0.07815673;13.650001;59.7;-44.100002;-;-;-;-;-;-;-;-;-
1531156008512;-;-;-0.34488282;0.64186525;10.121353;0.03676581;-0.104515426;0.07815673;13.650001;59.7;-44.100002;-;-;-;-;-;-;-;-;-
1531156008522;-;-;-0.20597169;0.6849756;10.106983;0.04848372;-0.089601725;0.07176515;14.55;58.800003;-43.95;-;-;-;-;-;-;-;-;-
1531156008532;-;-;-0.33530274;0.6514453;9.944121;0.060201626;-0.06403538;0.042470373;14.55;58.800003;-43.95;-;-;-;-;-;-;-;-;-
1531156008542;-;-;-0.3305127;0.6610254;10.078242;0.060734257;-0.053915367;0.04886196;14.400001;58.350002;-42.9;-;-;-;-;-;-;-;-;-
1531156008553;-;-;-0.2682422;0.7185059;10.178833;0.07671322;-1.1951302E-4;0.047796696;14.400001;58.350002;-42.9;-;-;-;-;-;-;-;-;-
1531156008563;-;-;-0.32093263;0.6610254;10.106983;0.08310482;0.008402603;0.05099249;14.400001;58.95;-44.100002;-;-;-;-;-;-;-;-;-
1531156008573;-;-;-0.17244141;0.7185059;10.035132;0.106540635;-0.03047955;0.030752465;14.400001;58.95;-44.100002;-;-;-;-;-;-;-;-;-
1531156008584;-;-;-0.16286133;0.7376661;9.857901;0.10014905;-0.04539325;0.01530613;12.900001;58.050003;-43.050003;-;-;-;-;-;-;-;-;-
1531156008594;-;-;-0.22513184;0.7089258;9.857901;0.07990901;-0.058176424;-0.0129233785;12.900001;58.050003;-43.050003;-;-;-;-;-;-;-;-;-
1531156008604;-;-;-0.34009278;0.6658155;9.848321;0.070321634;-0.06723117;-0.023576023;14.55;57.15;-43.050003;-;-;-;-;-;-;-;-;-
1531156008614;-;-;-0.34488282;0.6322852;9.843531;0.06446268;-0.057643794;-0.031032873;14.55;57.15;-43.050003;-;-;-;-;-;-;-;-;-
1531156008625;-;-;-0.34488282;0.64186525;9.829161;0.0564732;-0.029414287;-0.03050024;15.150001;56.250004;-43.65;-;-;-;-;-;-;-;-;-
1531156008635;-;-;-0.47900394;0.6610254;9.6615095;0.026645796;-0.0038479385;-0.017717067;15.150001;56.250004;-43.65;-;-;-;-;-;-;-;-;-
1531156008645;-;-;-0.49337405;0.6514453;9.546548;-0.015432149;-0.010772157;0.007849279;14.250001;60.15;-43.050003;-;-;-;-;-;-;-;-;-
1531156008656;-;-;-0.37362307;0.6706055;9.64714;-0.050585877;-0.012370055;0.018501922;14.250001;60.15;-43.050003;-;-;-;-;-;-;-;-;-
1531156008666;-;-;-0.39278322;0.6945557;9.690249;-0.057510097;-0.024620596;0.017969292;13.950001;59.550003;-43.5;-;-;-;-;-;-;-;-;-
1531156008676;-;-;-0.37362307;0.613125;10.102193;-0.0740217;-0.09759121;0.027024038;13.950001;59.550003;-43.5;-;-;-;-;-;-;-;-;-
1531156008687;-;-;-0.39278322;0.60833496;10.566827;-0.03673744;-0.15990917;0.038741946;14.1;60.000004;-42.9;-;-;-;-;-;-;-;-;-
1531156008696;-;-;-0.3065625;0.6322852;10.844649;0.07511532;-0.21583557;0.05099249;14.1;60.000004;-42.9;-;-;-;-;-;-;-;-;-
1531156008706;-;-;-0.22992188;0.74724615;10.734478;0.1672607;-0.22275978;0.034480892;13.500001;58.500004;-43.5;-;-;-;-;-;-;-;-;-
1531156008716;-;-;-0.13891114;0.75203615;10.336905;0.24395974;-0.20518292;0.015838763;13.500001;58.500004;-43.5;-;-;-;-;-;-;-;-;-
1531156008730;-;-;-0.244292;0.7041358;9.546548;0.2104039;-0.122624926;0.004653485;13.950001;57.15;-43.5;-;-;-;-;-;-;-;-;-
1531156008740;-;-;-0.20597169;0.7185059;9.508228;0.1672607;-0.09279752;0.011045072;13.950001;57.15;-43.5;-;-;-;-;-;-;-;-;-
1531156008751;-;-;-0.17723145;0.7759864;9.388477;0.07884376;-0.025153229;0.025426142;12.3;56.850002;-43.350002;-;-;-;-;-;-;-;-;-
1531156008761;-;-;-0.2203418;0.82388675;9.465117;0.028776325;0.010533132;-0.002270734;12.3;56.850002;-43.350002;-;-;-;-;-;-;-;-;-
1531156008771;-;-;-0.3305127;0.7759864;9.508228;-0.012768989;0.035566848;-6.7283714E-4;14.400001;57.9;-42.9;-;-;-;-;-;-;-;-;-
1531156008782;-;-;-0.36883304;0.8430469;9.575289;-0.050585877;0.020653144;0.013708234;14.55;57.45;-43.5;-;-;-;-;-;-;-;-;-
1531156008792;-;-;-0.3305127;0.87178713;9.64714;-0.08520697;-0.040066928;0.035546154;14.55;57.45;-43.5;-;-;-;-;-;-;-;-;-
1531156008802;-;-;-0.2682422;0.81909674;9.85311;-0.083609074;-0.0693617;0.024360878;13.650001;57.300003;-44.100002;-;-;-;-;-;-;-;-;-
1531156008813;-;-;-0.028740235;0.7185059;9.905801;-0.08201118;-0.06403538;0.0073166466;13.650001;57.300003;-44.100002;-;-;-;-;-;-;-;-;-
1531156008822;-;-;-0.014370117;0.8047266;10.054293;-0.08467434;-0.06190485;0.0057187495;14.1;57.600002;-42.9;-;-;-;-;-;-;-;-;-
1531156008832;-;-;-0.10538086;0.7759864;10.2315235;-0.088935405;-0.029946918;-0.021445494;14.1;57.600002;-42.9;-;-;-;-;-;-;-;-;-
1531156008843;-;-;-0.18681154;0.7951465;10.197993;-0.06283642;-0.016631113;-0.012390746;14.85;58.800003;-42.75;-;-;-;-;-;-;-;-;-
1531156008852;-;-;-0.27303225;0.71371585;10.054293;-0.033541646;0.010533132;-0.0182497;14.85;58.800003;-42.75;-;-;-;-;-;-;-;-;-
1531156008862;-;-;-0.25387207;0.78556645;10.207574;-0.033009015;0.0100005;-0.021445494;13.650001;58.350002;-43.65;-;-;-;-;-;-;-;-;-
1531156008873;-;-;-0.34488282;0.7951465;10.212363;-0.006377402;-0.0017174097;-0.023576023;13.650001;58.350002;-43.65;-;-;-;-;-;-;-;-;-
1531156008882;-;-;-0.32093263;0.7232959;10.245894;0.0042752423;-0.0033153063;-0.021978125;12.6;57.600002;-42.9;-;-;-;-;-;-;-;-;-
1531156008892;-;-;-0.32572266;0.6993457;10.159674;0.015993152;-0.023555333;-0.012390746;12.6;57.600002;-42.9;-;-;-;-;-;-;-;-;-
1531156008903;-;-;-0.37362307;0.68018556;9.977652;0.009601565;-0.02781639;-0.0129233785;13.650001;57.600002;-42.9;-;-;-;-;-;-;-;-;-
1531156008912;-;-;-0.2203418;0.7185059;9.982442;0.0016120812;-0.011837422;-0.017717067;13.650001;57.600002;-42.9;-;-;-;-;-;-;-;-;-
1531156008922;-;-;-0.20118165;0.68976563;10.044712;-0.006377402;-0.0011847775;-0.0065317918;14.1;57.600002;-43.65;-;-;-;-;-;-;-;-;-
1531156008933;-;-;-0.119750984;0.7232959;9.915381;-0.028215323;0.03929527;-0.041685518;14.1;57.600002;-43.65;-;-;-;-;-;-;-;-;-
1531156008943;-;-;-0.05269043;0.7424561;9.7812605;-0.061771154;0.027577361;-0.050207634;13.650001;57.300003;-42.45;-;-;-;-;-;-;-;-;-
1531156008954;-;-;-0.009580079;0.8095166;9.666299;-0.08201118;0.033436317;-0.0842961;13.650001;57.300003;-42.45;-;-;-;-;-;-;-;-;-
1531156008964;-;-;0.023950197;0.8047266;9.70941;-0.10917543;0.032903686;-0.10293823;14.55;58.800003;-41.850002;-;-;-;-;-;-;-;-;-
1531156008974;-;-;-0.11496094;0.81909674;9.977652;-0.10917543;0.047284756;-0.12371088;14.55;58.800003;-41.850002;-;-;-;-;-;-;-;-;-
1531156008984;-;-;-0.23950197;0.6658155;10.207574;-0.0841417;0.09788482;-0.13596143;12.6;58.95;-42.9;-;-;-;-;-;-;-;-;-
1531156008994;-;-;-0.39278322;0.68018556;10.269844;-0.051118508;0.11812484;-0.12850457;12.6;58.95;-42.9;-;-;-;-;-;-;-;-;-
1531156009005;-;-;-0.4023633;0.7089258;9.958491;-0.04046525;0.11652564;-0.11306146;13.35;58.350002;-41.7;-;-;-;-;-;-;-;-;-
1531156009014;-;-;-0.5460645;0.6322852;9.74773;-0.058574747;0.11119932;-0.08163615;13.35;58.350002;-41.7;-;-;-;-;-;-;-;-;-
1531156009024;-;-;-0.5221143;0.6610254;9.934542;-0.07402108;0.080839284;-0.06565718;14.700001;58.350002;-43.65;-;-;-;-;-;-;-;-;-
1531156009034;-;-;-0.5029541;0.5460645;10.178833;-0.058574747;0.039826605;-0.041688737;14.700001;58.350002;-43.65;-;-;-;-;-;-;-;-;-
1531156009045;-;-;-0.6227051;0.43589357;10.174044;-0.042063147;0.007868671;-0.026242403;13.950001;57.750004;-41.850002;-;-;-;-;-;-;-;-;-
1531156009055;-;-;-0.5412744;0.48379397;10.226734;-0.014898903;-0.036339805;-0.0038718502;13.950001;57.750004;-41.850002;-;-;-;-;-;-;-;-;-
1531156009065;-;-;-0.5556446;0.5460645;10.308165;0.013330606;-0.056047197;0.014237644;14.55;58.500004;-44.7;-;-;-;-;-;-;-;-;-
1531156009076;-;-;-0.4406836;0.5508545;10.265054;0.05061486;-0.07522196;0.025955554;14.55;58.500004;-44.7;-;-;-;-;-;-;-;-;-
1531156009086;-;-;-0.38320315;0.5221143;10.174044;0.07884437;-0.06883037;0.039271362;13.200001;57.750004;-42.75;-;-;-;-;-;-;-;-;-
1531156009096;-;-;-0.20118165;0.5460645;9.81958;0.082572795;-0.022491368;0.038206097;13.200001;57.750004;-42.75;-;-;-;-;-;-;-;-;-
1531156009107;-;-;-0.26345217;0.6706055;9.417217;0.05700645;0.049413987;0.034477673;14.85;59.100002;-42.300003;-;-;-;-;-;-;-;-;-
1531156009117;-;-;-0.42152345;0.6322852;9.465117;-0.006376787;0.054207675;0.04406505;14.85;59.100002;-42.300003;-;-;-;-;-;-;-;-;-
1531156009127;-;-;-0.35925296;0.6466553;9.560919;-0.042595778;0.06219716;0.047260843;13.500001;58.050003;-43.95;-;-;-;-;-;-;-;-;-
1531156009137;-;-;-0.27303225;0.6466553;9.651929;-0.06177054;0.03130449;0.059511386;13.500001;58.050003;-43.95;-;-;-;-;-;-;-;-;-
1531156009148;-;-;-0.1580713;0.6179151;9.718989;-0.0660316;0.0099992;0.05738086;12.900001;58.500004;-41.850002;-;-;-;-;-;-;-;-;-
1531156009157;-;-;-0.100590825;0.728086;9.79563;-0.076684244;-0.019828206;0.037673466;12.900001;58.500004;-41.850002;-;-;-;-;-;-;-;-;-
1531156009167;-;-;-0.047900394;0.68018556;9.7812605;-0.082543194;-0.036872435;0.0200966;13.200001;58.050003;-43.95;-;-;-;-;-;-;-;-;-
1531156009177;-;-;-0.086220704;0.6227051;9.996812;-0.08627162;-0.034209274;-6.7605695E-4;13.200001;58.050003;-43.95;-;-;-;-;-;-;-;-;-
1531156009188;-;-;-0.09580079;0.60354495;10.174044;-0.05964001;-1.20813376E-4;-0.019318186;14.700001;59.7;-42.9;-;-;-;-;-;-;-;-;-
1531156009197;-;-;-0.15328126;0.64186525;10.154883;-0.05484632;0.026510797;-0.025709772;14.700001;59.7;-42.9;-;-;-;-;-;-;-;-;-
1531156009207;-;-;-0.32572266;0.613125;10.025552;-0.036204193;0.07764349;-0.028905565;13.950001;57.45;-45.15;-;-;-;-;-;-;-;-;-
1531156009217;-;-;-0.4263135;0.57001466;9.910591;-0.030345239;0.07924139;-0.017187657;13.950001;57.45;-45.15;-;-;-;-;-;-;-;-;-
1531156009228;-;-;-0.45505372;0.5939649;10.020762;-0.030345239;0.06752348;-0.0081329085;13.35;58.95;-41.7;-;-;-;-;-;-;-;-;-
1531156009237;-;-;-0.43589357;0.5939649;10.087823;-0.026616812;0.027576061;0.0062481617;13.35;58.95;-41.7;-;-;-;-;-;-;-;-;-
1531156009247;-;-;-0.4263135;0.6562354;9.953702;-0.004246258;-0.0065124;0.023292392;14.85;58.800003;-43.050003;-;-;-;-;-;-;-;-;-
1531156009257;-;-;-0.46463382;0.613125;9.992022;0.019189559;-0.02781769;0.013172381;14.85;58.800003;-43.050003;-;-;-;-;-;-;-;-;-
1531156009268;-;-;-0.364043;0.5891748;9.924961;0.012265341;-0.048057713;0.012107116;14.85;58.800003;-42.75;-;-;-;-;-;-;-;-;-
1531156009277;-;-;-0.23950197;0.6706055;9.920172;0.012265341;-0.04752508;0.00571553;14.85;58.800003;-42.75;-;-;-;-;-;-;-;-;-
1531156009288;-;-;-0.2682422;0.613125;9.74773;-5.178325E-4;-0.01609978;-0.0049371147;14.400001;58.95;-44.550003;-;-;-;-;-;-;-;-;-
1531156009300;-;-;-0.2682422;0.60833496;9.656719;-0.03726946;-0.008110297;-0.003339218;14.400001;58.95;-44.550003;-;-;-;-;-;-;-;-;-
1531156009309;-;-;-0.25866213;0.6227051;10.217154;-0.04738947;0.01745605;-0.006002379;15.3;58.800003;-44.25;-;-;-;-;-;-;-;-;-
1531156009319;-;-;-0.4023633;0.60833496;10.370435;-0.012235741;0.028641326;3.892075E-4;15.3;58.800003;-44.25;-;-;-;-;-;-;-;-;-
1531156009329;-;-;-0.34488282;0.6610254;10.423125;0.04582117;0.015858153;0.004117633;14.250001;57.45;-43.050003;-;-;-;-;-;-;-;-;-
1531156009339;-;-;-0.3784131;0.63707525;10.442286;0.07298542;-0.0017187101;0.0094439555;14.250001;57.45;-43.050003;-;-;-;-;-;-;-;-;-
1531156009350;-;-;-0.42152345;0.57001466;10.083033;0.097486496;-0.014501884;0.021694496;15.150001;57.9;-41.25;-;-;-;-;-;-;-;-;-
1531156009360;-;-;-0.364043;0.6514453;9.85311;0.10014966;-0.009708193;0.028086083;13.950001;57.750004;-41.100002;-;-;-;-;-;-;-;-;-
1531156009370;-;-;-0.28261232;0.6514453;9.599238;0.051680125;-0.029415587;0.024357658;13.950001;57.750004;-41.100002;-;-;-;-;-;-;-;-;-
1531156009381;-;-;-0.32093263;0.67539555;9.5561285;0.018656928;-0.032078747;0.028086083;14.1;59.4;-42.15;-;-;-;-;-;-;-;-;-
1531156009390;-;-;-0.35925296;0.6514453;9.627979;-0.024486283;-0.054981932;0.015835542;14.1;59.4;-42.15;-;-;-;-;-;-;-;-;-
1531156009400;-;-;-0.40715334;0.5891748;9.642349;-0.04046525;-0.045927186;0.017966071;12.450001;57.750004;-45.600002;-;-;-;-;-;-;-;-;-
1531156009410;-;-;-0.34967285;0.6849756;9.7621;-0.07295582;-0.060308255;0.012107116;12.450001;57.750004;-45.600002;-;-;-;-;-;-;-;-;-
1531156009421;-;-;-0.27303225;0.68018556;9.857901;-0.092663206;-0.04539455;0.011041852;12.900001;57.45;-43.050003;-;-;-;-;-;-;-;-;-
1531156009431;-;-;0.1341211;0.67539555;10.169253;-0.07988004;0.030771853;-0.021448715;12.900001;57.45;-43.050003;-;-;-;-;-;-;-;-;-
1531156009441;-;-;0.13891114;0.6466553;10.097403;-0.08307583;0.059534;-0.04967822;15.150001;58.95;-44.100002;-;-;-;-;-;-;-;-;-
1531156009452;-;-;-0.009580079;0.6514453;10.207574;-0.062835805;0.090959296;-0.0922888;15.150001;58.95;-44.100002;-;-;-;-;-;-;-;-;-
1531156009461;-;-;-0.19639161;0.60833496;10.202784;-0.05484632;0.082969815;-0.09654985;15.150001;58.350002;-41.25;-;-;-;-;-;-;-;-;-
1531156009471;-;-;-0.43589357;0.6514453;10.150093;-0.007974683;0.029173959;-0.0757772;15.150001;58.350002;-41.25;-;-;-;-;-;-;-;-;-
1531156009482;-;-;-0.43589357;0.5939649;10.241104;0.015993766;-0.011838722;-0.05660244;14.700001;58.65;-43.350002;-;-;-;-;-;-;-;-;-
1531156009492;-;-;-0.43589357;0.5843848;10.078242;0.06393067;-0.0070450325;-0.030503461;14.700001;58.65;-43.350002;-;-;-;-;-;-;-;-;-
1531156009502;-;-;-0.38320315;0.5987549;9.982442;0.06979115;-0.015037767;-0.026783084;13.200001;58.500004;-42.300003;-;-;-;-;-;-;-;-;-
1531156009512;-;-;-0.2778223;0.5939649;9.829161;0.05327956;0.008398051;-0.01613044;13.200001;58.500004;-42.300003;-;-;-;-;-;-;-;-;-
1531156009523;-;-;-0.15328126;0.57959473;9.656719;0.022919524;0.03449703;-0.021989394;13.05;58.95;-43.350002;-;-;-;-;-;-;-;-;-
1531156009533;-;-;-0.1341211;0.6562354;9.704619;-0.014897365;0.0488781;-0.037968364;13.05;58.95;-43.350002;-;-;-;-;-;-;-;-;-
1531156009543;-;-;-0.2682422;0.6706055;9.829161;-0.03513739;0.069650754;-0.04702311;14.1;59.4;-42.45;-;-;-;-;-;-;-;-;-
1531156009553;-;-;-0.2682422;0.5939649;9.934542;-0.036202654;0.065922335;-0.048621006;14.1;59.4;-42.45;-;-;-;-;-;-;-;-;-
1531156009564;-;-;-0.33530274;0.51732427;9.8866415;-0.01862579;0.037692823;-0.04063152;14.55;58.500004;-42.75;-;-;-;-;-;-;-;-;-
1531156009573;-;-;-0.39757326;0.56522465;9.972861;0.0042773956;-0.004385122;-0.038500994;14.55;58.500004;-42.75;-;-;-;-;-;-;-;-;-
1531156009583;-;-;-0.4167334;0.52690434;10.025552;0.022386892;-0.011841973;-0.026783084;13.500001;58.500004;-43.050003;-;-;-;-;-;-;-;-;-
1531156009593;-;-;-0.41194338;0.48379397;9.843531;0.02185426;-0.03527779;-0.013999912;13.500001;58.500004;-43.050003;-;-;-;-;-;-;-;-;-
1531156009604;-;-;-0.45984375;0.5556446;9.74773;0.013332143;-0.028353572;-0.0108041195;14.250001;58.050003;-43.5;-;-;-;-;-;-;-;-;-
1531156009613;-;-;-0.4023633;0.44547364;9.843531;-0.0053099846;-0.027288308;0.00570748;14.250001;58.050003;-43.5;-;-;-;-;-;-;-;-;-
1531156009623;-;-;-0.33530274;0.46942386;9.766891;-0.0021141912;-0.0022545932;0.008903273;13.35;58.65;-43.65;-;-;-;-;-;-;-;-;-
1531156009633;-;-;-0.32093263;0.46463382;9.666299;-0.034604758;0.019050695;0.011033802;13.35;58.65;-43.65;-;-;-;-;-;-;-;-;-
1531156009644;-;-;-0.26345217;0.6227051;9.632769;-0.06549743;0.031301238;-0.004412532;13.500001;58.050003;-42.300003;-;-;-;-;-;-;-;-;-
1531156009655;-;-;-0.17244141;0.6179151;9.517808;-0.10757538;0.047280204;-0.019858867;13.500001;58.050003;-42.300003;-;-;-;-;-;-;-;-;-
1531156009665;-;-;-0.24908204;0.5748047;9.498648;-0.15497963;0.02704018;-0.029978879;13.500001;58.800003;-44.25;-;-;-;-;-;-;-;-;-
1531156009674;-;-;-0.32093263;0.5364844;9.72378;-0.18161125;-0.0022545932;-0.038500994;13.500001;58.800003;-44.25;-;-;-;-;-;-;-;-;-
1531156009684;-;-;-0.24908204;0.5556446;10.0063925;-0.1741544;-0.014505135;-0.04489258;13.200001;58.500004;-43.5;-;-;-;-;-;-;-;-;-
1531156009695;-;-;-0.244292;0.613125;10.3512745;-0.13260908;-0.012374606;-0.04063152;13.200001;58.500004;-43.5;-;-;-;-;-;-;-;-;-
1531156009704;-;-;-0.2778223;0.5843848;10.480606;-0.08893325;9.412003E-4;-0.051284168;12.900001;58.050003;-43.5;-;-;-;-;-;-;-;-;-
1531156009714;-;-;-0.4263135;0.4742139;10.236314;-0.048985828;0.0020064646;-0.052349433;12.900001;58.050003;-43.5;-;-;-;-;-;-;-;-;-
1531156009724;-;-;-0.43110353;0.613125;10.078242;-0.035670023;0.0036043613;-0.043294683;15.3;58.500004;-42.75;-;-;-;-;-;-;-;-;-
1531156009735;-;-;-0.46463382;0.5412744;9.992022;-0.030876331;0.004669626;-0.031044142;15.3;58.500004;-42.75;-;-;-;-;-;-;-;-;-
1531156009746;-;-;-0.3784131;0.53169435;9.987232;-0.034604758;0.0036043613;-0.0070756935;14.1;59.4;-42.45;-;-;-;-;-;-;-;-;-
1531156009755;-;-;-0.32572266;0.44547364;9.948912;-0.035670023;0.015854903;-0.02092413;14.1;59.4;-42.45;-;-;-;-;-;-;-;-;-
1531156009766;-;-;-0.364043;0.4981641;10.116563;-0.039931078;0.014257006;-0.021989394;13.950001;58.500004;-41.100002;-;-;-;-;-;-;-;-;-
1531156009775;-;-;-0.53169435;0.51732427;10.039923;-0.0122342035;0.008398051;-0.0028146354;13.950001;58.500004;-41.100002;-;-;-;-;-;-;-;-;-
1531156009786;-;-;-0.49337405;0.5604346;10.078242;-0.006375249;-0.0038524899;0.006240112;13.05;58.95;-43.65;-;-;-;-;-;-;-;-;-
1531156009795;-;-;-0.37362307;0.5939649;9.982442;-0.001581559;-0.026223043;9.137902E-4;13.05;58.95;-43.65;-;-;-;-;-;-;-;-;-
1531156009806;-;-;-0.34967285;0.488584;10.083033;-0.00424472;-0.03474516;-0.011336751;14.1;58.350002;-45.0;-;-;-;-;-;-;-;-;-
1531156009816;-;-;-0.34488282;0.49337405;10.245894;1.6337668E-5;-0.033679895;-0.02305466;14.1;58.350002;-45.0;-;-;-;-;-;-;-;-;-
1531156009827;-;-;-0.30177248;0.44547364;10.183623;-0.008505778;-6.566964E-4;-0.025717821;12.450001;59.550003;-43.5;-;-;-;-;-;-;-;-;-
1531156009837;-;-;-0.43110353;0.42152345;10.178833;-0.029278435;0.029170709;-0.029978879;12.450001;59.550003;-43.5;-;-;-;-;-;-;-;-;-
1531156009848;-;-;-0.5508545;0.47900394;10.269844;-0.034072123;0.042486515;-0.009206222;13.650001;59.4;-42.45;-;-;-;-;-;-;-;-;-
1531156009858;-;-;-0.68976563;0.4263135;10.274634;-0.014897365;0.06059601;0.008370641;13.650001;59.4;-42.45;-;-;-;-;-;-;-;-;-
1531156009869;-;-;-0.46942386;0.43589357;10.236314;0.016527936;0.038758088;0.017958023;13.05;60.000004;-43.350002;-;-;-;-;-;-;-;-;-
1531156009878;-;-;-0.3879932;0.38320315;10.126143;0.035170063;0.028105443;0.022751711;13.05;60.000004;-43.350002;-;-;-;-;-;-;-;-;-
1531156009889;-;-;-0.2921924;0.49337405;9.972861;0.049018502;0.017452799;0.011033802;14.85;58.800003;-43.050003;-;-;-;-;-;-;-;-;-
1531156009898;-;-;-0.23471193;0.50774413;9.939331;0.05274693;0.012659109;0.01050117;14.85;58.800003;-43.050003;-;-;-;-;-;-;-;-;-
1531156009909;-;-;-0.2778223;0.4981641;9.8866415;0.036767963;9.412003E-4;0.008903273;14.1;57.9;-43.65;-;-;-;-;-;-;-;-;-
1531156009919;-;-;-0.2921924;0.47900394;9.800421;0.035702698;0.020648593;0.01050117;13.950001;57.45;-42.75;-;-;-;-;-;-;-;-;-
1531156009930;-;-;-0.32572266;0.51732427;9.80521;0.01013635;0.021181226;0.020088552;13.950001;57.45;-42.75;-;-;-;-;-;-;-;-;-
1531156009940;-;-;-0.28261232;0.53169435;9.7142;-0.0037120879;0.023311753;0.019023286;13.200001;58.800003;-43.95;-;-;-;-;-;-;-;-;-
1531156009949;-;-;-0.16286133;0.5556446;9.867481;-0.0031794556;0.028105443;0.019023286;13.200001;58.800003;-43.95;-;-;-;-;-;-;-;-;-
1531156009960;-;-;-0.07185059;0.51732427;9.924961;-0.009571042;0.021181226;-1.5147426E-4;13.35;59.7;-43.350002;-;-;-;-;-;-;-;-;-
1531156009969;-;-;-0.19639161;0.53169435;9.85311;-0.015962629;0.030235972;-0.017195705;13.35;59.7;-43.350002;-;-;-;-;-;-;-;-;-
1531156009979;-;-;-0.22513184;0.5604346;9.85311;-0.034072123;0.033431765;-0.02092413;13.05;58.95;-43.350002;-;-;-;-;-;-;-;-;-
1531156009990;-;-;-0.39278322;0.46463382;9.953702;-0.028745802;0.040355984;-0.022522027;13.05;58.95;-43.350002;-;-;-;-;-;-;-;-;-
1531156009999;-;-;-0.43110353;0.39757326;9.939331;-0.03300686;0.05154126;-0.012402016;14.85;59.850002;-43.050003;-;-;-;-;-;-;-;-;-
1531156010009;-;-;-0.38320315;0.364043;9.872271;-0.018622715;0.04407791;-0.0086896885;14.85;59.850002;-43.050003;-;-;-;-;-;-;-;-;-
1531156010020;-;-;-0.40715334;0.4167334;9.953702;-0.0031763797;0.049936865;0.005691381;14.400001;58.95;-42.45;-;-;-;-;-;-;-;-;-
1531156010030;-;-;-0.3544629;0.4742139;9.972861;0.012802587;0.022239987;0.006224013;14.400001;58.95;-42.45;-;-;-;-;-;-;-;-;-
1531156010041;-;-;-0.44547364;0.46942386;9.977652;0.0074762646;-0.0086526815;0.005691381;14.700001;58.65;-43.350002;-;-;-;-;-;-;-;-;-
1531156010051;-;-;-0.45026368;0.4406836;10.035132;0.026651025;-0.04220851;0.016876658;14.700001;58.65;-43.350002;-;-;-;-;-;-;-;-;-
1531156010062;-;-;-0.4023633;0.48379397;10.140513;0.0394342;-0.040610615;0.020072453;13.950001;58.800003;-45.15;-;-;-;-;-;-;-;-;-
1531156010071;-;-;-0.36883304;0.4023633;10.039923;0.050086845;-0.036349557;0.022735612;13.950001;58.800003;-45.15;-;-;-;-;-;-;-;-;-
1531156010082;-;-;-0.39278322;0.5364844;9.833951;0.04422789;-0.021968488;0.009419807;13.500001;58.500004;-43.5;-;-;-;-;-;-;-;-;-
1531156010091;-;-;-0.32093263;0.45026368;9.766891;1.9413594E-5;0.004130492;0.0067566456;13.500001;58.500004;-43.5;-;-;-;-;-;-;-;-;-
1531156010102;-;-;-0.34488282;0.4981641;9.690249;-0.03247115;0.032360002;0.009419807;13.650001;58.65;-43.350002;-;-;-;-;-;-;-;-;-
1531156010112;-;-;-0.38320315;0.5364844;9.78605;-0.06709225;0.026501045;0.010485071;13.650001;58.65;-43.350002;-;-;-;-;-;-;-;-;-
1531156010123;-;-;-0.46942386;0.53169435;9.987232;-0.07241857;0.013717872;0.009419807;15.3;59.100002;-41.850002;-;-;-;-;-;-;-;-;-
1531156010132;-;-;-0.41194338;0.488584;10.140513;-0.045254324;-0.009185313;0.016344028;15.3;59.100002;-41.850002;-;-;-;-;-;-;-;-;-
1531156010143;-;-;-0.32572266;0.5891748;10.188414;-0.021285877;-0.023033753;0.014746129;14.400001;57.9;-42.9;-;-;-;-;-;-;-;-;-
1531156010154;-;-;-0.3784131;0.488584;10.039923;-0.0031763797;-0.02942534;0.0046261167;14.400001;57.9;-42.9;-;-;-;-;-;-;-;-;-
1531156010163;-;-;-0.36883304;0.52690434;9.872271;-0.0063721733;-0.026762178;-1.6757322E-4;14.250001;58.500004;-42.300003;-;-;-;-;-;-;-;-;-
1531156010174;-;-;-0.39757326;0.5843848;9.872271;-0.025014302;-0.02942534;0.0024955878;14.250001;58.500004;-42.300003;-;-;-;-;-;-;-;-;-
1531156010184;-;-;-0.44547364;0.51732427;9.944121;-0.04631959;-0.031023236;3.65059E-4;14.250001;59.550003;-42.75;-;-;-;-;-;-;-;-;-
1531156010194;-;-;-0.364043;0.46463382;10.135723;-0.054309074;-0.009717946;-0.004428631;14.250001;59.550003;-42.75;-;-;-;-;-;-;-;-;-
1531156010205;-;-;-0.3879932;0.48379397;10.245894;-0.043656427;4.0206627E-4;0.0014303235;13.35;58.350002;-42.9;-;-;-;-;-;-;-;-;-
1531156010215;-;-;-0.3784131;0.43110353;10.360855;-0.029807992;-0.0011958304;0.00302822;13.35;58.350002;-42.9;-;-;-;-;-;-;-;-;-
1531156010226;-;-;-0.45984375;0.5508545;10.236314;0.0026825748;0.0067936527;0.008354542;15.450001;59.7;-42.9;-;-;-;-;-;-;-;-;-
1531156010236;-;-;-0.45026368;0.48379397;10.159674;0.024520496;0.013185239;0.015811395;15.450001;59.7;-42.9;-;-;-;-;-;-;-;-;-
1531156010247;-;-;-0.46463382;0.4167334;10.135723;0.03410788;-0.0017284626;0.005691381;14.400001;59.4;-42.15;-;-;-;-;-;-;-;-;-
1531156010258;-;-;-0.4023633;0.4742139;9.977652;0.023987863;-0.00812005;0.013148232;14.400001;59.4;-42.15;-;-;-;-;-;-;-;-;-
1531156010267;-;-;-0.39278322;0.51732427;9.948912;0.020259438;-0.0038589914;8.9769124E-4;14.1;59.4;-41.7;-;-;-;-;-;-;-;-;-
1531156010277;-;-;-0.364043;0.47900394;10.015972;0.009074162;-0.0155769;0.016876658;14.1;59.4;-41.7;-;-;-;-;-;-;-;-;-
1531156010288;-;-;-0.33530274;0.5029541;10.049502;0.017596276;-0.021435855;0.015278761;13.950001;60.15;-42.300003;-;-;-;-;-;-;-;-;-
1531156010298;-;-;-0.32093263;0.5125342;9.939331;0.010139426;-0.019837959;0.021137716;13.35;58.350002;-43.350002;-;-;-;-;-;-;-;-;-
1531156010308;-;-;-0.27303225;0.5412744;9.75252;-0.010100598;-0.0065221526;8.9769124E-4;13.35;58.350002;-43.350002;-;-;-;-;-;-;-;-;-
1531156010319;-;-;-0.26345217;0.5460645;9.72857;-0.021285877;-0.011848475;-0.009222321;14.250001;59.100002;-42.300003;-;-;-;-;-;-;-;-;-
1531156010329;-;-;-0.2921924;0.4406836;9.987232;-0.047917485;0.001999963;-0.009754953;14.250001;59.100002;-42.300003;-;-;-;-;-;-;-;-;-
1531156010340;-;-;-0.3065625;0.4167334;10.083033;-0.033536416;4.0206627E-4;-0.004428631;13.05;58.350002;-43.65;-;-;-;-;-;-;-;-;-
1531156010349;-;-;-0.3305127;0.45026368;10.178833;-0.0063721733;0.0158484;-0.0076244245;13.05;58.350002;-43.65;-;-;-;-;-;-;-;-;-
1531156010359;-;-;-0.3544629;0.53169435;10.130933;0.0037478392;0.011587343;-0.010820218;13.05;58.65;-43.350002;-;-;-;-;-;-;-;-;-
1531156010370;-;-;-0.29698244;0.4981641;9.996812;0.012802587;0.013717872;-0.008157057;13.05;58.65;-43.350002;-;-;-;-;-;-;-;-;-
1531156010380;-;-;-0.29698244;0.4023633;9.992022;0.011204691;-0.002793727;-0.008157057;14.400001;56.550003;-42.9;-;-;-;-;-;-;-;-;-
1531156010391;-;-;-0.28740236;0.46942386;9.958491;0.005878368;-0.0017284626;-0.014016011;14.400001;56.550003;-42.9;-;-;-;-;-;-;-;-;-
1531156010400;-;-;-0.3161426;0.4167334;10.030342;0.013867852;-0.004924256;-0.0145486435;14.400001;59.4;-41.7;-;-;-;-;-;-;-;-;-
1531156010410;-;-;-0.4263135;0.40715334;9.929751;0.012269955;-0.009185313;-0.016679171;14.400001;59.4;-41.7;-;-;-;-;-;-;-;-;-
1531156010421;-;-;-0.38320315;0.43589357;9.857901;0.014933116;0.0014673307;-0.009754953;14.55;59.100002;-42.300003;-;-;-;-;-;-;-;-;-
1531156010430;-;-;-0.36883304;0.4406836;9.843531;0.01599838;0.0067936527;8.9769124E-4;14.55;59.100002;-42.300003;-;-;-;-;-;-;-;-;-
1531156010441;-;-;-0.4167334;0.39278322;9.977652;0.013867852;-0.0022610947;0.0046261167;15.450001;59.4;-42.45;-;-;-;-;-;-;-;-;-
1531156010451;-;-;-0.34009278;0.4742139;9.977652;0.01812891;-0.026229545;0.008887175;15.450001;59.4;-42.45;-;-;-;-;-;-;-;-;-
1531156010460;-;-;-0.29698244;0.46463382;10.001602;0.020259438;-0.023566386;0.015811395;13.05;59.7;-43.350002;-;-;-;-;-;-;-;-;-
1531156010471;-;-;-0.32572266;0.43589357;10.059082;0.03037945;-0.012381108;-0.0022981022;13.05;59.7;-43.350002;-;-;-;-;-;-;-;-;-
1531156010480;-;-;-0.2921924;0.3879932;9.944121;0.020259438;-0.0038589914;-1.6757322E-4;15.450001;59.4;-42.45;-;-;-;-;-;-;-;-;-
1531156010490;-;-;-0.3879932;0.40715334;9.79084;0.02345523;0.0057283887;-0.006026528;15.450001;59.4;-42.45;-;-;-;-;-;-;-;-;-
1531156010501;-;-;-0.45026368;0.42152345;9.833951;0.0154657485;0.0057283887;0.00302822;14.700001;58.65;-42.9;-;-;-;-;-;-;-;-;-
1531156010511;-;-;-0.45026368;0.42152345;9.833951;0.0154657485;0.0057283887;0.00302822;14.700001;58.65;-42.9;-;-;-;-;-;-;-;-;-
1531156010522;-;-;-0.37362307;0.5029541;9.901011;-0.009110983;-0.010714899;0.0045004482;13.500001;59.100002;-44.25;-;-;-;-;-;-;-;-;-
1531156010533;-;-;-0.32093263;0.3784131;9.996812;-5.888677E-4;-0.0011275184;-0.0024237707;13.500001;59.100002;-44.25;-;-;-;-;-;-;-;-;-
1531156010542;-;-;-0.46463382;0.45505372;9.992022;0.0020742933;-0.0043233116;0.0045004482;14.1;60.000004;-41.25;-;-;-;-;-;-;-;-;-
1531156010554;-;-;-0.42152345;0.4263135;9.8866415;0.018585894;-0.011247531;0.014087827;14.1;60.000004;-41.25;-;-;-;-;-;-;-;-;-
1531156010563;-;-;-0.43589357;0.4167334;9.79563;0.007933248;-0.026161233;0.022077313;13.950001;57.750004;-41.850002;-;-;-;-;-;-;-;-;-
1531156010574;-;-;-0.4263135;0.51732427;9.704619;-0.0011214999;-0.022432808;0.015685726;13.950001;57.750004;-41.850002;-;-;-;-;-;-;-;-;-
1531156010584;-;-;-0.3544629;0.49337405;9.685459;-0.021894157;-0.026161233;0.0060983445;15.450001;58.95;-42.45;-;-;-;-;-;-;-;-;-
1531156010594;-;-;-0.27303225;0.45026368;9.77168;-0.05651525;-0.028291762;-0.007750093;15.450001;58.95;-42.45;-;-;-;-;-;-;-;-;-
1531156010604;-;-;-0.23471193;0.488584;9.992022;-0.07409211;-0.036281247;-0.013609048;13.950001;59.100002;-43.050003;-;-;-;-;-;-;-;-;-
1531156010614;-;-;-0.47900394;0.4023633;10.174044;-0.071428955;-0.027759131;-0.023196427;13.950001;59.100002;-43.050003;-;-;-;-;-;-;-;-;-
1531156010624;-;-;-0.5939649;0.28740236;10.341695;-0.060243677;-0.027226498;-0.013609048;13.650001;59.4;-42.9;-;-;-;-;-;-;-;-;-
1531156010634;-;-;-0.6179151;0.32093263;10.375225;-0.030948903;-0.020834912;0.017816255;13.650001;59.4;-42.9;-;-;-;-;-;-;-;-;-
1531156010644;-;-;-0.57001466;0.3544629;10.245894;-0.0043172934;-0.005388576;0.030599428;14.55;59.550003;-41.850002;-;-;-;-;-;-;-;-;-
1531156010655;-;-;-0.5460645;0.38320315;10.202784;0.007933248;0.010057759;0.044447865;14.55;59.550003;-41.850002;-;-;-;-;-;-;-;-;-
1531156010665;-;-;-0.44547364;0.4023633;10.078242;0.012726937;0.013786184;0.048708923;14.1;58.95;-42.45;-;-;-;-;-;-;-;-;-
1531156010676;-;-;-0.3161426;0.5125342;9.948912;0.02018379;-0.0064538405;0.04125207;14.1;58.95;-42.45;-;-;-;-;-;-;-;-;-
1531156010685;-;-;-0.33530274;0.5508545;9.944121;0.013792203;0.009525126;0.025273105;13.500001;58.500004;-42.300003;-;-;-;-;-;-;-;-;-
1531156010696;-;-;-0.30177248;0.5221143;9.901011;0.009531145;-0.0133780595;0.0433826;13.500001;58.500004;-42.300003;-;-;-;-;-;-;-;-;-
1531156010706;-;-;-0.3305127;0.50774413;9.987232;0.0015416612;-0.0421402;0.038588908;14.400001;58.350002;-41.7;-;-;-;-;-;-;-;-;-
1531156010717;-;-;-0.28261232;0.5412744;10.0063925;-5.888677E-4;-0.055456005;0.025273105;14.400001;58.350002;-41.7;-;-;-;-;-;-;-;-;-
1531156010726;-;-;-0.3065625;0.5748047;9.982442;-0.0069804545;-0.03894441;0.022077313;13.950001;58.500004;-43.95;-;-;-;-;-;-;-;-;-
1531156010737;-;-;-0.19160157;0.48379397;9.992022;-0.008045719;-0.01817175;0.01462046;13.950001;58.500004;-43.95;-;-;-;-;-;-;-;-;-
1531156010746;-;-;-0.1820215;0.5508545;9.924961;-0.0176331;0.021243036;7.720225E-4;14.700001;60.000004;-43.350002;-;-;-;-;-;-;-;-;-
1531156010757;-;-;-0.26345217;0.5412744;9.877061;-0.029351007;0.02710199;-0.013609048;13.950001;58.800003;-41.850002;-;-;-;-;-;-;-;-;-
1531156010766;-;-;-0.38320315;0.5125342;9.972861;-0.024557317;0.01538408;0.001837287;13.950001;58.800003;-41.850002;-;-;-;-;-;-;-;-;-
1531156010776;-;-;-0.29698244;0.45026368;10.135723;-0.025622582;-0.009117002;7.720225E-4;13.950001;58.800003;-41.850002;-;-;-;-;-;-;-;-;-
1531156010787;-;-;-0.24908204;0.46942386;10.150093;-0.009643615;-0.027759131;0.00982677;14.1;58.95;-42.9;-;-;-;-;-;-;-;-;-
1531156010796;-;-;-0.28261232;0.46942386;10.154883;0.008998512;-0.021900175;0.009294138;14.1;58.95;-42.9;-;-;-;-;-;-;-;-;-
1531156010807;-;-;-0.30177248;0.5460645;9.963282;0.020716421;-0.0032580472;0.001837287;14.1;58.350002;-43.350002;-;-;-;-;-;-;-;-;-
1531156010816;-;-;-0.35925296;0.53169435;9.915381;0.022846952;-0.009117002;0.0076962416;14.1;58.350002;-43.350002;-;-;-;-;-;-;-;-;-
1531156010826;-;-;-0.3065625;0.46942386;9.800421;0.0042048222;0.013786184;-0.005086932;15.450001;58.95;-43.350002;-;-;-;-;-;-;-;-;-
1531156010837;-;-;-0.28261232;0.5029541;9.642349;-0.024557317;0.0223083;-0.015206945;15.450001;58.95;-43.350002;-;-;-;-;-;-;-;-;-
1531156010846;-;-;-0.34009278;0.42152345;9.800421;-0.0490584;0.028167253;-0.019468002;15.150001;58.65;-42.45;-;-;-;-;-;-;-;-;-
1531156010857;-;-;-0.4023633;0.50774413;9.948912;-0.055449985;0.02710199;-0.024794323;14.400001;57.600002;-45.0;-;-;-;-;-;-;-;-;-
1531156010867;-;-;-0.4167334;0.40715334;10.126143;-0.05385209;0.01059039;-0.015206945;14.400001;57.600002;-45.0;-;-;-;-;-;-;-;-;-
1531156010877;-;-;-0.43589357;0.364043;10.121353;-0.052786827;-0.0043233116;-0.00934799;13.05;57.600002;-42.9;-;-;-;-;-;-;-;-;-
1531156010887;-;-;-0.43110353;0.32572266;10.164463;-0.033612065;0.0057967007;-8.2587416E-4;13.05;57.600002;-42.9;-;-;-;-;-;-;-;-;-
1531156010898;-;-;-0.43589357;0.34009278;10.164463;-0.033079434;0.0031335396;0.0023699193;13.05;57.600002;-42.9;-;-;-;-;-;-;-;-;-
1531156010908;-;-;-0.44547364;0.3161426;10.255474;0.00367219;0.011655655;0.019946784;12.6;59.4;-39.600002;-;-;-;-;-;-;-;-;-
1531156010918;-;-;-0.50774413;0.364043;10.221944;0.028705906;-0.0043233116;0.034327853;13.500001;58.500004;-43.5;-;-;-;-;-;-;-;-;-
1531156010929;-;-;-0.4981641;0.32572266;10.193204;0.039891183;-0.007519105;0.031664692;13.500001;58.500004;-43.5;-;-;-;-;-;-;-;-;-
1531156010939;-;-;-0.33530274;0.43110353;9.987232;0.028173273;0.0052640685;0.03699101;13.650001;58.95;-41.7;-;-;-;-;-;-;-;-;-
1531156010950;-;-;-0.25866213;0.4263135;9.862691;0.02231432;0.004198804;0.024207842;13.650001;58.95;-41.7;-;-;-;-;-;-;-;-;-
1531156010960;-;-;-0.3161426;0.39757326;9.891431;0.02231432;0.008992493;0.03592575;13.950001;59.850002;-42.75;-;-;-;-;-;-;-;-;-
1531156010971;-;-;-0.41194338;0.3879932;9.857901;0.0042048222;0.0031335396;0.024207842;13.950001;59.850002;-42.75;-;-;-;-;-;-;-;-;-
1531156010980;-;-;-0.35925296;0.39278322;9.82437;-5.6235498E-5;0.0010030105;0.023142576;13.200001;59.100002;-42.75;-;-;-;-;-;-;-;-;-
1531156010991;-;-;-0.3544629;0.43110353;9.80521;-0.010176248;-0.009117002;0.023675209;13.200001;59.100002;-42.75;-;-;-;-;-;-;-;-;-
1531156011000;-;-;-0.3544629;0.43110353;9.75731;-0.031481534;-0.017639117;0.02633837;13.950001;58.800003;-41.850002;-;-;-;-;-;-;-;-;-
1531156011011;-;-;-0.27303225;0.39278322;9.73815;-0.03947025;-0.010183892;0.013018539;13.950001;58.800003;-41.850002;-;-;-;-;-;-;-;-;-
1531156011021;-;-;-0.2921924;0.3879932;9.857901;-0.049590264;-0.012314421;0.016746964;15.150001;59.4;-44.100002;-;-;-;-;-;-;-;-;-
1531156011032;-;-;-0.23471193;0.45984375;10.154883;-0.034676563;-0.013912317;0.003963791;15.150001;59.4;-44.100002;-;-;-;-;-;-;-;-;-
1531156011042;-;-;-0.28740236;0.364043;10.217154;-0.016567066;0.008990868;-0.0066888537;14.1;60.000004;-41.25;-;-;-;-;-;-;-;-;-
1531156011053;-;-;-0.29698244;0.41194338;10.217154;-0.008577582;0.02550247;0.0034311588;14.1;60.000004;-41.25;-;-;-;-;-;-;-;-;-
1531156011062;-;-;-0.37362307;0.27303225;10.236314;-0.0037838921;0.030828789;7.679977E-4;14.700001;59.4;-42.9;-;-;-;-;-;-;-;-;-
1531156011073;-;-;-0.364043;0.364043;10.025552;0.013260339;0.042014066;0.020475391;14.700001;59.4;-42.9;-;-;-;-;-;-;-;-;-
1531156011083;-;-;-0.43110353;0.41194338;9.958491;0.010064546;0.039350905;0.030595403;15.450001;59.4;-42.9;-;-;-;-;-;-;-;-;-
1531156011094;-;-;-0.23471193;0.3879932;9.833951;-0.0155018;0.05000355;0.024203816;15.450001;59.4;-42.9;-;-;-;-;-;-;-;-;-
1531156011104;-;-;-0.15328126;0.45984375;9.929751;-0.034676563;0.048405655;0.015149068;14.250001;59.100002;-41.550003;-;-;-;-;-;-;-;-;-
1531156011115;-;-;-0.12454102;0.39278322;10.015972;-0.042666044;0.046275124;-0.002960428;14.250001;59.100002;-41.550003;-;-;-;-;-;-;-;-;-
1531156011125;-;-;-0.25387207;0.43110353;10.130933;-0.03893762;0.0425467;-0.0024277957;13.35;57.9;-42.15;-;-;-;-;-;-;-;-;-
1531156011136;-;-;-0.42152345;0.40715334;10.274634;-0.0048491564;0.0137845585;0.0124859065;14.700001;58.95;-41.25;-;-;-;-;-;-;-;-;-
1531156011146;-;-;-0.32572266;0.43589357;10.068663;0.018054029;-0.0027270406;0.005561688;14.700001;58.95;-41.25;-;-;-;-;-;-;-;-;-
1531156011157;-;-;-0.3161426;0.4023633;9.958491;0.02551088;0.007392972;0.017279597;14.250001;59.550003;-42.300003;-;-;-;-;-;-;-;-;-
1531156011167;-;-;-0.35925296;0.38320315;9.81;0.0047382237;0.0047298106;0.0124859065;14.250001;59.550003;-42.300003;-;-;-;-;-;-;-;-;-
1531156011178;-;-;-0.2203418;0.3784131;9.829161;-0.00325126;0.010588765;0.016746964;14.700001;59.4;-42.9;-;-;-;-;-;-;-;-;-
1531156011187;-;-;-0.23471193;0.488584;9.83874;-0.014969169;0.012186662;2.3536547E-4;14.700001;59.4;-42.9;-;-;-;-;-;-;-;-;-
1531156011197;-;-;-0.16765137;0.43110353;9.8866415;-0.014969169;0.010588765;-0.014678337;13.650001;60.750004;-42.45;-;-;-;-;-;-;-;-;-
1531156011208;-;-;-0.29698244;0.45505372;9.929751;-0.013903904;0.005262443;-0.025863614;13.650001;60.750004;-42.45;-;-;-;-;-;-;-;-;-
1531156011217;-;-;-0.364043;0.3305127;9.958491;-0.0144365365;0.0020666495;-0.023733085;13.650001;58.65;-41.25;-;-;-;-;-;-;-;-;-
1531156011227;-;-;-0.3784131;0.364043;9.968072;0.0026076946;-0.013379685;-0.004558325;13.650001;58.65;-41.25;-;-;-;-;-;-;-;-;-
1531156011238;-;-;-0.4263135;0.34488282;9.953702;-5.5466517E-5;-0.023499697;-0.00828675;13.950001;59.100002;-41.550003;-;-;-;-;-;-;-;-;-
1531156011248;-;-;-0.32093263;0.35925296;9.944121;0.0026076946;-0.010183892;0.0028985266;13.950001;59.100002;-41.550003;-;-;-;-;-;-;-;-;-
1531156011258;-;-;-0.25387207;0.4023633;9.77168;-0.0069796853;0.01644772;-0.0024277957;15.150001;58.95;-41.25;-;-;-;-;-;-;-;-;-
1531156011269;-;-;-0.28261232;0.45505372;9.766891;-0.050122898;0.036155112;-0.018939395;15.150001;58.95;-41.25;-;-;-;-;-;-;-;-;-
1531156011279;-;-;-0.25387207;0.45984375;9.85311;-0.057047114;0.038285643;-0.02000466;12.6;58.65;-42.15;-;-;-;-;-;-;-;-;-
1531156011290;-;-;-0.33530274;0.3879932;9.924961;-0.05065553;0.039350905;-0.031189935;12.6;58.65;-42.15;-;-;-;-;-;-;-;-;-
1531156011299;-;-;-0.33530274;0.32572266;9.977652;-0.041600782;0.021774042;-0.022135187;14.55;57.750004;-42.75;-;-;-;-;-;-;-;-;-
1531156011310;-;-;-0.4167334;0.3544629;10.049502;-0.031480767;-0.013379685;-0.016808866;14.55;57.750004;-42.75;-;-;-;-;-;-;-;-;-
1531156011320;-;-;-0.34009278;0.34488282;10.035132;0.0026076946;-0.016575478;-0.01787413;13.500001;58.800003;-42.75;-;-;-;-;-;-;-;-;-
1531156011331;-;-;-0.33530274;0.3784131;10.011182;0.0047382237;-0.025097594;-0.01787413;13.500001;58.800003;-42.75;-;-;-;-;-;-;-;-;-
1531156011341;-;-;-0.28740236;0.43110353;9.896221;0.0047382237;-0.014977582;-0.027994143;13.950001;59.850002;-41.550003;-;-;-;-;-;-;-;-;-
1531156011352;-;-;-0.3305127;0.4406836;9.637559;-0.03627446;0.003131914;-0.04130995;13.950001;59.850002;-41.550003;-;-;-;-;-;-;-;-;-
1531156011363;-;-;-0.3784131;0.40715334;9.6615095;-0.0666345;0.03349195;-0.042907845;14.1;59.7;-42.15;-;-;-;-;-;-;-;-;-
1531156011372;-;-;-0.3544629;0.4981641;9.74294;-0.099125065;0.034557216;-0.04237521;14.1;59.7;-42.15;-;-;-;-;-;-;-;-;-
1531156011382;-;-;-0.4167334;0.45505372;9.924961;-0.118832454;0.023371939;-0.047168903;15.150001;58.95;-42.15;-;-;-;-;-;-;-;-;-
1531156011393;-;-;-0.4981641;0.45984375;10.202784;-0.11350613;0.009523501;-0.03917942;15.150001;58.95;-42.15;-;-;-;-;-;-;-;-;-
1531156011404;-;-;-0.4023633;0.46942386;10.427916;-0.06450397;-0.020836536;-0.019472027;13.950001;60.9;-43.050003;-;-;-;-;-;-;-;-;-
1531156011415;-;-;-0.34967285;0.3879932;10.341695;-0.04373131;-0.03361971;-0.030657303;13.950001;60.9;-43.050003;-;-;-;-;-;-;-;-;-
1531156011425;-;-;-0.34967285;0.4023633;10.3512745;-0.011240743;-0.038413398;-0.026396245;13.950001;58.800003;-41.850002;-;-;-;-;-;-;-;-;-
1531156011435;-;-;-0.45505372;0.39278322;10.274634;0.0031403268;-0.031489182;-0.02000466;14.250001;59.850002;-40.65;-;-;-;-;-;-;-;-;-
1531156011448;-;-;-0.39757326;0.42152345;10.183623;0.023912983;-0.0053902017;-8.29899E-4;14.250001;59.850002;-40.65;-;-;-;-;-;-;-;-;-
1531156011457;-;-;-0.35925296;0.4023633;10.116563;0.032435097;-0.0048575695;-0.0050909566;14.250001;58.500004;-41.550003;-;-;-;-;-;-;-;-;-
1531156011468;-;-;-0.39278322;0.3879932;9.929751;0.024445616;-0.0053902017;-0.014145704;14.250001;58.500004;-41.550003;-;-;-;-;-;-;-;-;-
1531156011478;-;-;-0.4263135;0.43589357;9.891431;0.018586662;-0.0048575695;-0.012015175;11.85;59.850002;-42.75;-;-;-;-;-;-;-;-;-
1531156011488;-;-;-0.38320315;0.42152345;9.78605;-0.008577582;-0.016575478;-0.009352014;11.85;59.850002;-42.75;-;-;-;-;-;-;-;-;-
1531156011499;-;-;-0.34009278;0.45984375;9.867481;-0.024023917;-0.025630224;-0.01787413;14.1;58.65;-42.9;-;-;-;-;-;-;-;-;-
1531156011508;-;-;-0.38320315;0.39278322;9.992022;-0.019760935;-0.029362716;-0.021612618;14.1;58.65;-42.9;-;-;-;-;-;-;-;-;-
1531156011519;-;-;-0.488584;0.3065625;10.063872;-0.017630408;-0.036286935;-0.02480841;13.500001;59.550003;-42.75;-;-;-;-;-;-;-;-;-
1531156011529;-;-;-0.5987549;0.29698244;10.150093;-0.0053798663;-0.057592224;-0.011492605;13.500001;59.550003;-42.75;-;-;-;-;-;-;-;-;-
1531156011539;-;-;-0.5556446;0.21555176;10.140513;0.015925424;-0.06558171;0.007682155;12.900001;58.800003;-41.550003;-;-;-;-;-;-;-;-;-
1531156011550;-;-;-0.46463382;0.16765137;10.159674;0.026578069;-0.047472212;0.016736902;12.900001;58.800003;-41.550003;-;-;-;-;-;-;-;-;-
1531156011559;-;-;-0.39757326;0.19639161;10.039923;0.027110701;-0.017644806;0.015139006;13.500001;58.050003;-43.050003;-;-;-;-;-;-;-;-;-
1531156011570;-;-;-0.3065625;0.244292;9.934542;0.015392791;0.0073889084;0.0124758445;13.500001;58.050003;-43.050003;-;-;-;-;-;-;-;-;-
1531156011581;-;-;-0.3065625;0.20597169;9.833951;0.002609617;0.012715231;0.007149523;13.950001;59.100002;-43.5;-;-;-;-;-;-;-;-;-
1531156011591;-;-;-0.37362307;0.21076173;9.83874;-0.016565142;0.020172082;-0.0072315475;13.950001;59.100002;-43.5;-;-;-;-;-;-;-;-;-
1531156011600;-;-;-0.5939649;0.11496094;9.814791;-0.024554625;0.0025952181;-0.006166283;15.3;59.550003;-43.050003;-;-;-;-;-;-;-;-;-
1531156011610;-;-;-0.53169435;0.14849122;9.800421;-0.024021992;-0.01604691;0.009280052;15.3;59.550003;-43.050003;-;-;-;-;-;-;-;-;-
1531156011621;-;-;-0.5460645;0.23950197;9.872271;-0.010173556;-0.031493247;0.031650607;12.150001;59.100002;-41.550003;-;-;-;-;-;-;-;-;-
1531156011630;-;-;-0.4167334;0.19160157;9.77168;-0.01603251;-0.030960612;0.033248503;12.150001;59.100002;-41.550003;-;-;-;-;-;-;-;-;-
1531156011640;-;-;-0.3544629;0.27303225;9.69504;-0.03201148;-0.019775335;0.030585341;13.200001;61.2;-43.050003;-;-;-;-;-;-;-;-;-
1531156011651;-;-;-0.28740236;0.34488282;9.77647;-0.05651256;0.008454173;0.036444295;13.200001;61.2;-43.050003;-;-;-;-;-;-;-;-;-
1531156011661;-;-;-0.3784131;0.34488282;9.939331;-0.0719589;0.013780495;0.032183237;14.250001;59.850002;-42.300003;-;-;-;-;-;-;-;-;-
1531156011672;-;-;-0.2682422;0.32093263;10.054293;-0.06982837;0.01697629;0.038574822;14.250001;59.850002;-42.300003;-;-;-;-;-;-;-;-;-
1531156011681;-;-;-0.19160157;0.364043;10.073453;-0.05651256;0.02443314;0.041237984;13.950001;60.15;-42.75;-;-;-;-;-;-;-;-;-
1531156011692;-;-;-0.100590825;0.42152345;10.087823;-0.03467464;0.01750892;0.025259018;13.950001;60.15;-42.75;-;-;-;-;-;-;-;-;-
1531156011701;-;-;-0.023950197;0.46463382;9.972861;-0.031478845;0.016443657;0.0018232003;13.950001;59.550003;-42.75;-;-;-;-;-;-;-;-;-
1531156011711;-;-;-0.11496094;0.50774413;9.924961;-0.030946212;0.007921541;-0.0051010186;13.950001;59.550003;-42.75;-;-;-;-;-;-;-;-;-
1531156011722;-;-;-0.19160157;0.4167334;9.915381;-0.034142006;-0.0011332075;-0.022145249;13.35;59.4;-42.15;-;-;-;-;-;-;-;-;-
1531156011732;-;-;-0.2203418;0.4167334;9.877061;-0.04159886;-0.008590058;-0.022145249;13.35;59.4;-42.15;-;-;-;-;-;-;-;-;-
1531156011743;-;-;-0.32572266;0.4742139;9.901011;-0.045327283;-0.016579542;-0.02693894;13.950001;59.550003;-41.550003;-;-;-;-;-;-;-;-;-
1531156011753;-;-;-0.25866213;0.4981641;9.862691;-0.055447295;-0.018177439;-0.022145249;13.950001;59.550003;-41.550003;-;-;-;-;-;-;-;-;-
1531156011763;-;-;-0.23950197;0.39278322;9.915381;-0.06077362;0.004193115;-0.027471572;14.700001;58.350002;-42.45;-;-;-;-;-;-;-;-;-
1531156011774;-;-;-0.22513184;0.39278322;9.977652;-0.07781785;0.014313128;-0.040787376;14.700001;58.350002;-42.45;-;-;-;-;-;-;-;-;-
1531156011783;-;-;-0.34488282;0.4167334;9.972861;-0.08367681;0.020172082;-0.04132001;15.450001;60.750004;-42.9;-;-;-;-;-;-;-;-;-
1531156011793;-;-;-0.4406836;0.34967285;10.054293;-0.09166629;0.014845759;-0.043450538;14.250001;59.850002;-41.100002;-;-;-;-;-;-;-;-;-
1531156011804;-;-;-0.45505372;0.3065625;10.336905;-0.08207891;-0.015514277;-0.013623134;14.250001;59.850002;-41.100002;-;-;-;-;-;-;-;-;-
1531156011814;-;-;-0.52690434;0.36883304;10.494976;-0.052251503;-0.04001536;-8.399609E-4;12.3;58.95;-41.7;-;-;-;-;-;-;-;-;-
1531156011824;-;-;-0.35925296;0.26345217;10.643467;0.026045436;-0.052798532;0.03431377;12.3;58.95;-41.7;-;-;-;-;-;-;-;-;-
1531156011835;-;-;-0.34488282;0.24908204;10.609937;0.036165446;-0.053863797;0.02046533;14.1;59.7;-41.7;-;-;-;-;-;-;-;-;-
1531156011845;-;-;-0.30177248;0.22513184;10.269844;0.07451497;-0.051200636;0.02792218;14.1;59.7;-41.7;-;-;-;-;-;-;-;-;-
1531156011855;-;-;-0.3305127;0.2778223;10.092612;0.06759075;-0.05173327;0.028454812;13.05;61.350002;-41.7;-;-;-;-;-;-;-;-;-
1531156011865;-;-;-0.20118165;0.22992188;9.992022;0.04468756;-0.031493247;0.039640088;13.05;61.350002;-41.7;-;-;-;-;-;-;-;-;-
1531156011876;-;-;-0.15328126;0.28740236;10.035132;0.03243702;-0.0208406;0.036976926;14.250001;59.100002;-41.100002;-;-;-;-;-;-;-;-;-
1531156011886;-;-;-0.20597169;0.28261232;10.015972;0.02444754;-0.0123184845;0.018867431;14.250001;59.100002;-41.100002;-;-;-;-;-;-;-;-;-
1531156011897;-;-;-0.22992188;0.34967285;10.111773;0.022849644;-0.008590058;-0.004035754;13.35;59.4;-42.15;-;-;-;-;-;-;-;-;-
1531156011906;-;-;-0.3161426;0.19160157;10.197993;0.027110701;-0.0043290006;-0.0019052253;13.35;59.4;-42.15;-;-;-;-;-;-;-;-;-
1531156011916;-;-;-0.32572266;0.19639161;10.126143;0.030839127;-0.026166921;0.011410581;14.250001;59.550003;-40.65;-;-;-;-;-;-;-;-;-
1531156011927;-;-;-0.3305127;0.21555176;10.106983;0.03456755;-0.031493247;0.008747419;14.250001;59.550003;-40.65;-;-;-;-;-;-;-;-;-
1531156011937;-;-;-0.2778223;0.22992188;10.135723;0.03723071;-0.019775335;0.009812684;13.05;60.000004;-41.7;-;-;-;-;-;-;-;-;-
1531156011947;-;-;-0.25387207;0.22513184;10.241104;0.040959135;-0.0064595295;0.0050189937;13.05;60.000004;-41.7;-;-;-;-;-;-;-;-;-
1531156011958;-;-;-0.2682422;0.23950197;10.188414;0.052677047;0.006323644;-0.0019052253;13.500001;59.850002;-41.850002;-;-;-;-;-;-;-;-;-
1531156011968;-;-;-0.40715334;0.16765137;10.059082;0.06918865;0.0025952181;0.007682155;13.500001;59.850002;-41.850002;-;-;-;-;-;-;-;-;-
1531156011979;-;-;-0.43589357;0.119750984;10.044712;0.08570024;-0.011785852;0.014606373;13.200001;59.850002;-42.300003;-;-;-;-;-;-;-;-;-
1531156011989;-;-;-0.4742139;0.14849122;9.910591;0.08729814;-0.025634289;0.029520076;13.200001;59.850002;-42.300003;-;-;-;-;-;-;-;-;-
1531156012000;-;-;-0.42152345;0.14849122;9.75731;0.08623288;-0.02776482;0.033248503;13.35;61.050003;-42.15;-;-;-;-;-;-;-;-;-
1531156012010;-;-;-0.34488282;0.15328126;9.699829;0.07025476;-0.0043307887;0.02472196;13.35;61.050003;-42.15;-;-;-;-;-;-;-;-;-
1531156012020;-;-;-0.4023633;0.23471193;9.5561285;0.041492615;0.015909236;0.015134579;14.400001;59.4;-40.5;-;-;-;-;-;-;-;-;-
1531156012031;-;-;-0.47900394;0.15328126;9.671089;0.012197843;0.006321856;0.015667211;14.400001;59.4;-40.5;-;-;-;-;-;-;-;-;-
1531156012041;-;-;-0.56522465;0.13891114;9.920172;0.0036757274;-0.008059215;0.02738512;12.3;60.300003;-42.45;-;-;-;-;-;-;-;-;-
1531156012052;-;-;-0.48379397;0.13891114;10.025552;0.014328372;-0.032027666;0.042298824;12.3;60.300003;-42.45;-;-;-;-;-;-;-;-;-
1531156012063;-;-;-0.51732427;0.19639161;10.178833;0.044155777;-0.0639856;0.06520201;13.200001;59.100002;-43.050003;-;-;-;-;-;-;-;-;-
1531156012072;-;-;-0.38320315;0.11496094;10.102193;0.06386317;-0.07676877;0.07585465;13.200001;59.100002;-43.050003;-;-;-;-;-;-;-;-;-
1531156012082;-;-;-0.27303225;0.20118165;10.044712;0.073983185;-0.06771402;0.098225206;14.250001;58.800003;-42.75;-;-;-;-;-;-;-;-;-
1531156012093;-;-;-0.21076173;0.1580713;9.83874;0.07078739;-0.05972454;0.08384414;12.900001;60.15;-41.550003;-;-;-;-;-;-;-;-;-
1531156012104;-;-;0.043110352;0.33530274;9.70941;0.04095998;-0.038951885;0.06360412;12.900001;60.15;-41.550003;-;-;-;-;-;-;-;-;-
1531156012113;-;-;0.0;0.26345217;9.73815;0.026046282;-0.027766608;0.054549366;13.650001;59.4;-42.9;-;-;-;-;-;-;-;-;-
1531156012123;-;-;-0.09580079;0.27303225;9.77647;0.0031430952;-0.025103446;0.035374604;13.650001;59.4;-42.9;-;-;-;-;-;-;-;-;-
1531156012134;-;-;-0.15328126;0.26345217;9.80521;-0.008574815;-0.024570813;0.026852487;14.250001;60.600002;-43.5;-;-;-;-;-;-;-;-;-
1531156012144;-;-;-0.15328126;0.36883304;9.74294;-0.035206426;-0.004863421;0.026319856;14.250001;60.600002;-43.5;-;-;-;-;-;-;-;-;-
1531156012154;-;-;-0.1101709;0.28740236;9.79563;-0.05012013;-0.0032655243;0.03004828;14.85;58.500004;-41.550003;-;-;-;-;-;-;-;-;-
1531156012165;-;-;-0.11496094;0.25866213;9.78605;-0.0479896;0.026029248;0.02738512;14.85;58.500004;-41.550003;-;-;-;-;-;-;-;-;-
1531156012174;-;-;-0.1580713;0.2778223;9.800421;-0.04106538;0.032953467;0.032711443;14.1;59.4;-42.45;-;-;-;-;-;-;-;-;-
1531156012184;-;-;-0.10538086;0.4023633;9.608819;-0.045326438;0.044671375;0.020460902;14.1;59.4;-42.45;-;-;-;-;-;-;-;-;-
1531156012195;-;-;-0.12454102;0.4263135;9.604029;-0.052250657;0.03135557;0.016732475;14.55;59.550003;-41.550003;-;-;-;-;-;-;-;-;-
1531156012204;-;-;0.16765137;0.39278322;9.632769;-0.07249068;0.027094513;-0.02268231;14.55;59.550003;-41.550003;-;-;-;-;-;-;-;-;-
1531156012214;-;-;0.12454102;0.45026368;9.580078;-0.10764441;0.037747156;-0.05410761;14.1;59.7;-41.7;-;-;-;-;-;-;-;-;-
1531156012225;-;-;0.033530276;0.3544629;9.800421;-0.16676658;0.09367354;-0.097783454;14.1;59.7;-41.7;-;-;-;-;-;-;-;-;-
1531156012235;-;-;-0.06227051;0.38320315;10.073453;-0.20724663;0.07822721;-0.11802348;13.950001;60.9;-42.300003;-;-;-;-;-;-;-;-;-
1531156012245;-;-;-0.4742139;0.28740236;10.327325;-0.20458347;0.11338094;-0.13080665;13.950001;60.9;-42.300003;-;-;-;-;-;-;-;-;-
1531156012256;-;-;-0.7041358;0.17723145;10.461446;-0.16729921;0.10166302;-0.082869746;14.250001;58.500004;-41.850002;-;-;-;-;-;-;-;-;-
1531156012266;-;-;-0.6514453;0.30177248;10.590776;-0.1108402;0.028159777;-0.025878103;14.250001;58.500004;-41.850002;-;-;-;-;-;-;-;-;-
1531156012277;-;-;-0.60354495;0.364043;10.523716;-0.054381188;-0.0107223755;0.014069313;14.55;58.500004;-42.75;-;-;-;-;-;-;-;-;-
1531156012287;-;-;-0.34009278;0.3065625;10.710527;0.013263107;-0.046941366;0.04389672;14.55;58.500004;-42.75;-;-;-;-;-;-;-;-;-
1531156012297;-;-;-0.23950197;0.30177248;10.595567;0.07504845;-0.058659274;0.04602725;12.900001;60.15;-41.100002;-;-;-;-;-;-;-;-;-
1531156012308;-;-;-0.16765137;0.42152345;10.418335;0.11606113;-0.085290894;0.048157778;12.900001;60.15;-41.100002;-;-;-;-;-;-;-;-;-
1531156012317;-;-;-0.09580079;0.48379397;10.159674;0.14801906;-0.10340038;0.04655988;14.250001;61.2;-42.75;-;-;-;-;-;-;-;-;-
1531156012327;-;-;-0.11496094;0.4742139;9.901011;0.16240013;-0.10872671;0.026852487;14.250001;61.2;-42.75;-;-;-;-;-;-;-;-;-
1531156012338;-;-;0.06706055;0.36883304;9.704619;0.12085482;-0.13322778;0.00607983;13.650001;60.750004;-42.9;-;-;-;-;-;-;-;-;-
1531156012348;-;-;-0.07664063;0.3305127;9.666299;0.080907404;-0.14281516;-0.016290722;13.650001;60.750004;-42.9;-;-;-;-;-;-;-;-;-
1531156012359;-;-;-0.09101075;0.34488282;9.934542;0.045753673;-0.13429305;-0.023747575;13.500001;59.850002;-42.75;-;-;-;-;-;-;-;-;-
1531156012369;-;-;-0.14849122;0.34009278;9.915381;0.027644178;-0.10819407;-0.029073896;13.500001;59.850002;-42.75;-;-;-;-;-;-;-;-;-
1531156012380;-;-;-0.20597169;0.22513184;9.924961;0.0164589;-0.070377186;-0.03280232;13.950001;60.15;-41.550003;-;-;-;-;-;-;-;-;-
1531156012389;-;-;-0.25387207;0.16765137;9.972861;0.013263107;-0.017646594;-0.035465483;13.950001;60.15;-41.550003;-;-;-;-;-;-;-;-;-
1531156012400;-;-;-0.17244141;0.23471193;9.929751;-0.0032484916;0.015909236;-0.030139161;11.400001;60.15;-42.300003;-;-;-;-;-;-;-;-;-
1531156012410;-;-;-0.047900394;0.23471193;9.929751;-0.0059116525;0.06011771;-0.050379183;11.400001;60.15;-42.300003;-;-;-;-;-;-;-;-;-
1531156012420;-;-;-0.09101075;0.22992188;10.121353;0.0058062566;0.08248827;-0.070086576;14.400001;59.7;-42.15;-;-;-;-;-;-;-;-;-
1531156012431;-;-;-0.2921924;0.19639161;10.039923;0.034568395;0.075031415;-0.073815;14.400001;59.7;-42.15;-;-;-;-;-;-;-;-;-
1531156012441;-;-;-0.35925296;0.19639161;9.8866415;0.07132002;0.022833455;-0.05144445;13.35;59.7;-41.7;-;-;-;-;-;-;-;-;-
1531156012452;-;-;-0.4167334;0.18681154;9.81;0.07930951;-0.009124478;-0.035998113;13.35;59.7;-41.7;-;-;-;-;-;-;-;-;-
1531156012461;-;-;-0.23950197;0.24908204;9.72857;0.07078739;-0.034158193;-0.023214942;12.900001;59.550003;-42.75;-;-;-;-;-;-;-;-;-
1531156012472;-;-;-0.21076173;0.25387207;9.580078;0.052677892;-0.036288723;-0.02055178;12.900001;59.550003;-42.75;-;-;-;-;-;-;-;-;-
1531156012482;-;-;-0.12454102;0.28740236;9.4507475;-5.269813E-5;-0.009657111;-0.03972654;12.900001;60.15;-43.5;-;-;-;-;-;-;-;-;-
1531156012493;-;-;-0.19639161;0.19160157;9.402847;-0.035206426;0.02176819;-0.05144445;13.650001;60.300003;-42.9;-;-;-;-;-;-;-;-;-
1531156012503;-;-;-0.2203418;0.2778223;9.632769;-0.0794149;0.051062964;-0.049313918;13.650001;60.300003;-42.9;-;-;-;-;-;-;-;-;-
1531156012513;-;-;-0.32093263;0.34967285;9.81;-0.092196465;0.042537436;-0.045061313;12.900001;59.100002;-41.100002;-;-;-;-;-;-;-;-;-
1531156012523;-;-;-0.28261232;0.28740236;10.020762;-0.08207645;0.0121773975;-0.031212877;12.900001;59.100002;-41.100002;-;-;-;-;-;-;-;-;-
1531156012534;-;-;-0.20118165;0.3065625;10.063872;-0.07888065;0.0015247524;-0.025886556;13.35;59.7;-42.15;-;-;-;-;-;-;-;-;-
1531156012544;-;-;-0.14370118;0.31135255;10.207574;-0.05437957;-0.009127892;-0.029614981;13.35;59.7;-42.15;-;-;-;-;-;-;-;-;-
1531156012554;-;-;-0.2778223;0.25387207;10.169253;-0.040531132;-0.009660524;-0.035473935;13.650001;60.300003;-40.95;-;-;-;-;-;-;-;-;-
1531156012564;-;-;-0.37362307;0.31135255;10.097403;-0.015497417;-0.0027363054;-0.025353923;13.650001;60.300003;-40.95;-;-;-;-;-;-;-;-;-
1531156012575;-;-;-0.19639161;0.2778223;9.920172;-0.015497417;0.005253178;-0.012570749;12.900001;58.800003;-41.850002;-;-;-;-;-;-;-;-;-
1531156012584;-;-;-0.34488282;0.31135255;9.867481;-0.026150063;-0.012856318;-0.0035160012;12.900001;58.800003;-41.850002;-;-;-;-;-;-;-;-;-
1531156012594;-;-;-0.3065625;0.2778223;9.934542;-0.036270075;-0.006997363;-3.202079E-4;13.200001;59.550003;-41.550003;-;-;-;-;-;-;-;-;-
1531156012604;-;-;-0.24908204;0.36883304;10.030342;-0.046922717;4.594879E-4;0.0028755856;13.200001;59.550003;-41.550003;-;-;-;-;-;-;-;-;-
1531156012614;-;-;-0.28261232;0.28261232;9.934542;-0.050118513;0.025493203;-0.012570749;12.900001;59.850002;-41.850002;-;-;-;-;-;-;-;-;-
1531156012624;-;-;-0.31135255;0.2778223;9.910591;-0.07515223;0.02496057;-0.01736444;12.900001;59.850002;-41.850002;-;-;-;-;-;-;-;-;-
1531156012635;-;-;-0.41194338;0.26345217;9.920172;-0.09166383;0.024427937;0.0034082178;13.05;58.95;-42.45;-;-;-;-;-;-;-;-;-
1531156012645;-;-;-0.4406836;0.2778223;10.135723;-0.095924884;0.0068510743;0.03483352;13.05;58.95;-42.45;-;-;-;-;-;-;-;-;-
1531156012655;-;-;-0.42152345;0.16286133;10.3512745;-0.085272245;-0.0027363054;0.045486163;13.200001;60.15;-40.2;-;-;-;-;-;-;-;-;-
1531156012665;-;-;-0.34967285;0.2921924;10.504556;-0.049053248;-0.019780537;0.0609325;13.200001;60.15;-40.2;-;-;-;-;-;-;-;-;-
1531156012675;-;-;-0.2921924;0.2203418;10.609937;-0.022421636;-0.031498447;0.072117776;11.85;59.850002;-42.75;-;-;-;-;-;-;-;-;-
1531156012686;-;-;-0.28740236;0.23950197;10.4566555;0.028178426;-0.029367918;0.08223779;11.85;59.850002;-42.75;-;-;-;-;-;-;-;-;-
1531156012696;-;-;-0.22513184;0.32093263;10.365645;0.06279952;-0.026704757;0.08436831;13.950001;59.100002;-41.850002;-;-;-;-;-;-;-;-;-
1531156012706;-;-;-0.26345217;0.2682422;10.025552;0.06599531;-0.03469424;0.09022727;13.950001;59.100002;-41.850002;-;-;-;-;-;-;-;-;-
1531156012717;-;-;-0.1101709;0.3065625;9.982442;0.06386478;-0.032031078;0.0907599;13.35;60.750004;-42.45;-;-;-;-;-;-;-;-;-
1531156012727;-;-;-0.19160157;0.32572266;9.963282;0.036700543;-0.028835285;0.08596621;13.35;60.750004;-42.45;-;-;-;-;-;-;-;-;-
1531156012736;-;-;0.014370117;0.3544629;10.097403;0.025515264;-0.017650008;0.08223779;13.35;60.750004;-41.7;-;-;-;-;-;-;-;-;-
1531156012746;-;-;0.100590825;0.364043;10.260264;0.022319471;-0.0011384088;0.075846195;13.35;60.750004;-41.7;-;-;-;-;-;-;-;-;-
1531156012756;-;-;0.12933107;0.35925296;10.298584;0.035635278;0.0015247524;0.060399868;14.55;59.550003;-42.75;-;-;-;-;-;-;-;-;-
1531156012766;-;-;0.0047900393;0.3305127;10.298584;0.069191106;-0.0053994665;0.033235624;14.55;59.550003;-42.75;-;-;-;-;-;-;-;-;-
1531156012776;-;-;-0.019160157;0.34009278;10.202784;0.089963764;-0.010725789;0.024713507;13.35;59.4;-42.9;-;-;-;-;-;-;-;-;-
1531156012787;-;-;-0.081430666;0.28740236;10.078242;0.095822714;-0.028302653;0.029507196;13.35;59.4;-42.9;-;-;-;-;-;-;-;-;-
1531156012797;-;-;0.0047900393;0.32572266;9.77168;0.09848587;-0.029367918;0.009267173;15.150001;58.95;-42.45;-;-;-;-;-;-;-;-;-
1531156012807;-;-;0.047900394;0.33530274;9.7142;0.06652794;-0.015519478;0.0044734823;15.150001;58.95;-42.45;-;-;-;-;-;-;-;-;-
1531156012817;-;-;0.019160157;0.25866213;9.80521;0.044690024;-7.314433E-5;-0.00564653;13.500001;59.850002;-40.2;-;-;-;-;-;-;-;-;-
1531156012827;-;-;-0.081430666;0.17244141;9.83874;0.039896335;0.016438454;-0.020560233;13.500001;59.850002;-40.2;-;-;-;-;-;-;-;-;-
1531156012837;-;-;-0.16765137;0.23950197;9.901011;0.035102643;0.008981603;-0.021625498;12.3;59.7;-42.15;-;-;-;-;-;-;-;-;-
1531156012848;-;-;-0.23950197;0.25387207;9.891431;0.056407932;0.00791634;-0.008309691;12.3;59.7;-42.15;-;-;-;-;-;-;-;-;-
