TimeStamp[ms];Prox[Cm];Lux[lux];AccX[m/s^2];AccY[m/s^2];AccZ[m/s^2];GyroX[rad/s];GyroY[rad/s];GyroZ[rad/s];MagnX[uT];MagnY[uT];MagnZ[uT];OrienYaw[degrees];OrienPitch[degrees];OrienRoll[degrees];Press[Pa];Temp[C°];Batt[%];Lat;Lng;Speed[m/s]
1531156155219;-;-;-1.0298585;0.30177248;10.097403;-0.0046771606;0.16556981;0.012067081;-3.9;25.2;-39.0;-;-;-;-;-;-;-;-;-
1531156155239;-;-;-0.8382569;0.37362307;9.929751;-0.014264541;0.040933874;0.123919845;-5.4;25.35;-40.5;-;-;-;-;-;-;-;-;-
1531156155238;-;-;-0.8382569;0.37362307;9.929751;-0.014264541;0.040933874;0.123919845;-5.4;25.35;-40.5;-;-;-;-;-;-;-;-;-
1531156155244;-;-;-0.78556645;0.46942386;9.977652;-0.024384553;0.0153675275;0.12711564;-4.9500003;25.500002;-39.0;-;-;-;-;-;-;-;-;-
1531156155254;-;-;-0.46463382;0.6514453;9.881851;-0.04782037;-0.07890838;0.1297788;-4.9500003;25.500002;-39.0;-;-;-;-;-;-;-;-;-
1531156155264;-;-;-0.28261232;0.6514453;9.7621;-0.07232145;-0.10713788;0.10154929;-4.05;25.95;-40.050003;-;-;-;-;-;-;-;-;-
1531156155274;-;-;0.038320314;0.6993457;9.73815;-0.130911;-0.028308315;0.048818707;-4.05;25.95;-40.050003;-;-;-;-;-;-;-;-;-
1531156155285;-;-;0.028740235;0.57001466;9.968072;-0.16127104;0.028683335;0.022719726;-4.65;25.800001;-39.45;-;-;-;-;-;-;-;-;-
1531156155294;-;-;-0.043110352;0.5748047;10.025552;-0.19802266;0.08514235;-1.8345937E-4;-4.65;25.800001;-39.45;-;-;-;-;-;-;-;-;-
1531156155304;-;-;-0.17723145;0.5604346;10.135723;-0.20441425;0.12935083;-0.023619277;-5.8500004;25.35;-40.050003;-;-;-;-;-;-;-;-;-
1531156155314;-;-;-0.28261232;0.45984375;10.605147;-0.15115103;0.15012348;-0.03586982;-5.8500004;25.35;-40.050003;-;-;-;-;-;-;-;-;-
1531156155324;-;-;-0.3305127;0.45984375;10.566827;-0.092561476;0.12722029;-0.03853298;-5.4;26.400002;-38.100002;-;-;-;-;-;-;-;-;-
1531156155335;-;-;-0.60354495;0.48379397;10.341695;0.023019716;0.08674025;-0.02681507;-5.4;26.400002;-38.100002;-;-;-;-;-;-;-;-;-
1531156155345;-;-;-0.6179151;0.49337405;10.140513;0.058706075;0.033477023;-0.0012487238;-4.9500003;25.2;-39.9;-;-;-;-;-;-;-;-;-
1531156155355;-;-;-0.5939649;0.4981641;9.699829;0.075750306;-0.05493993;0.017393405;-4.9500003;25.2;-39.9;-;-;-;-;-;-;-;-;-
1531156155365;-;-;-0.5748047;0.5125342;9.613608;0.06882609;-0.10394209;0.025382888;-5.1000004;25.650002;-40.050003;-;-;-;-;-;-;-;-;-
1531156155375;-;-;-0.52690434;0.43589357;9.632769;0.029943934;-0.15827058;0.042959753;-5.1000004;25.650002;-40.050003;-;-;-;-;-;-;-;-;-
1531156155386;-;-;-0.488584;0.4263135;9.7621;0.012367071;-0.1604011;0.053612396;-4.65;26.85;-39.45;-;-;-;-;-;-;-;-;-
1531156155396;-;-;-0.28740236;0.45505372;9.81958;0.0070407484;-0.1353674;0.053079765;-4.65;26.85;-39.45;-;-;-;-;-;-;-;-;-
1531156155406;-;-;-0.028740235;0.46942386;9.905801;0.0033123228;-0.11779053;0.036568165;-3.9;25.2;-40.2;-;-;-;-;-;-;-;-;-
1531156155416;-;-;0.028740235;0.5987549;9.8866415;-0.0046771606;-0.0528094;-0.008172942;-3.9;25.2;-40.2;-;-;-;-;-;-;-;-;-
1531156155426;-;-;0.033530276;0.62749517;9.6615095;-0.019590862;-0.044287283;-0.020956116;-5.1000004;25.650002;-40.95;-;-;-;-;-;-;-;-;-
1531156155436;-;-;0.1820215;0.6849756;9.369317;-0.08830042;-0.10181156;-0.09552463;-5.1000004;25.650002;-40.95;-;-;-;-;-;-;-;-;-
1531156155446;-;-;0.047900394;0.75203615;9.359736;-0.13730258;-0.1785106;-0.14878786;-5.8500004;27.000002;-39.300003;-;-;-;-;-;-;-;-;-
1531156155457;-;-;-0.1580713;0.64186525;9.546548;-0.17298895;-0.23230647;-0.18340895;-5.8500004;27.000002;-39.300003;-;-;-;-;-;-;-;-;-
1531156155467;-;-;-0.086220704;0.5891748;9.944121;-0.16872787;-0.25094858;-0.20524687;-4.8;25.95;-39.300003;-;-;-;-;-;-;-;-;-
1531156155477;-;-;-0.21555176;0.39278322;10.289004;-0.141031;-0.2610686;-0.22601953;-4.8;25.95;-39.300003;-;-;-;-;-;-;-;-;-
1531156155487;-;-;-0.4167334;0.25866213;10.427916;-0.12718573;-0.25147173;-0.2292038;-3.6000001;25.2;-40.2;-;-;-;-;-;-;-;-;-
1531156155497;-;-;-0.71371585;0.3305127;10.2315235;-0.043562472;-0.033625137;-0.025738297;-3.6000001;25.2;-40.2;-;-;-;-;-;-;-;-;-
1531156155508;-;-;0.019160157;0.5987549;9.551338;-0.046225633;0.34667426;0.019535443;-5.4;25.650002;-38.850002;-;-;-;-;-;-;-;-;-
1531156155518;-;-;0.05748047;0.68018556;10.595567;-0.10215202;0.23322362;-0.0017698461;-5.4;25.650002;-38.850002;-;-;-;-;-;-;-;-;-
1531156155528;-;-;0.038320314;0.22992188;10.212363;-0.14156681;0.024964407;-0.06248992;-4.05;26.7;-38.850002;-;-;-;-;-;-;-;-;-
1531156155538;-;-;-0.36883304;0.033530276;10.384805;-0.08031409;0.039878108;-0.104035236;-4.05;26.7;-38.850002;-;-;-;-;-;-;-;-;-
1531156155548;-;-;-0.2778223;0.19639161;10.734478;0.018222867;0.017507555;-0.08645837;-6.7500005;26.400002;-40.5;-;-;-;-;-;-;-;-;-
1531156155558;-;-;-0.2778223;0.2921924;10.849439;0.13327143;-0.062919915;-0.071012035;-6.7500005;26.400002;-40.5;-;-;-;-;-;-;-;-;-
1531156155568;-;-;-0.23950197;0.33530274;10.614727;0.22275363;-0.1571958;-0.06568571;-6.15;24.6;-40.5;-;-;-;-;-;-;-;-;-
1531156155579;-;-;-0.33530274;0.2682422;10.380015;0.30424637;-0.2791686;-0.07154467;-6.15;24.6;-40.5;-;-;-;-;-;-;-;-;-
1531156155589;-;-;-0.4981641;0.25387207;10.150093;0.34206325;-0.38729292;-0.052369907;-5.8500004;27.45;-40.95;-;-;-;-;-;-;-;-;-
1531156155599;-;-;-0.32572266;0.34009278;9.75731;0.33940008;-0.4032719;-0.0555657;-5.8500004;27.45;-40.95;-;-;-;-;-;-;-;-;-
1531156155609;-;-;-0.2778223;0.3305127;9.551338;0.29945266;-0.35320446;-0.037988838;-6.0;25.800001;-41.550003;-;-;-;-;-;-;-;-;-
1531156155619;-;-;-0.10538086;0.45505372;9.254355;0.23606944;-0.24081907;-0.035325676;-6.0;25.800001;-41.550003;-;-;-;-;-;-;-;-;-
1531156155630;-;-;-0.043110352;0.5508545;9.187295;0.12741247;-0.10606313;-0.042782526;-4.2000003;24.45;-38.7;-;-;-;-;-;-;-;-;-
1531156155640;-;-;-0.081430666;0.42152345;9.74773;0.024614453;0.009518072;-0.046510953;-4.2000003;24.45;-38.7;-;-;-;-;-;-;-;-;-
1531156155650;-;-;0.06227051;0.45026368;9.469908;-0.042497206;0.16504669;-0.05343517;-4.9500003;26.250002;-39.0;-;-;-;-;-;-;-;-;-
1531156155660;-;-;-0.043110352;0.47900394;10.092612;-0.0968257;0.20552674;-0.07846889;-4.9500003;26.250002;-39.0;-;-;-;-;-;-;-;-;-
1531156155670;-;-;-0.21555176;0.5364844;10.221944;-0.09842359;0.15119825;-0.07900152;-4.8;24.0;-39.300003;-;-;-;-;-;-;-;-;-
1531156155680;-;-;-0.2682422;0.56522465;10.260264;-0.05528038;0.11338135;-0.074207835;-4.8;24.0;-39.300003;-;-;-;-;-;-;-;-;-
1531156155691;-;-;-0.17244141;0.53169435;10.078242;-0.00947401;0.09047817;-0.07740363;-3.9;24.150002;-39.0;-;-;-;-;-;-;-;-;-
1531156155701;-;-;-0.2778223;0.5604346;10.049502;0.012896542;0.039878108;-0.073142566;-3.9;24.150002;-39.0;-;-;-;-;-;-;-;-;-
1531156155711;-;-;-0.3544629;0.53169435;9.848321;0.025679717;-0.033625137;-0.05503307;-4.2000003;25.800001;-38.7;-;-;-;-;-;-;-;-;-
1531156155721;-;-;-0.24908204;0.53169435;10.092612;0.038462892;-0.07836625;-0.03852147;-4.2000003;25.800001;-38.7;-;-;-;-;-;-;-;-;-
1531156155731;-;-;-0.28740236;0.5029541;10.317744;0.09385664;-0.14601053;-0.015618284;-4.65;26.250002;-39.45;-;-;-;-;-;-;-;-;-
1531156155742;-;-;-0.30177248;0.43589357;10.322535;0.13806511;-0.14760843;0.015807018;-4.65;26.250002;-39.45;-;-;-;-;-;-;-;-;-
1531156155752;-;-;-0.4406836;0.3879932;10.011182;0.18333885;-0.13695578;0.05895023;-4.9500003;24.750002;-39.9;-;-;-;-;-;-;-;-;-
1531156155762;-;-;-0.42152345;0.45984375;9.733359;0.18866517;-0.12204209;0.10049554;-4.9500003;24.750002;-39.9;-;-;-;-;-;-;-;-;-
1531156155772;-;-;-0.3065625;0.6466553;9.460327;0.14978302;-0.11405261;0.14150822;-5.25;26.250002;-37.800003;-;-;-;-;-;-;-;-;-
1531156155783;-;-;-0.07664063;0.6945557;9.474698;0.0997156;-0.10606313;0.14044297;-5.4;24.6;-39.600002;-;-;-;-;-;-;-;-;-
1531156155793;-;-;0.14849122;0.8047266;9.541759;0.00970075;-0.05333253;0.11753977;-5.4;24.6;-39.600002;-;-;-;-;-;-;-;-;-
1531156155803;-;-;0.22992188;0.7424561;9.666299;-0.039834045;-0.020309333;0.088245;-6.3;25.2;-39.9;-;-;-;-;-;-;-;-;-
1531156155813;-;-;0.22992188;0.7041358;9.704619;-0.10215202;0.051063385;0.036047045;-6.3;25.2;-39.9;-;-;-;-;-;-;-;-;-
1531156155823;-;-;0.20118165;0.6993457;9.972861;-0.1298489;0.100065544;0.013676489;-5.8500004;25.35;-40.5;-;-;-;-;-;-;-;-;-
1531156155833;-;-;0.0;0.64186525;10.164463;-0.10108675;0.12616453;-0.012422491;-5.8500004;25.35;-40.5;-;-;-;-;-;-;-;-;-
1531156155844;-;-;-0.05748047;0.613125;10.135723;-0.07658567;0.12989296;-0.01455302;-6.3;24.750002;-39.0;-;-;-;-;-;-;-;-;-
1531156155854;-;-;-0.12933107;0.60833496;10.308165;-0.004147688;0.08781501;0.0062196366;-6.3;24.750002;-39.0;-;-;-;-;-;-;-;-;-
1531156155864;-;-;-0.1341211;0.67539555;10.327325;0.038462892;0.03295389;0.0062196366;-5.1000004;24.300001;-38.100002;-;-;-;-;-;-;-;-;-
1531156155874;-;-;-0.06227051;0.6945557;10.284214;0.10504192;-0.022439862;0.014741752;-5.1000004;24.300001;-38.100002;-;-;-;-;-;-;-;-;-
1531156155884;-;-;-0.0047900393;0.6945557;10.197993;0.13167353;-0.043745153;-0.0070961686;-4.8;24.300001;-38.100002;-;-;-;-;-;-;-;-;-
1531156155894;-;-;-0.10538086;0.5412744;9.8866415;0.14232616;-0.033625137;-0.006030904;-4.8;24.300001;-38.100002;-;-;-;-;-;-;-;-;-
1531156155904;-;-;-0.22992188;0.5221143;9.77647;0.12208615;-0.009124056;8.9331507E-4;-4.3500004;25.35;-38.850002;-;-;-;-;-;-;-;-;-
1531156155915;-;-;-0.17244141;0.6227051;9.527389;0.0336692;0.04999812;-0.0070961686;-4.3500004;25.35;-38.850002;-;-;-;-;-;-;-;-;-
1531156155925;-;-;-0.244292;0.732876;9.479487;-0.046225633;0.09686975;-0.0033677428;-4.65;24.750002;-38.7;-;-;-;-;-;-;-;-;-
1531156155935;-;-;-0.22992188;0.7185059;9.508228;-0.11919625;0.13628455;0.0067522693;-4.65;24.750002;-38.7;-;-;-;-;-;-;-;-;-
1531156155945;-;-;-0.2682422;0.613125;9.72378;-0.16713315;0.12296873;-0.0033677428;-5.8500004;24.300001;-38.4;-;-;-;-;-;-;-;-;-
1531156155955;-;-;-0.30177248;0.5412744;9.867481;-0.17405738;0.12829506;3.6068284E-4;-5.8500004;24.300001;-38.4;-;-;-;-;-;-;-;-;-
1531156155965;-;-;-0.3161426;0.5412744;9.848321;-0.1676658;0.12829506;0.015807018;-5.55;26.250002;-39.45;-;-;-;-;-;-;-;-;-
1531156155976;-;-;-0.34009278;0.52690434;9.800421;-0.17352474;0.0910108;0.03072072;-5.55;26.250002;-39.45;-;-;-;-;-;-;-;-;-
1531156155986;-;-;-0.26345217;0.6322852;10.044712;-0.17565528;0.055324443;0.036047045;-5.1000004;25.050001;-39.600002;-;-;-;-;-;-;-;-;-
1531156155996;-;-;-0.047900394;0.6514453;10.279425;-0.13317733;0.008905778;0.020833937;-5.1000004;25.050001;-39.600002;-;-;-;-;-;-;-;-;-
1531156156006;-;-;-0.081430666;0.6945557;10.375225;-0.08524044;0.005177353;0.012844455;-4.3500004;24.300001;-38.850002;-;-;-;-;-;-;-;-;-
1531156156016;-;-;-0.14849122;0.5604346;10.475816;-0.018128773;0.004644721;-0.0052650403;-4.3500004;24.300001;-38.850002;-;-;-;-;-;-;-;-;-
1531156156026;-;-;-0.25866213;0.5556446;10.202784;0.015427058;-0.00973635;-0.0020692472;-6.6000004;26.250002;-39.0;-;-;-;-;-;-;-;-;-
1531156156036;-;-;-0.30177248;0.5891748;9.857901;0.020220747;0.02381948;0.003257075;-6.6000004;26.250002;-39.0;-;-;-;-;-;-;-;-;-
1531156156047;-;-;-0.28261232;0.5987549;9.75252;-0.008541393;0.03979845;0.014442352;-4.65;25.500002;-38.7;-;-;-;-;-;-;-;-;-
1531156156057;-;-;-0.34488282;0.62749517;9.656719;-0.048488807;0.0323416;0.024029732;-4.65;25.500002;-38.7;-;-;-;-;-;-;-;-;-
1531156156067;-;-;-0.21555176;0.6514453;9.72857;-0.08417517;0.04778793;0.031486586;-5.1000004;25.650002;-38.4;-;-;-;-;-;-;-;-;-
1531156156077;-;-;-0.2921924;0.60833496;9.72857;-0.10548046;0.03287423;0.020833937;-5.1000004;25.650002;-38.4;-;-;-;-;-;-;-;-;-
1531156156087;-;-;-0.2778223;0.62749517;9.800421;-0.116665736;-0.0049426593;0.033617113;-5.4;25.95;-39.600002;-;-;-;-;-;-;-;-;-
1531156156097;-;-;-0.20118165;0.5987549;9.944121;-0.1028173;-0.015062671;0.045867655;-5.4;25.95;-39.600002;-;-;-;-;-;-;-;-;-
1531156156108;-;-;-0.12454102;0.60354495;10.121353;-0.1060131;-0.01932373;0.040541332;-6.15;26.7;-39.300003;-;-;-;-;-;-;-;-;-
1531156156118;-;-;0.0047900393;0.6658155;10.293795;-0.088968866;0.0067752493;-4.713505E-4;-6.15;26.7;-39.300003;-;-;-;-;-;-;-;-;-
1531156156128;-;-;0.047900394;0.5508545;10.380015;-0.05647829;0.048853196;-0.016450318;-5.8500004;25.050001;-40.5;-;-;-;-;-;-;-;-;-
1531156156138;-;-;-0.13891114;0.6322852;10.212363;-0.020791935;0.092529036;-0.022309272;-5.8500004;25.050001;-40.5;-;-;-;-;-;-;-;-;-
1531156156148;-;-;-0.31135255;0.57001466;9.915381;-0.018128773;0.120225914;-0.015385053;-5.4;25.95;-39.300003;-;-;-;-;-;-;-;-;-
1531156156158;-;-;-0.43110353;0.6562354;9.74294;-0.027716154;0.095192194;0.012311823;-5.4;25.95;-39.300003;-;-;-;-;-;-;-;-;-
1531156156168;-;-;-0.28261232;0.6706055;9.608819;-0.04902144;0.048320565;0.029356053;-4.3500004;27.000002;-39.300003;-;-;-;-;-;-;-;-;-
1531156156179;-;-;-0.17723145;0.7041358;9.594449;-0.06713094;0.010503676;0.029888684;-4.3500004;27.000002;-39.300003;-;-;-;-;-;-;-;-;-
1531156156188;-;-;-0.100590825;0.7424561;9.877061;-0.08044674;-0.04435744;0.018703409;-4.8;26.400002;-39.600002;-;-;-;-;-;-;-;-;-
1531156156198;-;-;-0.10538086;0.67539555;9.977652;-0.082044646;-0.06885853;0.0053876042;-4.8;26.400002;-39.600002;-;-;-;-;-;-;-;-;-
1531156156208;-;-;-0.12933107;0.6322852;10.063872;-0.07512043;-0.050216395;-0.0031345116;-5.1000004;26.400002;-39.600002;-;-;-;-;-;-;-;-;-
1531156156218;-;-;-0.20597169;0.68018556;10.279425;-0.049554072;-0.0486185;0.003257075;-5.1000004;26.400002;-39.600002;-;-;-;-;-;-;-;-;-
1531156156228;-;-;-0.17723145;0.75203615;10.250684;-0.018128773;-0.05128166;0.014974984;-4.05;26.7;-39.600002;-;-;-;-;-;-;-;-;-
1531156156239;-;-;-0.21076173;0.8095166;10.078242;-0.0042803353;-0.025182685;0.022431834;-4.05;26.7;-39.600002;-;-;-;-;-;-;-;-;-
1531156156248;-;-;-0.05269043;0.8095166;9.843531;-0.014400347;0.008373147;0.02136657;-4.3500004;25.650002;-40.95;-;-;-;-;-;-;-;-;-
1531156156258;-;-;-0.06706055;0.9244776;9.594449;-0.068728834;0.0131668355;0.022431834;-4.3500004;25.650002;-40.95;-;-;-;-;-;-;-;-;-
1531156156268;-;-;-0.09580079;0.9388477;9.79084;-0.11133941;0.0057099853;0.02136657;-5.25;25.800001;-41.100002;-;-;-;-;-;-;-;-;-
1531156156278;-;-;-0.1580713;0.8765772;10.039923;-0.12891628;-0.022519523;0.033084482;-5.25;25.800001;-41.100002;-;-;-;-;-;-;-;-;-
1531156156288;-;-;-0.1820215;0.87178713;10.164463;-0.12572047;-0.0337048;0.045867655;-3.15;25.2;-41.550003;-;-;-;-;-;-;-;-;-
1531156156299;-;-;-0.12933107;0.8095166;10.250684;-0.10334993;-0.06459747;0.058118194;-3.15;25.2;-41.550003;-;-;-;-;-;-;-;-;-
1531156156308;-;-;-0.20118165;0.7759864;10.317744;-0.08737096;-0.076848015;0.05918346;-4.8;27.000002;-37.65;-;-;-;-;-;-;-;-;-
1531156156318;-;-;-0.023950197;0.7759864;10.341695;-0.0879036;-0.035835326;0.05918346;-4.8;27.000002;-37.65;-;-;-;-;-;-;-;-;-
1531156156328;-;-;0.05269043;0.8095166;10.3512745;-0.09642571;0.011568939;0.050661344;-5.55;26.250002;-39.0;-;-;-;-;-;-;-;-;-
1531156156338;-;-;-0.038320314;0.8430469;10.265054;-0.101752035;0.051516358;0.043204494;-5.55;26.250002;-39.0;-;-;-;-;-;-;-;-;-
1531156156348;-;-;-0.1341211;0.8095166;10.169253;-0.10334993;0.08613745;0.047998182;-4.8;28.050001;-38.4;-;-;-;-;-;-;-;-;-
1531156156358;-;-;-0.21076173;0.8669971;10.150093;-0.09802361;0.108508006;0.057052933;-4.8;28.050001;-38.4;-;-;-;-;-;-;-;-;-
1531156156369;-;-;-0.22513184;0.7951465;10.332115;-0.058608823;0.099453256;0.073031895;-5.8500004;27.750002;-39.600002;-;-;-;-;-;-;-;-;-
1531156156379;-;-;-0.34967285;0.8909473;10.145303;-0.008541393;0.08400692;0.068238206;-5.8500004;27.750002;-39.600002;-;-;-;-;-;-;-;-;-
1531156156389;-;-;-0.41194338;1.0394385;9.8866415;0.035667084;0.0637669;0.04959608;-2.8500001;26.250002;-39.45;-;-;-;-;-;-;-;-;-
1531156156399;-;-;-0.51732427;1.1496094;9.77647;0.03513445;0.035537392;0.038943436;-2.8500001;26.250002;-39.45;-;-;-;-;-;-;-;-;-
1531156156409;-;-;-0.5364844;1.0729688;9.75252;0.011166;0.022754217;0.017638145;-5.4;25.650002;-39.600002;-;-;-;-;-;-;-;-;-
1531156156419;-;-;-0.51732427;1.0633887;9.77168;0.0063723093;0.04938583;0.0016591784;-5.4;25.650002;-39.600002;-;-;-;-;-;-;-;-;-
1531156156430;-;-;-0.68976563;0.92926764;9.75731;-0.027183522;0.06110374;-0.03136402;-4.05;25.650002;-39.600002;-;-;-;-;-;-;-;-;-
1531156156439;-;-;-0.7232959;0.8669971;9.7142;-0.05381513;0.060038473;-0.02390717;-4.05;25.650002;-39.600002;-;-;-;-;-;-;-;-;-
1531156156449;-;-;-1.0490186;0.6849756;9.848321;-0.08257727;0.07388691;-0.0127218915;-6.3;26.550001;-40.65;-;-;-;-;-;-;-;-;-
1531156156459;-;-;-1.1256592;0.6227051;9.924961;-0.093762554;0.06749532;0.013909719;-6.3;26.550001;-40.65;-;-;-;-;-;-;-;-;-
1531156156469;-;-;-1.1927198;0.46463382;10.226734;-0.077783585;0.041396346;0.07409716;-5.4;25.95;-38.850002;-;-;-;-;-;-;-;-;-
1531156156479;-;-;-1.21188;0.39757326;10.145303;-0.04156459;0.04459214;0.12842564;-5.4;25.95;-38.850002;-;-;-;-;-;-;-;-;-
1531156156490;-;-;-0.9196875;0.53169435;10.279425;0.01595681;0.021164982;0.21578783;-4.8;26.400002;-38.850002;-;-;-;-;-;-;-;-;-
1531156156499;-;-;-0.6514453;0.53169435;10.298584;0.04099052;-0.020380333;0.2370931;-4.8;26.400002;-38.850002;-;-;-;-;-;-;-;-;-
1531156156509;-;-;-0.31135255;0.41194338;10.3512745;0.087862164;-0.056066696;0.24561523;-4.9500003;27.900002;-38.7;-;-;-;-;-;-;-;-;-
1531156156519;-;-;-0.34967285;0.364043;10.269844;0.12408116;-0.07790461;0.24135417;-4.9500003;27.900002;-38.7;-;-;-;-;-;-;-;-;-
1531156156529;-;-;-0.26345217;0.5604346;10.221944;0.16562647;-0.10027517;0.26106158;-4.3500004;27.000002;-41.25;-;-;-;-;-;-;-;-;-
1531156156539;-;-;-0.15328126;0.45026368;10.289004;0.20078018;-0.11359097;0.26212683;-4.3500004;27.000002;-41.25;-;-;-;-;-;-;-;-;-
1531156156550;-;-;-0.12454102;0.49337405;10.0063925;0.25457606;-0.13383101;0.27437738;-6.6000004;26.85;-39.45;-;-;-;-;-;-;-;-;-
1531156156560;-;-;-0.038320314;0.47900394;9.81958;0.27268556;-0.1402226;0.27064896;-4.05;25.95;-40.95;-;-;-;-;-;-;-;-;-
1531156156570;-;-;-0.18681154;0.63707525;9.398057;0.2817403;-0.18389843;0.290889;-4.05;25.95;-40.95;-;-;-;-;-;-;-;-;-
1531156156580;-;-;-0.15328126;0.6993457;9.230406;0.27055502;-0.23556376;0.29728058;-4.65;26.85;-41.100002;-;-;-;-;-;-;-;-;-
1531156156591;-;-;-0.13891114;0.7185059;9.125025;0.23114023;-0.39695132;0.33456483;-4.65;26.85;-41.100002;-;-;-;-;-;-;-;-;-
1531156156601;-;-;-0.038320314;0.7232959;9.196876;0.21462862;-0.53277254;0.34788063;-5.55;25.800001;-41.100002;-;-;-;-;-;-;-;-;-
1531156156611;-;-;0.07664063;0.852627;9.369317;0.22368337;-0.7889686;0.35853326;-5.55;25.800001;-41.100002;-;-;-;-;-;-;-;-;-
1531156156621;-;-;0.19160157;0.9580079;9.551338;0.23486865;-0.9423667;0.35959855;-5.55;25.2;-38.25;-;-;-;-;-;-;-;-;-
1531156156631;-;-;1.0154883;1.3076807;10.207574;0.26895714;-1.1128091;0.2578658;-5.55;25.2;-38.25;-;-;-;-;-;-;-;-;-
1531156156641;-;-;1.2070899;1.3699512;10.384805;0.29079506;-1.1016238;0.19501516;-6.0;26.250002;-39.9;-;-;-;-;-;-;-;-;-
1531156156651;-;-;1.4849122;1.3843213;10.9069195;0.32062244;-0.9604762;0.017648641;-6.0;26.250002;-39.9;-;-;-;-;-;-;-;-;-
1531156156662;-;-;1.3795313;1.3268409;10.700948;0.30730665;-0.8544824;-0.046267226;-7.05;26.250002;-37.5;-;-;-;-;-;-;-;-;-
1531156156672;-;-;0.92926764;1.2070899;10.025552;0.2599024;-0.5636652;-0.09420413;-7.05;26.250002;-37.5;-;-;-;-;-;-;-;-;-
1531156156682;-;-;0.63707525;1.1831397;9.651929;0.19172543;-0.36126494;-0.10166098;-7.5000005;26.400002;-38.4;-;-;-;-;-;-;-;-;-
1531156156692;-;-;0.26345217;1.2837305;9.144185;0.026609454;-0.082165666;-0.06650725;-7.5000005;26.400002;-38.4;-;-;-;-;-;-;-;-;-
1531156156702;-;-;0.12454102;1.3795313;8.856783;-0.07885172;0.061645027;-0.031886157;-9.3;25.35;-39.300003;-;-;-;-;-;-;-;-;-
1531156156713;-;-;0.06706055;1.5232325;8.828042;-0.25302246;0.22889154;0.011257053;-9.3;25.35;-39.300003;-;-;-;-;-;-;-;-;-
1531156156723;-;-;0.1580713;1.7148341;9.211246;-0.34889627;0.31784114;0.04161709;-9.900001;25.050001;-40.95;-;-;-;-;-;-;-;-;-
1531156156744;-;-;0.2778223;1.8537452;10.020762;-0.3233299;0.38868123;0.052269734;-9.3;25.35;-38.850002;-;-;-;-;-;-;-;-;-
1531156156733;-;-;0.26345217;1.8202149;9.83874;-0.36167943;0.37589806;0.04374762;-9.900001;25.050001;-40.95;-;-;-;-;-;-;-;-;-
1531156156754;-;-;0.28740236;1.7579445;10.111773;-0.19656345;0.33648327;0.042682357;-9.3;25.35;-38.850002;-;-;-;-;-;-;-;-;-
1531156156764;-;-;0.28261232;1.7818946;9.901011;-0.11826651;0.30132955;0.025638122;-8.25;24.6;-40.5;-;-;-;-;-;-;-;-;-
1531156156775;-;-;0.1580713;1.9830762;9.474698;-0.037306417;0.21291257;0.002202305;-8.25;24.6;-40.5;-;-;-;-;-;-;-;-;-
1531156156785;-;-;0.10538086;2.0549269;9.182506;-0.019729549;0.14952934;-0.011646133;-8.55;25.35;-38.4;-;-;-;-;-;-;-;-;-
1531156156795;-;-;0.09101075;2.0309765;9.029224;-0.022925343;0.14047459;-0.012178765;-8.55;25.35;-38.4;-;-;-;-;-;-;-;-;-
1531156156805;-;-;-0.05269043;1.9878663;8.933423;-0.05541591;0.11650615;-0.014309294;-7.9500003;26.250002;-37.5;-;-;-;-;-;-;-;-;-
1531156156816;-;-;-0.22513184;2.1124072;9.091495;-0.09589595;0.06377556;-0.02283141;-7.9500003;26.250002;-37.5;-;-;-;-;-;-;-;-;-
1531156156826;-;-;-0.21555176;2.1650977;9.273516;-0.10974439;0.02542604;-0.0031240173;-7.2000003;27.000002;-38.850002;-;-;-;-;-;-;-;-;-
1531156156836;-;-;-0.0047900393;2.1459377;9.546548;-0.11347282;0.007316542;0.0011370406;-7.2000003;27.000002;-38.850002;-;-;-;-;-;-;-;-;-
1531156156847;-;-;0.19639161;2.3806496;9.75252;-0.109211765;0.044068165;-0.023896676;-6.7500005;26.7;-40.050003;-;-;-;-;-;-;-;-;-
1531156156857;-;-;0.1580713;2.3662794;9.718989;-0.1294518;0.104788244;-0.054789342;-6.7500005;26.7;-40.050003;-;-;-;-;-;-;-;-;-
1531156156867;-;-;0.0;2.3662794;9.651929;-0.16780132;0.15858409;-0.06757252;-6.4500003;25.050001;-38.100002;-;-;-;-;-;-;-;-;-
1531156156878;-;-;0.07185059;2.3327491;9.580078;-0.21733612;0.17509569;-0.069170415;-6.4500003;25.050001;-38.100002;-;-;-;-;-;-;-;-;-
1531156156887;-;-;0.1101709;2.308799;9.814791;-0.26260984;0.16923673;-0.08355148;-6.4500003;27.000002;-38.850002;-;-;-;-;-;-;-;-;-
1531156156897;-;-;0.13891114;2.323169;10.116563;-0.29296988;0.14580092;-0.11657468;-6.4500003;27.000002;-38.850002;-;-;-;-;-;-;-;-;-
1531156156907;-;-;0.13891114;2.42376;10.437495;-0.29403514;0.10105982;-0.15119578;-6.7500005;27.45;-39.300003;-;-;-;-;-;-;-;-;-
1531156156918;-;-;0.10538086;2.3758595;10.672208;-0.26793617;0.06643872;-0.17037055;-6.7500005;27.45;-39.300003;-;-;-;-;-;-;-;-;-
1531156156927;-;-;0.1341211;2.1507277;10.729688;-0.2237277;0.014240761;-0.17995793;-6.7500005;28.35;-39.300003;-;-;-;-;-;-;-;-;-
1531156156937;-;-;0.10538086;2.198628;10.95961;-0.16194236;-0.05233827;-0.18741478;-6.7500005;28.35;-39.300003;-;-;-;-;-;-;-;-;-
1531156156948;-;-;0.11496094;2.1124072;11.203902;-0.08684121;-0.11944993;-0.20339374;-7.5000005;25.95;-39.600002;-;-;-;-;-;-;-;-;-
1531156156958;-;-;0.1580713;2.074087;11.136841;-0.013870596;-0.17750685;-0.21031795;-7.5000005;25.95;-39.600002;-;-;-;-;-;-;-;-;-
1531156156968;-;-;0.24908204;2.0932472;10.791959;0.038859993;-0.19135529;-0.20712216;-7.5000005;27.000002;-39.600002;-;-;-;-;-;-;-;-;-
1531156156978;-;-;0.364043;2.0309765;10.672208;0.053241063;-0.17910475;-0.22682956;-7.5000005;27.000002;-39.600002;-;-;-;-;-;-;-;-;-
1531156156989;-;-;0.28261232;2.1507277;10.418335;0.04738211;-0.090155154;-0.25665694;-6.7500005;27.45;-40.050003;-;-;-;-;-;-;-;-;-
1531156156999;-;-;0.17244141;2.1555176;10.332115;0.031403143;-0.08163304;-0.27210328;-6.7500005;27.45;-40.050003;-;-;-;-;-;-;-;-;-
1531156157009;-;-;0.09101075;2.1555176;10.145303;-0.0026853192;-0.04488142;-0.28435382;-6.0;26.550001;-39.45;-;-;-;-;-;-;-;-;-
1531156157020;-;-;0.06706055;2.078877;10.020762;-0.041567475;-0.004401367;-0.27796224;-7.2000003;26.7;-38.850002;-;-;-;-;-;-;-;-;-
1531156157030;-;-;0.2682422;2.1219873;10.284214;-0.12092967;0.082950324;-0.28648436;-7.2000003;26.7;-38.850002;-;-;-;-;-;-;-;-;-
1531156157040;-;-;0.2921924;2.064507;10.533297;-0.15022445;0.12502825;-0.30672437;-8.25;26.7;-39.300003;-;-;-;-;-;-;-;-;-
1531156157050;-;-;0.22992188;1.8537452;10.98835;-0.16034447;0.12343037;-0.31950754;-8.25;26.7;-39.300003;-;-;-;-;-;-;-;-;-
1531156157061;-;-;0.22992188;1.6429834;11.194322;-0.1427676;0.10052718;-0.30139807;-8.25;26.7;-39.300003;-;-;-;-;-;-;-;-;-
1531156157070;-;-;0.24908204;1.4801221;11.606265;-0.06393802;0.02542604;-0.27636436;-7.9500003;26.550001;-39.9;-;-;-;-;-;-;-;-;-
1531156157080;-;-;0.32093263;1.4418018;11.864927;0.012228383;-0.027837185;-0.25346115;-6.0;26.85;-38.25;-;-;-;-;-;-;-;-;-
1531156157090;-;-;0.5125342;1.2502003;12.133169;0.1959865;-0.10879728;-0.19860005;-6.0;26.85;-38.25;-;-;-;-;-;-;-;-;-
1531156157101;-;-;0.50774413;1.1831397;12.090059;0.24765183;-0.14554891;-0.18901268;-7.05;25.500002;-39.9;-;-;-;-;-;-;-;-;-
1531156157112;-;-;0.8382569;1.0059083;11.5823145;0.3376667;-0.25047746;-0.18155582;-7.05;25.500002;-39.9;-;-;-;-;-;-;-;-;-
1531156157122;-;-;1.2358302;0.96758795;11.290123;0.32488352;-0.27870697;-0.21031795;-7.05;27.150002;-39.45;-;-;-;-;-;-;-;-;-
1531156157132;-;-;1.2502003;0.977168;11.328443;0.22208548;-0.3223828;-0.2838212;-7.05;27.150002;-39.45;-;-;-;-;-;-;-;-;-
1531156157142;-;-;1.341211;0.93405765;11.567945;0.15657172;-0.30800173;-0.33921495;-6.7500005;25.95;-41.25;-;-;-;-;-;-;-;-;-
1531156157153;-;-;1.4418018;0.7568262;11.917618;0.15657172;-0.27710906;-0.40526134;-6.7500005;25.95;-41.25;-;-;-;-;-;-;-;-;-
1531156157164;-;-;1.4897022;0.5364844;11.821816;0.22155285;-0.2360964;-0.47503617;-7.05;26.250002;-40.2;-;-;-;-;-;-;-;-;-
1531156157174;-;-;1.341211;0.37362307;11.390714;0.25084764;-0.20360583;-0.5528005;-7.05;26.250002;-40.2;-;-;-;-;-;-;-;-;-
1531156157185;-;-;1.0346485;0.28740236;10.720108;0.21196546;-0.17058262;-0.6177816;-6.7500005;24.6;-40.050003;-;-;-;-;-;-;-;-;-
1531156157195;-;-;0.732876;0.09580079;10.2315235;0.12940747;-0.16898473;-0.6614574;-6.7500005;24.6;-40.050003;-;-;-;-;-;-;-;-;-
1531156157205;-;-;0.44547364;-0.047900394;9.905801;0.020217868;-0.15353839;-0.667849;-6.6000004;25.2;-38.7;-;-;-;-;-;-;-;-;-
1531156157215;-;-;0.19160157;-0.23950197;10.030342;-0.0916349;-0.11785203;-0.6492069;-6.6000004;25.2;-38.7;-;-;-;-;-;-;-;-;-
1531156157225;-;-;0.14370118;-0.42152345;10.073453;-0.16034447;-0.049142476;-0.6337606;-6.7500005;24.6;-40.5;-;-;-;-;-;-;-;-;-
1531156157235;-;-;0.06227051;-0.5556446;10.298584;-0.2056182;0.06377556;-0.5996721;-6.7500005;24.6;-40.5;-;-;-;-;-;-;-;-;-
1531156157246;-;-;-0.15328126;-0.60354495;10.5764065;-0.19549818;0.20066203;-0.53415835;-7.05;25.2;-38.25;-;-;-;-;-;-;-;-;-
1531156157256;-;-;-0.43110353;-0.60833496;10.835069;-0.12838653;0.29014426;-0.446274;-7.05;25.2;-38.25;-;-;-;-;-;-;-;-;-
1531156157266;-;-;-0.5029541;-0.63707525;10.94524;0.019152602;0.33488536;-0.33282337;-5.55;24.45;-40.2;-;-;-;-;-;-;-;-;-
1531156157276;-;-;-0.38320315;-0.6849756;10.624307;0.214096;0.31624323;-0.21564429;-5.55;24.45;-40.2;-;-;-;-;-;-;-;-;-
1531156157287;-;-;-0.10538086;-0.51732427;10.202784;0.4042457;0.25339264;-0.10166098;-6.4500003;26.400002;-40.5;-;-;-;-;-;-;-;-;-
1531156157296;-;-;0.18681154;-0.22992188;9.445957;0.5453932;0.17083463;-0.041473538;-6.4500003;26.400002;-40.5;-;-;-;-;-;-;-;-;-
1531156157307;-;-;0.32572266;0.05269043;8.708291;0.61783123;0.057916604;-0.021766145;-3.6000001;24.750002;-39.45;-;-;-;-;-;-;-;-;-
1531156157316;-;-;0.5460645;0.28740236;8.143066;0.61037433;-0.060327753;-0.036147214;-3.6000001;24.750002;-39.45;-;-;-;-;-;-;-;-;-
1531156157327;-;-;0.6706055;0.4742139;7.6592727;0.5272837;-0.13755943;-0.0771599;-7.65;24.45;-40.2;-;-;-;-;-;-;-;-;-
1531156157336;-;-;0.74724615;0.57001466;7.4916215;0.41383308;-0.18602896;-0.1234989;-7.65;24.45;-40.2;-;-;-;-;-;-;-;-;-
1531156157346;-;-;0.8382569;0.71371585;7.6113725;0.27854452;-0.20893215;-0.16930528;-5.1000004;22.650002;-39.600002;-;-;-;-;-;-;-;-;-
1531156157356;-;-;1.0106983;0.7232959;7.774234;0.16882226;-0.17324579;-0.22949272;-5.1000004;22.650002;-39.600002;-;-;-;-;-;-;-;-;-
1531156157366;-;-;1.0298585;0.78556645;8.061636;0.055371594;-0.10560149;-0.28541908;-4.65;23.1;-39.45;-;-;-;-;-;-;-;-;-
1531156157377;-;-;0.8765772;0.7185059;8.387359;-0.028251665;-0.03582667;-0.3253665;-4.65;23.1;-39.45;-;-;-;-;-;-;-;-;-
1531156157387;-;-;0.6658155;0.6322852;8.804092;-0.086308576;0.044600796;-0.34720442;-3.9;22.35;-39.9;-;-;-;-;-;-;-;-;-
1531156157397;-;-;0.40715334;0.5843848;8.971744;-0.10441807;0.09573349;-0.33229074;-3.9;22.35;-39.9;-;-;-;-;-;-;-;-;-
1531156157408;-;-;0.033530276;0.56522465;8.995694;-0.060742233;0.044068165;-0.27316853;-5.1000004;23.550001;-38.4;-;-;-;-;-;-;-;-;-
1531156157418;-;-;0.0;0.6322852;8.737032;-0.020262182;-0.044348784;-0.21031795;-5.1000004;23.550001;-38.4;-;-;-;-;-;-;-;-;-
1531156157429;-;-;-0.023950197;0.8669971;8.5119;0.052175798;-0.26006484;-0.12136837;-3.9;23.400002;-41.100002;-;-;-;-;-;-;-;-;-
1531156157439;-;-;0.05748047;0.977168;8.205338;0.07827478;-0.39748394;-0.07023568;-3.9;23.400002;-41.100002;-;-;-;-;-;-;-;-;-
1531156157449;-;-;0.22992188;1.0777588;7.3766603;0.07241583;-0.68617064;0.02297496;-3.9;22.050001;-40.65;-;-;-;-;-;-;-;-;-
1531156157460;-;-;0.35925296;1.101709;7.175479;0.032468405;-0.76979387;0.053335;-4.8;22.2;-40.5;-;-;-;-;-;-;-;-;-
1531156157470;-;-;1.4178516;1.5088624;7.33355;-0.09483069;-0.74689066;0.021909699;-4.8;22.2;-40.5;-;-;-;-;-;-;-;-;-
1531156157481;-;-;1.8345851;1.7339942;8.119117;-0.16460553;-0.6132;-0.065974616;-6.15;22.95;-42.15;-;-;-;-;-;-;-;-;-
1531156157491;-;-;1.7435743;1.7531544;8.693921;-0.21893623;-0.4246415;-0.21297298;-6.15;22.95;-42.15;-;-;-;-;-;-;-;-;-
1531156157500;-;-;1.4130616;1.5807129;9.2256155;-0.22852361;-0.31385398;-0.28434572;-6.15;22.95;-42.15;-;-;-;-;-;-;-;-;-
1531156157510;-;-;0.68976563;0.977168;9.273516;-0.12199717;-0.08588739;-0.2971289;-7.2000003;23.25;-39.600002;-;-;-;-;-;-;-;-;-
1531156157521;-;-;0.2778223;0.8286768;9.0004835;-0.07832133;0.004127453;-0.24120249;-6.6000004;24.150002;-39.9;-;-;-;-;-;-;-;-;-
1531156157530;-;-;0.033530276;0.93405765;8.62207;-0.076723434;0.05579278;-0.13201289;-6.6000004;24.150002;-39.9;-;-;-;-;-;-;-;-;-
1531156157540;-;-;0.0;1.1543995;8.703502;-0.12199717;0.049401194;-0.06330334;-6.4500003;21.900002;-40.5;-;-;-;-;-;-;-;-;-
1531156157551;-;-;0.22992188;1.1591895;8.971744;-0.17472775;0.019573787;0.029374672;-6.4500003;21.900002;-40.5;-;-;-;-;-;-;-;-;-
1531156157560;-;-;0.4167334;1.22146;9.230406;-0.18111934;0.037683282;0.052810494;-6.4500003;21.900002;-40.5;-;-;-;-;-;-;-;-;-
1531156157570;-;-;0.93405765;1.2693604;9.910591;-0.14809614;0.052064355;0.068256825;-6.7500005;22.95;-40.050003;-;-;-;-;-;-;-;-;-
1531156157580;-;-;1.1064991;1.3939015;10.150093;-0.114540316;0.06910859;0.046418905;-6.3;23.85;-39.0;-;-;-;-;-;-;-;-;-
1531156157591;-;-;1.092129;1.4897022;10.269844;-0.08204976;0.07709807;0.029907303;-6.3;23.85;-39.0;-;-;-;-;-;-;-;-;-
1531156157601;-;-;0.9244776;1.5663428;10.308165;-0.023460208;0.106392846;0.032037836;-4.2000003;23.1;-38.7;-;-;-;-;-;-;-;-;-
1531156157612;-;-;0.8430469;1.6813037;9.953702;0.020215636;0.17776556;0.046951536;-4.2000003;23.1;-38.7;-;-;-;-;-;-;-;-;-
1531156157622;-;-;0.8286768;1.6286134;9.872271;0.024476694;0.19001609;0.053875756;-4.2000003;23.1;-38.7;-;-;-;-;-;-;-;-;-
1531156157631;-;-;0.7185059;1.8202149;9.800421;0.0074324626;0.2214414;0.07198525;-6.15;22.95;-41.25;-;-;-;-;-;-;-;-;-
1531156157641;-;-;0.5221143;1.9112257;9.73815;0.012758785;0.24114878;0.090094745;-5.55;24.150002;-40.65;-;-;-;-;-;-;-;-;-
1531156157652;-;-;0.488584;1.9064356;9.857901;0.017019842;0.2331593;0.10021476;-5.55;24.150002;-40.65;-;-;-;-;-;-;-;-;-
1531156157662;-;-;0.5412744;1.8920655;9.651929;-0.0016222852;0.1836245;0.13430323;-4.8;23.25;-40.5;-;-;-;-;-;-;-;-;-
1531156157673;-;-;0.7424561;2.0501368;9.6615095;-0.068733945;0.13835077;0.13323796;-4.8;23.25;-40.5;-;-;-;-;-;-;-;-;-
1531156157683;-;-;0.78556645;2.1076174;9.718989;-0.09057187;0.13675287;0.13270533;-4.9500003;23.1;-40.65;-;-;-;-;-;-;-;-;-
1531156157693;-;-;1.0490186;2.2177882;10.236314;-0.19230461;0.14634025;0.10074739;-4.9500003;23.1;-40.65;-;-;-;-;-;-;-;-;-
1531156157704;-;-;1.0777588;2.1555176;10.504556;-0.22372992;0.19161399;0.06772419;-4.9500003;22.35;-40.65;-;-;-;-;-;-;-;-;-
1531156157714;-;-;0.97237796;2.1555176;10.605147;-0.24077415;0.20865822;0.04055995;-4.9500003;22.35;-40.65;-;-;-;-;-;-;-;-;-
1531156157724;-;-;0.6322852;2.088457;10.93087;-0.24610047;0.2049298;0.024580983;-5.25;23.85;-41.550003;-;-;-;-;-;-;-;-;-
1531156157734;-;-;0.26345217;1.8010547;11.213482;-0.19976147;0.10586021;0.07251788;-5.25;23.85;-41.550003;-;-;-;-;-;-;-;-;-
1531156157744;-;-;0.2682422;1.5998731;11.290123;-0.18484777;0.062717;0.09329054;-5.4;22.650002;-42.15;-;-;-;-;-;-;-;-;-
1531156157755;-;-;0.46463382;1.2981006;11.668535;-0.07885396;-0.084822126;0.14016218;-5.4;22.650002;-42.15;-;-;-;-;-;-;-;-;-
1531156157765;-;-;0.5125342;1.1831397;11.936778;5.0824374E-4;-0.12796535;0.16306537;-5.25;23.400002;-41.850002;-;-;-;-;-;-;-;-;-
1531156157775;-;-;0.4023633;1.1400293;12.013418;0.066554636;-0.09547477;0.19928436;-5.25;23.400002;-41.850002;-;-;-;-;-;-;-;-;-
1531156157786;-;-;0.43589357;1.1256592;12.10922;0.08146834;-0.09014845;0.21100228;-6.15;23.550001;-40.95;-;-;-;-;-;-;-;-;-
1531156157796;-;-;0.40715334;1.0873389;11.850557;0.18692952;-0.09068108;0.30527815;-6.15;23.550001;-40.95;-;-;-;-;-;-;-;-;-
1531156157806;-;-;0.9244776;0.728086;11.658956;0.18053794;-0.19401173;0.32871398;-5.1000004;22.95;-42.45;-;-;-;-;-;-;-;-;-
1531156157817;-;-;1.6525636;0.3784131;11.496095;0.09691467;-0.37457404;0.28024444;-5.1000004;22.95;-42.45;-;-;-;-;-;-;-;-;-
1531156157827;-;-;2.2561085;0.05748047;12.17628;-0.122529805;-0.5338311;0.16785906;-5.25;24.150002;-41.100002;-;-;-;-;-;-;-;-;-
1531156157837;-;-;2.179468;-0.10538086;13.186978;-0.19443515;-0.5423532;0.08956211;-5.25;24.150002;-41.100002;-;-;-;-;-;-;-;-;-
1531156157847;-;-;1.3891114;-0.37362307;14.408438;-0.11613822;-0.4283699;0.049082067;-4.2000003;24.150002;-41.850002;-;-;-;-;-;-;-;-;-
1531156157858;-;-;0.8430469;-0.5604346;14.753321;0.06602201;-0.28242868;0.0778442;-5.4;23.25;-41.25;-;-;-;-;-;-;-;-;-
1531156157868;-;-;-0.014370117;-0.71371585;14.087505;0.4953236;-0.07363685;0.22538334;-5.4;23.25;-41.25;-;-;-;-;-;-;-;-;-
1531156157878;-;-;-0.3544629;-0.5460645;12.971426;0.75098705;0.030226432;0.34682348;-6.15;24.0;-41.7;-;-;-;-;-;-;-;-;-
1531156157889;-;-;-0.43110353;-0.29698244;10.466236;1.0822842;0.097338095;0.5668006;-6.15;24.0;-41.7;-;-;-;-;-;-;-;-;-
1531156157899;-;-;-0.21076173;-0.18681154;9.062755;1.1611139;0.032356963;0.65734804;-6.15;23.550001;-42.45;-;-;-;-;-;-;-;-;-
1531156157909;-;-;0.488584;-0.07664063;7.1323686;1.0540547;-0.2233065;0.72339445;-6.15;23.550001;-42.45;-;-;-;-;-;-;-;-;-
1531156157920;-;-;0.8765772;0.27303225;6.4330225;0.8356756;-0.4448815;0.68504494;-7.2000003;22.650002;-40.050003;-;-;-;-;-;-;-;-;-
1531156157929;-;-;1.5328126;0.8430469;6.332432;0.2753465;-0.6664565;0.508211;-7.2000003;22.650002;-40.050003;-;-;-;-;-;-;-;-;-
1531156157939;-;-;1.8154249;1.0442286;7.0078273;-0.044232864;-0.62491125;0.38943404;-6.7500005;21.150002;-42.45;-;-;-;-;-;-;-;-;-
1531156157950;-;-;2.0309765;0.7664063;8.828042;-0.43039122;-0.36551932;0.17105485;-6.7500005;21.150002;-42.45;-;-;-;-;-;-;-;-;-
1531156157959;-;-;1.4178516;0.5364844;9.833951;-0.55609244;-0.17430435;0.061865237;-6.6000004;21.0;-40.65;-;-;-;-;-;-;-;-;-
1531156157969;-;-;0.6322852;0.31135255;10.370435;-0.6018988;0.16871081;-0.006311686;-6.6000004;21.0;-40.65;-;-;-;-;-;-;-;-;-
1531156157980;-;-;-0.119750984;0.23950197;10.509346;-0.5587556;0.3583279;0.0331031;-8.25;21.6;-41.25;-;-;-;-;-;-;-;-;-
1531156157990;-;-;-0.43589357;0.17723145;10.140513;-0.44583663;0.52184314;0.18436727;-8.25;21.6;-41.25;-;-;-;-;-;-;-;-;-
1531156158000;-;-;-0.45984375;0.22513184;9.6758795;-0.41174817;0.5367569;0.24881577;-6.15;21.150002;-42.15;-;-;-;-;-;-;-;-;-
1531156158010;-;-;-0.21076173;0.4167334;9.129815;-0.3739313;0.44248098;0.35480958;-6.15;21.150002;-42.15;-;-;-;-;-;-;-;-;-
1531156158021;-;-;-0.086220704;0.5939649;9.340576;-0.39044288;0.343944;0.36599487;-6.3;22.800001;-41.550003;-;-;-;-;-;-;-;-;-
1531156158030;-;-;0.18681154;0.60833496;9.68067;-0.36168075;0.23209126;0.36279908;-6.3;22.800001;-41.550003;-;-;-;-;-;-;-;-;-
1531156158040;-;-;0.46463382;0.5364844;10.087823;-0.296167;0.17509961;0.3500159;-7.05;24.150002;-41.850002;-;-;-;-;-;-;-;-;-
1531156158051;-;-;0.68018556;0.488584;10.068663;-0.20135844;0.10639005;0.31326428;-7.05;24.150002;-41.850002;-;-;-;-;-;-;-;-;-
1531156158061;-;-;0.62749517;0.4406836;9.968072;-0.15874787;0.065910004;0.27811053;-5.1000004;24.300001;-41.25;-;-;-;-;-;-;-;-;-
1531156158071;-;-;0.7951465;0.5221143;10.039923;-0.09856042;0.04247418;0.22484732;-5.1000004;24.300001;-41.25;-;-;-;-;-;-;-;-;-
1531156158082;-;-;0.74724615;0.5412744;9.891431;-0.08311409;0.07549738;0.1896936;-7.8;23.25;-43.350002;-;-;-;-;-;-;-;-;-
1531156158092;-;-;0.7041358;0.46463382;9.642349;-0.085777245;0.11011848;0.15081143;-7.8;23.25;-43.350002;-;-;-;-;-;-;-;-;-
1531156158103;-;-;0.60354495;0.43110353;9.651929;-0.08737514;0.118640594;0.116190344;-7.9500003;22.800001;-41.850002;-;-;-;-;-;-;-;-;-
1531156158113;-;-;0.57001466;0.36883304;9.513018;-0.07405934;0.08561739;0.08796083;-7.9500003;22.800001;-41.850002;-;-;-;-;-;-;-;-;-
1531156158124;-;-;0.6179151;0.42152345;9.666299;-0.025057174;0.07816054;0.06559028;-7.3500004;25.2;-43.050003;-;-;-;-;-;-;-;-;-
1531156158134;-;-;0.79035646;0.45026368;9.718989;0.053772397;0.11491217;0.029903919;-7.3500004;25.2;-43.050003;-;-;-;-;-;-;-;-;-
1531156158145;-;-;0.76161623;0.5508545;9.469908;0.11981879;0.15059853;-0.0073803356;-5.25;22.35;-43.050003;-;-;-;-;-;-;-;-;-
1531156158155;-;-;0.5556446;0.5939649;9.077125;0.16935359;0.1916112;-0.0414688;-5.25;22.35;-43.050003;-;-;-;-;-;-;-;-;-
1531156158165;-;-;0.38320315;0.5891748;8.62207;0.19651783;0.23049337;-0.06596988;-7.3500004;24.750002;-41.550003;-;-;-;-;-;-;-;-;-
1531156158175;-;-;0.28261232;0.5460645;8.320298;0.20770311;0.26458183;-0.06437199;-7.3500004;24.750002;-41.550003;-;-;-;-;-;-;-;-;-
1531156158185;-;-;0.028740235;0.78556645;7.8412943;0.17947361;0.26511446;-0.054251973;-6.15;23.25;-42.9;-;-;-;-;-;-;-;-;-
1531156158196;-;-;-0.2203418;0.9053174;7.879615;0.16029884;0.22037335;-0.036675107;-6.15;23.25;-42.9;-;-;-;-;-;-;-;-;-
1531156158206;-;-;-0.1341211;1.0442286;7.8700347;0.15603778;0.1335543;-0.0020540133;-5.25;21.75;-43.5;-;-;-;-;-;-;-;-;-
1531156158216;-;-;0.12933107;1.0442286;8.104747;0.1645599;0.09147635;-0.004184542;-5.25;21.75;-43.5;-;-;-;-;-;-;-;-;-
1531156158227;-;-;0.50774413;1.2022998;8.200547;0.1826694;0.055789985;-0.061708823;-5.25;22.050001;-41.100002;-;-;-;-;-;-;-;-;-
1531156158236;-;-;0.50774413;1.2741505;8.205338;0.16828832;0.07017106;-0.11124362;-6.0;22.35;-40.65;-;-;-;-;-;-;-;-;-
1531156158246;-;-;0.21076173;1.2741505;8.224498;0.11981879;0.081888966;-0.15119103;-6.0;22.35;-40.65;-;-;-;-;-;-;-;-;-
1531156158257;-;-;0.17723145;1.3268409;8.416099;0.08146927;0.07709528;-0.14107102;-5.4;22.2;-41.7;-;-;-;-;-;-;-;-;-
1531156158266;-;-;0.17723145;1.3124708;8.875943;0.034597635;0.09413951;-0.13787523;-5.4;22.2;-41.7;-;-;-;-;-;-;-;-;-
1531156158276;-;-;0.22992188;1.2693604;9.091495;0.036728166;0.102661625;-0.12828785;-6.4500003;22.2;-41.25;-;-;-;-;-;-;-;-;-
1531156158287;-;-;0.28740236;1.3603711;9.163345;0.01169445;0.07443212;-0.15332156;-6.4500003;22.2;-41.25;-;-;-;-;-;-;-;-;-
1531156158297;-;-;0.244292;1.2502003;9.263936;-5.5609137E-4;0.06324684;-0.15971315;-5.4;22.2;-41.7;-;-;-;-;-;-;-;-;-
1531156158307;-;-;0.20597169;1.2022998;9.85311;-0.023459278;0.012646776;-0.18155107;-5.4;22.2;-41.7;-;-;-;-;-;-;-;-;-
1531156158317;-;-;0.2682422;1.2022998;10.274634;-0.0010887235;-0.045410138;-0.19486687;-5.4;22.2;-42.45;-;-;-;-;-;-;-;-;-
1531156158327;-;-;0.28261232;1.1783496;10.849439;0.07667558;-0.08109649;-0.23108587;-5.4;22.2;-42.45;-;-;-;-;-;-;-;-;-
1531156158338;-;-;0.25866213;1.0106983;10.916499;0.10650299;-0.08322702;-0.23854274;-5.25;23.85;-42.75;-;-;-;-;-;-;-;-;-
1531156158348;-;-;0.3544629;0.9148975;10.87818;0.11236194;-0.08802071;-0.22948799;-5.25;23.85;-42.75;-;-;-;-;-;-;-;-;-
1531156158359;-;-;0.46942386;0.75203615;10.863809;0.08839349;-0.07257438;-0.22469428;-5.1000004;22.2;-42.9;-;-;-;-;-;-;-;-;-
1531156158369;-;-;0.63707525;0.6993457;10.768008;-0.006415046;-0.029431172;-0.21777007;-5.1000004;22.2;-42.9;-;-;-;-;-;-;-;-;-
1531156158379;-;-;0.6610254;0.5891748;10.98356;-0.09536463;-0.004397456;-0.22362903;-4.65;22.050001;-42.300003;-;-;-;-;-;-;-;-;-
1531156158390;-;-;0.68018556;0.48379397;11.457774;-0.17366156;0.021168891;-0.21297637;-4.65;22.050001;-42.300003;-;-;-;-;-;-;-;-;-
1531156158400;-;-;0.6706055;0.57959473;11.702065;-0.17525946;0.065910004;-0.20605215;-4.8;19.800001;-44.100002;-;-;-;-;-;-;-;-;-
1531156158410;-;-;0.5029541;0.5843848;11.965518;-0.077787764;0.15645748;-0.15491948;-4.8;19.800001;-44.100002;-;-;-;-;-;-;-;-;-
1531156158420;-;-;0.20118165;0.732876;12.1235895;0.02607552;0.13142377;-0.073959365;-5.8500004;22.2;-42.15;-;-;-;-;-;-;-;-;-
1531156158431;-;-;0.24908204;0.92926764;12.482842;0.18533255;0.11278164;0.030436553;-5.8500004;22.2;-42.15;-;-;-;-;-;-;-;-;-
1531156158440;-;-;0.613125;0.92926764;12.760665;0.35684013;0.06324684;0.11033139;-5.4;22.650002;-44.100002;-;-;-;-;-;-;-;-;-
1531156158450;-;-;1.0681788;0.8861573;12.664864;0.63487417;-0.08695545;0.18276936;-5.4;22.650002;-44.100002;-;-;-;-;-;-;-;-;-
1531156158461;-;-;1.5136524;0.9867481;12.20502;0.8090449;-0.1886882;0.1896936;-5.8500004;20.85;-43.65;-;-;-;-;-;-;-;-;-
1531156158470;-;-;1.8058448;1.1304493;11.639795;0.89639664;-0.27390936;0.15507248;-5.8500004;20.85;-43.65;-;-;-;-;-;-;-;-;-
1531156158480;-;-;2.4860303;1.0298585;11.2374325;0.8820155;-0.39002317;0.057600796;-3.9;22.050001;-43.050003;-;-;-;-;-;-;-;-;-
1531156158490;-;-;3.056045;0.9915381;10.700948;0.74992186;-0.47204605;-0.11763216;-3.9;22.050001;-43.050003;-;-;-;-;-;-;-;-;-
1531156158501;-;-;3.1374757;0.93405765;10.394385;0.51716155;-0.4747092;-0.3498598;-4.9500003;21.45;-43.050003;-;-;-;-;-;-;-;-;-
1531156158511;-;-;2.931504;0.6658155;10.399176;0.24818233;-0.3207785;-0.5522601;-4.9500003;21.45;-43.050003;-;-;-;-;-;-;-;-;-
1531156158522;-;-;2.43813;0.3784131;10.518927;5.083367E-4;-0.08215924;-0.69234234;-5.25;18.6;-39.45;-;-;-;-;-;-;-;-;-
1531156158531;-;-;1.6238233;-0.06227051;10.494976;-0.19283716;0.18255898;-0.7503993;-5.25;18.6;-39.45;-;-;-;-;-;-;-;-;-
1531156158541;-;-;0.7759864;-0.34967285;10.293795;-0.31694046;0.4360919;-0.75146455;-4.2000003;20.7;-41.850002;-;-;-;-;-;-;-;-;-
1531156158552;-;-;0.3305127;-0.5221143;10.030342;-0.3702037;0.63369846;-0.67210233;-4.2000003;20.7;-41.850002;-;-;-;-;-;-;-;-;-
1531156158561;-;-;0.09580079;-0.56522465;9.575289;-0.39257425;0.677907;-0.59806645;-3.7500002;20.550001;-40.95;-;-;-;-;-;-;-;-;-
1531156158571;-;-;-0.09101075;-0.45026368;9.048384;-0.41228163;0.6672543;-0.47769153;-3.7500002;20.550001;-40.95;-;-;-;-;-;-;-;-;-
1531156158582;-;-;-0.07664063;-0.22513184;8.53106;-0.47673014;0.5660542;-0.3844809;-3.6000001;20.400002;-42.75;-;-;-;-;-;-;-;-;-
1531156158591;-;-;0.0;0.07664063;8.406519;-0.57100606;0.42756978;-0.3067166;-3.6000001;20.400002;-42.75;-;-;-;-;-;-;-;-;-
1531156158601;-;-;0.1341211;0.26345217;8.454419;-0.6237367;0.30027068;-0.28274816;-1.8000001;19.650002;-42.300003;-;-;-;-;-;-;-;-;-
1531156158612;-;-;-0.047900394;0.36883304;8.205338;-0.7164147;0.014779817;-0.23800704;-1.8000001;19.650002;-42.300003;-;-;-;-;-;-;-;-;-
1531156158622;-;-;-0.06706055;0.38320315;8.646021;-0.74624205;-0.17164145;-0.21616912;-2.8500001;19.95;-41.550003;-;-;-;-;-;-;-;-;-
1531156158633;-;-;-0.019160157;0.5556446;9.249566;-0.71747994;-0.4842966;-0.20019016;-2.8500001;19.95;-41.550003;-;-;-;-;-;-;-;-;-
1531156158644;-;-;0.14370118;0.51732427;9.74294;-0.61681247;-0.6952189;-0.18154803;0.75;20.400002;-41.550003;-;-;-;-;-;-;-;-;-
1531156158654;-;-;0.19160157;0.4742139;9.718989;-0.4564901;-0.86246544;-0.16876486;0.75;20.400002;-41.550003;-;-;-;-;-;-;-;-;-
1531156158664;-;-;0.38320315;0.5891748;9.604029;-0.3009615;-0.9093371;-0.14692694;-2.5500002;20.400002;-42.300003;-;-;-;-;-;-;-;-;-
1531156158675;-;-;0.22992188;0.64186525;9.5561285;-0.24450248;-0.8257138;-0.12082795;-2.5500002;20.400002;-42.300003;-;-;-;-;-;-;-;-;-
1531156158685;-;-;0.1341211;0.6610254;9.627979;-0.20721823;-0.6382273;-0.040933117;-3.15;21.0;-43.95;-;-;-;-;-;-;-;-;-
1531156158695;-;-;0.22513184;0.613125;9.690249;-0.16993397;-0.49494922;0.011797471;-1.6500001;20.550001;-43.350002;-;-;-;-;-;-;-;-;-
1531156158705;-;-;0.36883304;0.60354495;9.70941;-0.048493825;-0.22383942;0.10287758;-1.6500001;20.550001;-43.350002;-;-;-;-;-;-;-;-;-
1531156158716;-;-;0.5460645;0.5987549;9.632769;0.026607316;-0.088550836;0.13163972;-3.6000001;20.7;-42.300003;-;-;-;-;-;-;-;-;-
1531156158726;-;-;0.64186525;0.9388477;9.220825;0.15284115;0.11811047;0.14974922;-3.6000001;20.7;-42.300003;-;-;-;-;-;-;-;-;-
1531156158737;-;-;0.6993457;0.977168;9.010064;0.18053803;0.18042845;0.15294501;-3.6000001;21.0;-43.050003;-;-;-;-;-;-;-;-;-
1531156158747;-;-;0.7664063;1.2981006;8.56938;0.20450649;0.239018;0.1279113;-3.6000001;21.0;-43.050003;-;-;-;-;-;-;-;-;-
1531156158757;-;-;1.0154883;1.2645704;8.152647;0.1933212;0.25712746;0.105540745;-3.7500002;20.85;-40.95;-;-;-;-;-;-;-;-;-
1531156158768;-;-;1.0394385;1.3843213;7.798184;0.12674217;0.22197376;0.032037497;-3.7500002;20.85;-40.95;-;-;-;-;-;-;-;-;-
1531156158778;-;-;0.98195803;1.4513819;7.8604546;0.06815263;0.17616738;-0.0127036115;-3.15;20.400002;-43.95;-;-;-;-;-;-;-;-;-
1531156158788;-;-;0.8143067;1.3986914;8.171807;-0.022394849;0.05845566;-0.06756473;-3.15;20.400002;-43.95;-;-;-;-;-;-;-;-;-
1531156158799;-;-;0.7664063;1.4178516;8.5119;-0.066603325;-1.338839E-4;-0.08673949;-4.2000003;21.75;-42.75;-;-;-;-;-;-;-;-;-
1531156158809;-;-;0.6849756;1.3699512;9.062755;-0.072462276;-0.05606027;-0.09632687;-4.2000003;21.75;-42.75;-;-;-;-;-;-;-;-;-
1531156158818;-;-;0.60354495;1.3076807;9.278306;-0.04902646;-0.061919224;-0.08940265;-2.8500001;21.45;-43.050003;-;-;-;-;-;-;-;-;-
1531156158828;-;-;0.50774413;1.3651612;9.666299;0.02021573;-0.01824338;-0.047324706;-2.8500001;21.45;-43.050003;-;-;-;-;-;-;-;-;-
1531156158839;-;-;0.50774413;1.4609619;9.599238;0.10916531;0.053129338;6.121944E-4;-3.3000002;21.150002;-42.45;-;-;-;-;-;-;-;-;-
1531156158849;-;-;0.5221143;1.5232325;9.436378;0.18426646;0.065912515;0.027243806;-3.3000002;21.150002;-42.45;-;-;-;-;-;-;-;-;-
1531156158859;-;-;0.5221143;1.6381935;9.278306;0.20930018;0.045139857;0.036298554;-2.7;20.550001;-42.9;-;-;-;-;-;-;-;-;-
1531156158869;-;-;0.57959473;1.710044;9.369317;0.19438647;-0.037418142;0.016591161;-2.7;20.550001;-42.9;-;-;-;-;-;-;-;-;-
1531156158880;-;-;0.6514453;1.7531544;9.75252;0.1784075;-0.093344525;0.018189058;-4.2000003;19.95;-41.550003;-;-;-;-;-;-;-;-;-
1531156158889;-;-;0.6945557;1.710044;10.159674;0.19278857;-0.17963094;0.012862735;-4.2000003;19.95;-41.550003;-;-;-;-;-;-;-;-;-
1531156158900;-;-;0.7759864;1.6334034;10.365645;0.22527914;-0.18921831;0.02085222;-3.15;20.400002;-43.050003;-;-;-;-;-;-;-;-;-
1531156158910;-;-;0.79993653;1.719624;10.528506;0.2641613;-0.17590252;0.026711173;-3.15;20.400002;-43.050003;-;-;-;-;-;-;-;-;-
1531156158921;-;-;0.86220706;1.7579445;10.461446;0.29984766;-0.14500985;0.041092243;-3.3000002;20.25;-40.95;-;-;-;-;-;-;-;-;-
1531156158931;-;-;1.0777588;1.7627344;10.437495;0.30943504;-0.11837824;0.040559612;-3.3000002;20.25;-40.95;-;-;-;-;-;-;-;-;-
1531156158941;-;-;1.336421;1.7531544;10.494976;0.2955866;-0.093344525;0.038961716;-2.1000001;21.45;-41.850002;-;-;-;-;-;-;-;-;-
1531156158951;-;-;1.7244141;1.6477735;10.624307;0.27055287;-0.12796561;7.956219E-5;-2.1000001;21.45;-41.850002;-;-;-;-;-;-;-;-;-
1531156158961;-;-;1.8776954;1.6046631;10.672208;0.19864753;-0.1359551;-0.083543696;-1.5;18.6;-41.550003;-;-;-;-;-;-;-;-;-
1531156158971;-;-;1.5950831;1.5376027;11.112891;0.083598964;-0.15619512;-0.15917747;-1.5;18.6;-41.550003;-;-;-;-;-;-;-;-;-
1531156158982;-;-;1.2502003;1.3555812;11.735597;0.003171498;-0.15672775;-0.22362597;-4.8;20.25;-40.95;-;-;-;-;-;-;-;-;-
1531156158992;-;-;0.7568262;1.0298585;12.731924;0.040453617;-0.06457596;-0.22894451;-4.8;20.25;-40.95;-;-;-;-;-;-;-;-;-
1531156159002;-;-;0.1580713;0.9627979;13.297149;0.21249382;0.15273799;-0.19272552;-2.5500002;18.6;-42.300003;-;-;-;-;-;-;-;-;-
1531156159013;-;-;-0.74724615;0.79993653;13.000167;0.41329616;0.36579087;-0.06116536;-2.5500002;18.6;-42.300003;-;-;-;-;-;-;-;-;-
1531156159022;-;-;-0.9963282;0.613125;12.415782;0.5368669;0.48296997;0.103950635;-2.7;18.75;-39.600002;-;-;-;-;-;-;-;-;-
1531156159032;-;-;-0.92926764;0.32093263;11.620635;0.52142054;0.47284997;0.27439293;-2.7;18.75;-39.600002;-;-;-;-;-;-;-;-;-
1531156159043;-;-;-0.25866213;0.2921924;11.184742;0.33393398;0.28270027;0.41394258;-2.7;18.75;-40.050003;-;-;-;-;-;-;-;-;-
1531156159052;-;-;0.19639161;0.33530274;11.438614;0.2188854;0.1841633;0.46986896;-2.7;18.75;-40.050003;-;-;-;-;-;-;-;-;-
1531156159063;-;-;0.89573735;0.4263135;11.927197;0.13845794;0.082430534;0.4688037;-3.3000002;18.45;-40.050003;-;-;-;-;-;-;-;-;-
1531156159074;-;-;1.21188;0.3784131;12.16191;0.152839;0.066451564;0.42139944;-4.2000003;19.050001;-41.100002;-;-;-;-;-;-;-;-;-
1531156159084;-;-;0.92926764;0.4167334;11.893667;0.24977808;0.15327063;0.31274247;-4.2000003;19.050001;-41.100002;-;-;-;-;-;-;-;-;-
1531156159094;-;-;0.5125342;0.42152345;11.481724;0.32115078;0.2321002;0.29463297;-3.9;18.6;-41.550003;-;-;-;-;-;-;-;-;-
1531156159104;-;-;-0.033530276;0.43110353;10.279425;0.36482665;0.3444856;0.32286248;-3.9;18.6;-41.550003;-;-;-;-;-;-;-;-;-
1531156159114;-;-;-0.05748047;0.43589357;9.6615095;0.34671715;0.35673615;0.37186465;-2.5500002;18.0;-42.300003;-;-;-;-;-;-;-;-;-
1531156159125;-;-;0.2778223;0.5987549;8.684341;0.16881798;0.27044973;0.40009415;-2.5500002;18.0;-42.300003;-;-;-;-;-;-;-;-;-
1531156159135;-;-;0.5891748;0.732876;8.51669;-0.009613813;0.12930217;0.35535303;-2.1000001;17.550001;-41.100002;-;-;-;-;-;-;-;-;-
1531156159145;-;-;0.96758795;0.9244776;9.115445;-0.3430416;-0.13594867;0.20035706;-2.1000001;17.550001;-41.100002;-;-;-;-;-;-;-;-;-
1531156159156;-;-;1.0250684;0.852627;9.963282;-0.48472178;-0.26910672;0.09809168;-3.9;19.050001;-41.550003;-;-;-;-;-;-;-;-;-
1531156159165;-;-;1.0873389;0.40715334;11.112891;-0.5933787;-0.38362265;-0.045719024;-3.9;19.050001;-41.550003;-;-;-;-;-;-;-;-;-
1531156159176;-;-;1.0585986;0.22513184;11.4625635;-0.59178084;-0.39693847;-0.08779697;-3.6000001;18.300001;-41.100002;-;-;-;-;-;-;-;-;-
1531156159185;-;-;0.5939649;-0.038320314;11.908037;-0.5315934;-0.36657843;-0.15650654;-3.6000001;18.300001;-41.100002;-;-;-;-;-;-;-;-;-
1531156159195;-;-;0.38320315;-0.17723145;11.831397;-0.4458396;-0.26484567;-0.15863706;-4.8;20.25;-40.95;-;-;-;-;-;-;-;-;-
1531156159206;-;-;-0.32093263;-0.39278322;11.146421;-0.2833868;-0.009182206;-0.048914816;-4.8;20.25;-40.95;-;-;-;-;-;-;-;-;-
1531156159216;-;-;-0.4167334;-0.35925296;10.696157;-0.21627513;0.123443216;0.047491618;-3.9;20.7;-41.550003;-;-;-;-;-;-;-;-;-
1531156159227;-;-;-0.6179151;-0.34967285;9.6615095;-0.14223924;0.24754654;0.20248759;-3.9;20.7;-41.550003;-;-;-;-;-;-;-;-;-
1531156159237;-;-;-0.57001466;-0.15328126;8.995694;-0.11880342;0.2752434;0.3068835;-2.8500001;19.650002;-41.550003;-;-;-;-;-;-;-;-;-
1531156159247;-;-;-0.6514453;0.014370117;8.703502;-0.10921604;0.20387068;0.41660574;-2.8500001;19.650002;-41.550003;-;-;-;-;-;-;-;-;-
1531156159257;-;-;-0.5364844;0.17244141;8.751402;-0.10016129;0.11279057;0.4672058;-4.3500004;20.25;-39.600002;-;-;-;-;-;-;-;-;-
1531156159268;-;-;-0.3879932;0.26345217;8.919053;-0.028788572;-0.074695975;0.5316543;-4.3500004;20.25;-39.600002;-;-;-;-;-;-;-;-;-
1531156159278;-;-;-0.17244141;0.32093263;9.062755;0.08412946;-0.14660132;0.57533014;-3.9;19.650002;-42.75;-;-;-;-;-;-;-;-;-
1531156159288;-;-;0.033530276;0.32093263;9.067544;0.20343907;-0.19400558;0.6078207;-3.9;19.650002;-42.75;-;-;-;-;-;-;-;-;-
1531156159299;-;-;-0.07664063;0.3879932;9.019644;0.30250865;-0.25152987;0.6355176;-3.3000002;20.550001;-41.7;-;-;-;-;-;-;-;-;-
1531156159309;-;-;-0.043110352;0.44547364;8.880733;0.42075303;-0.29786888;0.6605513;-3.3000002;20.550001;-41.7;-;-;-;-;-;-;-;-;-
1531156159319;-;-;0.07664063;0.47900394;8.727451;0.48892996;-0.2770962;0.69250923;-5.25;21.0;-41.850002;-;-;-;-;-;-;-;-;-
1531156159329;-;-;0.35925296;0.39278322;8.301138;0.5608353;-0.22010456;0.72073877;-5.25;21.0;-41.850002;-;-;-;-;-;-;-;-;-
1531156159340;-;-;0.45505372;0.52690434;8.085587;0.5565743;-0.20838666;0.72606504;-5.4;20.85;-42.15;-;-;-;-;-;-;-;-;-
1531156159349;-;-;0.81909674;0.57001466;7.6161623;0.48094046;-0.14340553;0.69943345;-5.4;20.85;-42.15;-;-;-;-;-;-;-;-;-
1531156159360;-;-;1.1496094;0.78556645;7.472461;0.41329616;-0.09120757;0.6600187;-5.55;20.7;-43.5;-;-;-;-;-;-;-;-;-
1531156159370;-;-;1.3939015;1.0154883;7.6161623;0.20130855;0.007862025;0.479989;-5.55;20.7;-43.5;-;-;-;-;-;-;-;-;-
1531156159380;-;-;1.096919;0.9580079;8.253238;0.09424947;0.031297844;0.3660057;-6.3;19.35;-41.550003;-;-;-;-;-;-;-;-;-
1531156159391;-;-;0.7232959;0.9244776;8.789722;0.07241155;0.023840992;0.30475298;-6.3;19.35;-41.550003;-;-;-;-;-;-;-;-;-
1531156159401;-;-;0.5460645;1.0106983;8.875943;0.12460951;0.051537868;0.2903719;-7.5000005;20.550001;-40.5;-;-;-;-;-;-;-;-;-
1531156159411;-;-;0.43110353;0.97237796;8.804092;0.17627482;0.101605296;0.29410034;-7.5000005;20.550001;-40.5;-;-;-;-;-;-;-;-;-
1531156159422;-;-;0.40715334;1.0777588;8.368198;0.19331905;0.18948962;0.30315506;-5.8500004;19.800001;-40.95;-;-;-;-;-;-;-;-;-
1531156159432;-;-;0.53169435;1.1639795;8.195757;0.16295902;0.23795915;0.30794877;-5.8500004;19.800001;-40.95;-;-;-;-;-;-;-;-;-
1531156159442;-;-;0.6179151;1.2597803;7.8365045;0.06708523;0.2901571;0.288774;-6.0;19.35;-39.9;-;-;-;-;-;-;-;-;-
1531156159453;-;-;0.732876;1.336421;7.879615;-0.0010916974;0.2933529;0.25841397;-6.0;19.35;-39.9;-;-;-;-;-;-;-;-;-
1531156159463;-;-;0.67539555;1.6094532;8.349038;-0.09110654;0.2486118;0.19662863;-6.6000004;20.400002;-39.9;-;-;-;-;-;-;-;-;-
1531156159474;-;-;0.74724615;1.6717237;8.943004;-0.09962866;0.2171865;0.18757388;-6.7500005;19.800001;-40.5;-;-;-;-;-;-;-;-;-
1531156159484;-;-;1.0059083;1.719624;10.715318;0.026072547;0.09574634;0.17372544;-6.7500005;19.800001;-40.5;-;-;-;-;-;-;-;-;-
1531156159495;-;-;1.1112891;1.7435743;11.02188;0.18319905;0.048874706;0.14336541;-6.6000004;19.050001;-40.2;-;-;-;-;-;-;-;-;-
1531156159504;-;-;1.2933106;1.9160157;10.873389;0.52195036;-0.0038475036;0.07306812;-6.6000004;19.050001;-40.2;-;-;-;-;-;-;-;-;-
1531156159515;-;-;1.3986914;1.8633252;10.552457;0.615161;-0.012902251;0.010750148;-5.4;20.25;-40.050003;-;-;-;-;-;-;-;-;-
1531156159525;-;-;1.21188;1.7627344;9.896221;0.574681;-0.06137178;-0.06488363;-5.4;20.25;-40.050003;-;-;-;-;-;-;-;-;-
1531156159535;-;-;0.847837;1.6573536;9.74773;0.46921977;-0.09119919;-0.09364577;-7.8;19.2;-40.5;-;-;-;-;-;-;-;-;-
1531156159546;-;-;0.68018556;1.7483643;10.150093;0.21621946;-0.010239091;-0.07979733;-7.8;19.2;-40.5;-;-;-;-;-;-;-;-;-
1531156159556;-;-;0.9053174;1.7435743;10.844649;0.11874777;0.12398423;-0.057959408;-6.3;19.050001;-39.45;-;-;-;-;-;-;-;-;-
1531156159567;-;-;1.3939015;1.8824854;11.639795;0.014884481;0.39828983;-0.040382545;-6.3;19.050001;-39.45;-;-;-;-;-;-;-;-;-
1531156159577;-;-;1.8058448;1.8729054;11.955938;-0.0074860714;0.56660163;-0.054763615;-6.4500003;17.400002;-38.850002;-;-;-;-;-;-;-;-;-
1531156159588;-;-;1.5519727;1.719624;11.817027;0.010090792;0.7658061;-0.08459102;-6.4500003;17.400002;-38.850002;-;-;-;-;-;-;-;-;-
1531156159598;-;-;0.9963282;1.8202149;11.558365;0.06601718;0.8387767;-0.069677316;-6.15;18.150002;-40.5;-;-;-;-;-;-;-;-;-
1531156159609;-;-;0.3544629;2.1124072;11.045831;0.12993304;0.78338295;-0.008424612;-6.15;18.150002;-40.5;-;-;-;-;-;-;-;-;-
1531156159619;-;-;-0.05748047;2.2800586;10.753638;0.18426153;0.55967736;0.1140808;-5.4;19.5;-39.600002;-;-;-;-;-;-;-;-;-
1531156159629;-;-;-0.05748047;2.327959;10.657837;0.22367631;0.2592728;0.21048723;-5.4;19.5;-39.600002;-;-;-;-;-;-;-;-;-
1531156159640;-;-;0.32572266;2.2129982;10.705738;0.27534166;-0.047523346;0.26960942;-5.1000004;18.45;-40.95;-;-;-;-;-;-;-;-;-
1531156159650;-;-;0.90052736;2.2417383;10.605147;0.3222133;-0.28401205;0.27546838;-5.1000004;18.45;-40.95;-;-;-;-;-;-;-;-;-
1531156159660;-;-;1.6860938;2.4189699;10.437495;0.3158217;-0.4496607;0.22540094;-4.65;18.300001;-40.2;-;-;-;-;-;-;-;-;-
1531156159671;-;-;2.189048;2.43813;10.408755;0.2582974;-0.5881451;0.10183026;-4.65;18.300001;-40.2;-;-;-;-;-;-;-;-;-
1531156159681;-;-;2.42855;2.2608986;10.298584;0.1192804;-0.62116826;-0.1373216;-5.4;18.150002;-41.25;-;-;-;-;-;-;-;-;-
1531156159690;-;-;2.2513185;2.0549269;10.413546;0.01701501;-0.6025261;-0.26142493;-5.4;18.150002;-41.25;-;-;-;-;-;-;-;-;-
1531156159700;-;-;2.0166066;1.6286134;10.547667;-0.11294725;-0.54020816;-0.39724615;-6.15;17.85;-39.300003;-;-;-;-;-;-;-;-;-
1531156159711;-;-;1.710044;1.2981006;10.691368;-0.23119162;-0.45818278;-0.4691515;-6.15;17.85;-39.300003;-;-;-;-;-;-;-;-;-
1531156159721;-;-;1.1591895;0.8669971;10.6817875;-0.3515665;-0.36337426;-0.5133599;-5.4;18.75;-38.850002;-;-;-;-;-;-;-;-;-
1531156159732;-;-;0.71371585;0.6706055;10.868599;-0.38885075;-0.34846056;-0.52880627;-5.4;18.75;-38.850002;-;-;-;-;-;-;-;-;-
1531156159742;-;-;0.1101709;0.3784131;11.00751;-0.36914334;-0.3537869;-0.47873887;-6.4500003;17.85;-40.5;-;-;-;-;-;-;-;-;-
1531156159753;-;-;-0.07664063;0.2203418;11.064991;-0.31481487;-0.38467956;-0.41215983;-4.65;19.050001;-40.65;-;-;-;-;-;-;-;-;-
1531156159763;-;-;0.14849122;0.10538086;10.950029;-0.20988633;-0.44806278;-0.27580598;-4.65;19.050001;-40.65;-;-;-;-;-;-;-;-;-
1531156159773;-;-;0.5556446;0.19160157;10.873389;-0.1747326;-0.4848144;-0.21668382;-5.55;19.050001;-40.2;-;-;-;-;-;-;-;-;-
1531156159783;-;-;1.5567628;0.5364844;10.758429;-0.14756836;-0.43954065;-0.20390064;-5.55;19.050001;-40.2;-;-;-;-;-;-;-;-;-
1531156159793;-;-;2.0118165;0.75203615;10.538086;-0.1566231;-0.38840798;-0.25503334;-6.0;17.25;-39.45;-;-;-;-;-;-;-;-;-
1531156159804;-;-;2.3423293;0.8047266;9.934542;-0.240779;-0.26909834;-0.45690095;-6.0;17.25;-39.45;-;-;-;-;-;-;-;-;-
1531156159814;-;-;2.203418;0.7232959;9.6615095;-0.29990116;-0.20571512;-0.55969894;-5.4;17.85;-38.850002;-;-;-;-;-;-;-;-;-
1531156159824;-;-;1.5280225;0.7376661;9.307046;-0.4064276;-0.122624494;-0.69924855;-5.4;17.85;-38.850002;-;-;-;-;-;-;-;-;-
1531156159835;-;-;0.81909674;0.6514453;9.5561285;-0.49324664;-0.115700275;-0.7519792;-5.8500004;17.400002;-40.95;-;-;-;-;-;-;-;-;-
1531156159845;-;-;0.22513184;0.38320315;10.011182;-0.49271402;-0.044860184;-0.73120654;-5.8500004;17.400002;-40.95;-;-;-;-;-;-;-;-;-
1531156159855;-;-;0.0;0.081430666;10.126143;-0.45223397;-0.0107717225;-0.6561054;-6.15;19.5;-40.050003;-;-;-;-;-;-;-;-;-
1531156159866;-;-;-0.081430666;0.09101075;10.260264;-0.3190759;0.0440894;-0.49684837;-6.15;19.5;-40.050003;-;-;-;-;-;-;-;-;-
1531156159875;-;-;-0.043110352;0.2778223;10.130933;-0.20722316;0.088297874;-0.40417036;-6.3;19.35;-39.9;-;-;-;-;-;-;-;-;-
1531156159885;-;-;0.13891114;0.5508545;9.83874;-0.0037576463;0.1879001;-0.28965443;-6.3;19.35;-39.9;-;-;-;-;-;-;-;-;-
1531156159896;-;-;0.3065625;0.68018556;9.244776;0.124074094;0.25607702;-0.23585857;-4.3500004;20.25;-41.25;-;-;-;-;-;-;-;-;-
1531156159906;-;-;0.38320315;0.68018556;8.377779;0.27480903;0.33437395;-0.15809427;-4.3500004;20.25;-41.25;-;-;-;-;-;-;-;-;-
1531156159917;-;-;0.43110353;0.91010743;7.5299416;0.31688696;0.37751716;-0.12933213;-4.9500003;19.95;-39.45;-;-;-;-;-;-;-;-;-
1531156159926;-;-;0.4981641;1.0825489;6.710845;0.30996275;0.42385617;-0.08459102;-4.9500003;19.95;-39.45;-;-;-;-;-;-;-;-;-
1531156159937;-;-;0.57959473;1.2358302;6.1935205;0.25084057;0.4494225;-0.07447101;-4.05;18.45;-40.050003;-;-;-;-;-;-;-;-;-
1531156159947;-;-;0.6562354;1.5184424;5.9396486;0.08093088;0.4078772;-0.058492042;-4.05;18.45;-40.050003;-;-;-;-;-;-;-;-;-
1531156159957;-;-;0.62749517;1.7387843;6.351592;-0.0873809;0.3466245;-0.07606891;-5.4;18.150002;-40.95;-;-;-;-;-;-;-;-;-
1531156159968;-;-;0.68976563;1.7531544;6.7635355;-0.23012635;0.2587402;-0.087786816;-5.4;18.150002;-40.95;-;-;-;-;-;-;-;-;-
1531156159979;-;-;1.1448194;1.6477735;7.846084;-0.32120645;0.21666224;-0.10323315;-3.9;18.6;-41.100002;-;-;-;-;-;-;-;-;-
1531156159989;-;-;1.1783496;1.4801221;8.56938;-0.31641275;0.18417168;-0.13838688;-3.9;18.6;-41.100002;-;-;-;-;-;-;-;-;-
1531156160001;-;-;1.092129;1.719624;9.139395;-0.24238023;0.20708491;-0.1650063;-3.3000002;19.800001;-40.5;-;-;-;-;-;-;-;-;-
1531156160011;-;-;0.9580079;1.8776954;9.263936;-0.13425589;0.2598155;-0.18577896;-3.3000002;19.800001;-40.5;-;-;-;-;-;-;-;-;-
1531156160021;-;-;0.92926764;2.0166066;8.780142;-0.027729442;0.29496926;-0.2113453;-3.3000002;18.45;-41.25;-;-;-;-;-;-;-;-;-
1531156160032;-;-;0.8047266;2.0932472;8.416099;-0.030925235;0.29390398;-0.24596639;-2.5500002;20.7;-41.550003;-;-;-;-;-;-;-;-;-
1531156160042;-;-;0.52690434;2.1267774;8.162227;-0.1294622;0.20921545;-0.30029488;-2.5500002;20.7;-41.550003;-;-;-;-;-;-;-;-;-
1531156160052;-;-;0.18681154;2.088457;8.5119;-0.21255283;0.16021328;-0.31148016;-2.4;20.25;-40.050003;-;-;-;-;-;-;-;-;-
