TimeStamp[ms];Prox[Cm];Lux[lux];AccX[m/s^2];AccY[m/s^2];AccZ[m/s^2];GyroX[rad/s];GyroY[rad/s];GyroZ[rad/s];MagnX[uT];MagnY[uT];MagnZ[uT];OrienYaw[degrees];OrienPitch[degrees];OrienRoll[degrees];Press[Pa];Temp[C°];Batt[%];Lat;Lng;Speed[m/s]
1531156231050;-;-;-0.47900394;0.7807764;9.479487;0.13206968;-0.08099518;0.10436909;13.650001;57.9;-40.050003;-;-;-;-;-;-;-;-;-
1531156231051;-;-;-0.50774413;0.71371585;9.431587;0.11715597;-0.07194044;0.10330382;13.650001;57.9;-40.050003;-;-;-;-;-;-;-;-;-
1531156231055;-;-;-0.50774413;0.75203615;9.417217;0.09212225;-0.074603595;0.10436909;13.650001;57.9;-40.050003;-;-;-;-;-;-;-;-;-
1531156231067;-;-;-0.6658155;0.7951465;9.292676;-0.018665252;-0.04584145;0.1278049;14.85;57.45;-43.050003;-;-;-;-;-;-;-;-;-
1531156231073;-;-;-0.6658155;0.9148975;9.393267;-0.07618953;-0.039449867;0.1427186;14.85;57.45;-43.050003;-;-;-;-;-;-;-;-;-
1531156231083;-;-;-0.62749517;0.91010743;9.536968;-0.124126434;-0.034123544;0.15550177;14.85;56.7;-43.050003;-;-;-;-;-;-;-;-;-
1531156231093;-;-;-0.38320315;0.93405765;9.7621;-0.19283599;-0.018677209;0.1395228;14.85;56.7;-43.050003;-;-;-;-;-;-;-;-;-
1531156231103;-;-;-0.26345217;0.98195803;9.800421;-0.1965644;0.012748092;0.1310007;14.400001;57.600002;-42.15;-;-;-;-;-;-;-;-;-
1531156231113;-;-;-0.12933107;0.89573735;9.924961;-0.21254338;0.039912336;0.10969541;14.400001;57.600002;-42.15;-;-;-;-;-;-;-;-;-
1531156231123;-;-;-0.43589357;1.0106983;10.207574;-0.20508653;0.0068891384;0.094781704;13.500001;57.45;-43.5;-;-;-;-;-;-;-;-;-
1531156231134;-;-;-0.42152345;0.89573735;10.365645;-0.16354121;-0.066614114;0.08093327;13.500001;57.45;-43.5;-;-;-;-;-;-;-;-;-
1531156231144;-;-;-0.27303225;0.8813672;10.437495;-0.12892012;-0.12999734;0.06548694;13.05;58.65;-45.0;-;-;-;-;-;-;-;-;-
1531156231154;-;-;-0.014370117;0.8430469;10.150093;-0.07885269;-0.21947956;0.008495286;13.05;58.65;-45.0;-;-;-;-;-;-;-;-;-
1531156231164;-;-;-0.06706055;0.847837;9.78605;-0.09323098;-0.24611956;-0.020277008;13.500001;57.45;-41.550003;-;-;-;-;-;-;-;-;-
1531156231174;-;-;-0.34488282;0.9627979;9.479487;-0.16779949;-0.223749;-0.050104413;13.500001;57.45;-41.550003;-;-;-;-;-;-;-;-;-
1531156231184;-;-;-0.5412744;0.9963282;9.6758795;-0.23970483;-0.2647617;-0.050104413;14.400001;57.300003;-42.45;-;-;-;-;-;-;-;-;-
1531156231195;-;-;-0.5748047;0.79035646;10.015972;-0.28497857;-0.29086065;-0.03732124;14.400001;57.300003;-42.45;-;-;-;-;-;-;-;-;-
1531156231205;-;-;-0.25387207;0.45984375;10.504556;-0.27113014;-0.27434906;-0.020277008;13.650001;57.9;-42.45;-;-;-;-;-;-;-;-;-
1531156231215;-;-;-0.17723145;0.37362307;10.724898;-0.19496372;-0.2221511;-0.014418055;13.650001;57.9;-42.45;-;-;-;-;-;-;-;-;-
1531156231225;-;-;-0.3784131;0.2203418;10.653048;-0.10441625;-0.14971313;0.024464099;13.650001;57.300003;-42.15;-;-;-;-;-;-;-;-;-
1531156231235;-;-;-1.0250684;0.28261232;10.902129;-0.009075084;-0.07993829;0.106489465;13.650001;57.300003;-42.15;-;-;-;-;-;-;-;-;-
1531156231245;-;-;-1.4705421;0.4023633;10.083033;0.1491167;0.26147896;0.49850678;13.200001;58.800003;-45.15;-;-;-;-;-;-;-;-;-
1531156231256;-;-;-0.1341211;0.6466553;10.346485;0.25457788;0.40688756;0.69504803;13.200001;58.800003;-45.15;-;-;-;-;-;-;-;-;-
1531156231266;-;-;0.14849122;0.7568262;10.538086;0.3291464;0.2971653;0.7515071;12.150001;58.050003;-43.95;-;-;-;-;-;-;-;-;-
1531156231276;-;-;0.847837;0.68018556;9.992022;0.329679;0.03883869;0.638589;12.150001;58.050003;-43.95;-;-;-;-;-;-;-;-;-
1531156231286;-;-;1.6334034;0.8909473;9.704619;0.26416525;-0.049045626;0.38399082;12.150001;58.050003;-43.050003;-;-;-;-;-;-;-;-;-
1531156231297;-;-;1.8872755;1.0346485;10.178833;0.22581573;-0.090058304;0.08465154;12.150001;58.050003;-43.050003;-;-;-;-;-;-;-;-;-
1531156231307;-;-;1.2070899;1.0202783;10.380015;0.24019681;-0.13746259;-0.14118452;15.3;57.45;-45.15;-;-;-;-;-;-;-;-;-
1531156231317;-;-;0.56522465;0.8861573;10.039923;0.25404525;-0.17740999;-0.2631573;15.3;57.45;-45.15;-;-;-;-;-;-;-;-;-
1531156231327;-;-;-0.07185059;0.7664063;9.484278;0.23913154;-0.19125843;-0.3276058;15.900001;57.45;-43.5;-;-;-;-;-;-;-;-;-
1531156231337;-;-;-0.5748047;0.6610254;9.062755;0.18213989;-0.21256372;-0.34624794;15.900001;57.45;-43.5;-;-;-;-;-;-;-;-;-
1531156231347;-;-;-1.4082716;0.20118165;8.952583;0.040459715;-0.34572178;-0.18805616;13.35;56.550003;-43.350002;-;-;-;-;-;-;-;-;-
1531156231357;-;-;-1.2789404;0.25387207;9.086704;-0.07192569;-0.37714708;0.052160975;13.35;56.550003;-43.350002;-;-;-;-;-;-;-;-;-
1531156231368;-;-;-0.56522465;0.68976563;9.953702;-0.095894136;-0.08792777;0.31474864;13.200001;56.7;-43.050003;-;-;-;-;-;-;-;-;-
1531156231377;-;-;0.07664063;0.5556446;9.82437;-0.053816188;0.16187674;0.36162028;13.200001;56.7;-43.050003;-;-;-;-;-;-;-;-;-
1531156231387;-;-;0.09101075;0.45026368;10.528506;0.014360734;0.25934842;0.3621529;13.500001;58.500004;-43.5;-;-;-;-;-;-;-;-;-
1531156231397;-;-;0.24908204;0.63707525;10.705738;0.096918724;0.15388724;0.31421602;13.500001;58.500004;-43.5;-;-;-;-;-;-;-;-;-
1531156231407;-;-;0.047900394;0.8430469;10.509346;0.23273996;0.0106091825;0.27267072;13.35;57.300003;-43.350002;-;-;-;-;-;-;-;-;-
1531156231417;-;-;0.16286133;0.8909473;10.403965;0.3291464;-0.03572982;0.25402856;13.35;57.300003;-43.350002;-;-;-;-;-;-;-;-;-
1531156231428;-;-;0.086220704;0.8286768;9.915381;0.4053128;-0.12734257;0.20875485;14.400001;55.500004;-42.45;-;-;-;-;-;-;-;-;-
1531156231437;-;-;0.038320314;0.8669971;9.766891;0.42075914;-0.17527947;0.17253585;14.400001;55.500004;-42.45;-;-;-;-;-;-;-;-;-
1531156231447;-;-;0.038320314;1.0154883;9.527389;0.41223702;-0.1710184;0.14856741;14.55;57.45;-41.100002;-;-;-;-;-;-;-;-;-
1531156231457;-;-;-0.09101075;1.0250684;9.469908;0.3840075;-0.12521204;0.13471897;14.55;57.45;-41.100002;-;-;-;-;-;-;-;-;-
1531156231467;-;-;-0.06227051;0.96758795;9.489068;0.33021164;-0.07567724;0.11660948;14.55;57.15;-42.75;-;-;-;-;-;-;-;-;-
1531156231477;-;-;0.033530276;0.98195803;9.532178;0.2881337;-0.07194881;0.11075052;14.55;57.15;-42.75;-;-;-;-;-;-;-;-;-
1531156231488;-;-;0.09101075;0.9244776;9.474698;0.20291255;-0.070350915;0.09210839;13.950001;55.65;-45.15;-;-;-;-;-;-;-;-;-
1531156231498;-;-;0.12454102;1.0154883;9.513018;0.15497565;-0.06449196;0.082521014;13.950001;55.65;-45.15;-;-;-;-;-;-;-;-;-
1531156231508;-;-;0.17244141;1.1304493;9.498648;0.054308154;-0.08739515;0.061748356;14.85;55.050003;-41.550003;-;-;-;-;-;-;-;-;-
1531156231518;-;-;0.14849122;1.2358302;9.508228;-0.0175972;-0.08047093;0.025529362;14.85;55.050003;-41.550003;-;-;-;-;-;-;-;-;-
1531156231528;-;-;0.019160157;1.1879297;9.445957;-0.11293837;0.0047502285;-0.023472803;13.650001;55.500004;-43.350002;-;-;-;-;-;-;-;-;-
1531156231538;-;-;0.05269043;1.21188;7.9897857;-0.29296806;0.39037594;-0.02773386;14.250001;56.4;-42.300003;-;-;-;-;-;-;-;-;-
1531156231549;-;-;-0.17723145;0.8909473;10.427916;-0.576861;0.39144123;-0.035723343;14.250001;56.4;-42.300003;-;-;-;-;-;-;-;-;-
1531156231559;-;-;-0.119750984;0.9580079;10.322535;-0.5017599;0.384517;-0.0074938363;13.950001;55.350002;-43.5;-;-;-;-;-;-;-;-;-
1531156231569;-;-;0.033530276;1.0202783;10.183623;-0.43198508;0.44523707;-0.03252755;13.950001;55.350002;-43.5;-;-;-;-;-;-;-;-;-
1531156231579;-;-;-0.16765137;0.9148975;10.442286;-0.38777658;0.41647494;-0.055963367;14.55;56.4;-42.75;-;-;-;-;-;-;-;-;-
1531156231589;-;-;-0.32093263;0.90052736;10.667418;-0.21733429;0.2689358;-0.05862653;14.55;56.4;-42.75;-;-;-;-;-;-;-;-;-
1531156231599;-;-;-0.4263135;0.9484278;10.763218;-0.123058386;0.16613778;-0.04744125;14.55;56.7;-42.300003;-;-;-;-;-;-;-;-;-
1531156231610;-;-;-0.42152345;0.8909473;10.768008;0.06655869;0.0026196996;-0.03199492;14.55;56.7;-42.300003;-;-;-;-;-;-;-;-;-
1531156231620;-;-;-0.23950197;0.90052736;10.720108;0.12834403;-0.054904584;-0.027201228;14.55;56.4;-42.300003;-;-;-;-;-;-;-;-;-
1531156231630;-;-;0.009580079;0.9627979;10.174044;0.2551105;-0.18966053;-0.035190713;14.55;56.4;-42.300003;-;-;-;-;-;-;-;-;-
1531156231640;-;-;0.12454102;0.9580079;9.666299;0.25244734;-0.20936793;-0.04424546;15.150001;56.250004;-42.45;-;-;-;-;-;-;-;-;-
1531156231650;-;-;0.09101075;0.977168;9.297466;0.18267253;-0.1939216;-0.072474964;15.150001;56.250004;-42.45;-;-;-;-;-;-;-;-;-
1531156231660;-;-;0.16286133;0.9484278;9.139395;0.13739878;-0.17847526;-0.0730076;14.250001;56.7;-42.75;-;-;-;-;-;-;-;-;-
1531156231671;-;-;0.07664063;1.0490186;9.1202345;-0.05221597;-0.08793476;-0.08792976;14.250001;56.7;-42.75;-;-;-;-;-;-;-;-;-
1531156231681;-;-;0.14370118;0.97237796;8.962164;-0.18963508;0.015928522;-0.09645188;15.750001;55.500004;-43.65;-;-;-;-;-;-;-;-;-
1531156231691;-;-;0.100590825;0.9580079;9.134604;-0.32811946;0.16133712;-0.09006029;15.750001;55.500004;-43.65;-;-;-;-;-;-;-;-;-
1531156231701;-;-;0.21555176;1.0729688;9.335787;-0.386709;0.20927402;-0.09378872;15.3;55.65;-43.050003;-;-;-;-;-;-;-;-;-
1531156231711;-;-;0.2921924;1.1112891;9.905801;-0.422928;0.25294986;-0.14651932;15.3;55.65;-43.050003;-;-;-;-;-;-;-;-;-
1531156231722;-;-;0.23950197;1.0059083;10.336905;-0.36646897;0.29289728;-0.1944562;15.450001;56.550003;-40.5;-;-;-;-;-;-;-;-;-
1531156231732;-;-;0.06227051;0.8143067;10.447076;-0.2860415;0.25561303;-0.21629414;15.450001;56.550003;-40.5;-;-;-;-;-;-;-;-;-
1531156231742;-;-;0.028740235;0.71371585;10.360855;-0.23171303;0.19968665;-0.22801204;15.6;56.7;-43.5;-;-;-;-;-;-;-;-;-
1531156231752;-;-;-0.23950197;0.7759864;10.102193;-0.15394872;0.11286759;-0.24505627;15.6;56.7;-43.5;-;-;-;-;-;-;-;-;-
1531156231762;-;-;-0.364043;0.8430469;9.972861;-0.13104554;0.05587594;-0.24825206;14.700001;56.550003;-43.65;-;-;-;-;-;-;-;-;-
1531156231772;-;-;-0.3784131;0.6658155;9.867481;-0.11400131;-0.008039929;-0.2423931;14.700001;56.550003;-43.65;-;-;-;-;-;-;-;-;-
1531156231783;-;-;-0.5364844;0.60354495;9.72378;-0.13477395;-0.04958524;-0.20990254;13.650001;57.9;-42.9;-;-;-;-;-;-;-;-;-
1531156231793;-;-;-0.4742139;0.56522465;10.001602;-0.15128556;-0.04638945;-0.17581408;13.650001;57.9;-42.9;-;-;-;-;-;-;-;-;-
1531156231803;-;-;-0.16286133;0.5843848;10.245894;-0.13051291;-0.06130315;-0.14545405;14.85;56.4;-41.850002;-;-;-;-;-;-;-;-;-
1531156231813;-;-;-0.07185059;0.5748047;10.111773;-0.12145816;-0.048519976;-0.15823722;14.85;56.4;-41.850002;-;-;-;-;-;-;-;-;-
1531156231823;-;-;-0.1341211;0.6227051;9.924961;-0.13796975;-0.043193653;-0.18540147;14.85;57.45;-41.850002;-;-;-;-;-;-;-;-;-
1531156231833;-;-;-0.19160157;0.7568262;10.150093;-0.15235083;-0.076216854;-0.21043518;14.85;57.45;-41.850002;-;-;-;-;-;-;-;-;-
1531156231844;-;-;-0.34967285;0.8143067;10.744058;-0.074586526;-0.12042533;-0.20138043;15.150001;58.350002;-42.9;-;-;-;-;-;-;-;-;-
1531156231853;-;-;-0.4023633;0.68976563;10.839859;0.0026451487;-0.17528644;-0.19019516;15.150001;58.350002;-42.9;-;-;-;-;-;-;-;-;-
1531156231863;-;-;-0.31135255;0.50774413;10.403965;0.10917159;-0.22482124;-0.16036774;13.650001;59.4;-42.15;-;-;-;-;-;-;-;-;-
1531156231873;-;-;-0.4167334;0.52690434;9.982442;0.15444534;-0.22428861;-0.13000771;13.650001;59.4;-42.15;-;-;-;-;-;-;-;-;-
1531156231883;-;-;-0.45026368;0.45984375;9.800421;0.14006427;-0.22801703;-0.07674449;14.55;57.45;-42.300003;-;-;-;-;-;-;-;-;-
1531156231893;-;-;-0.4023633;0.6945557;9.766891;0.08680104;-0.2487897;-0.052243408;14.55;57.45;-42.300003;-;-;-;-;-;-;-;-;-
1531156231904;-;-;-0.44547364;0.7951465;9.972861;0.045255728;-0.25784445;-0.015491783;13.950001;57.750004;-42.300003;-;-;-;-;-;-;-;-;-
1531156231914;-;-;-0.45984375;0.68976563;10.116563;0.028211495;-0.27648658;0.012737725;13.950001;57.750004;-42.300003;-;-;-;-;-;-;-;-;-
1531156231924;-;-;-0.45505372;0.7711963;9.958491;0.018624116;-0.29885712;0.064935684;14.400001;57.600002;-41.7;-;-;-;-;-;-;-;-;-
1531156231934;-;-;-0.09580079;0.6706055;9.326206;-0.06499915;-0.3941983;0.06387042;14.400001;57.600002;-41.7;-;-;-;-;-;-;-;-;-
1531156231944;-;-;-0.3161426;0.96758795;9.532178;-0.14116554;-0.507649;0.050554615;13.35;59.7;-43.350002;-;-;-;-;-;-;-;-;-
1531156231955;-;-;-1.4226416;1.8345851;9.948912;-0.12625185;-0.6716997;0.13684103;13.35;59.7;-43.350002;-;-;-;-;-;-;-;-;-
1531156231965;-;-;-0.047900394;0.86220706;10.159674;-0.04262859;-0.7936725;0.22206219;13.650001;57.600002;-43.350002;-;-;-;-;-;-;-;-;-
1531156231975;-;-;0.6466553;0.19160157;10.260264;0.020754643;-0.848001;0.19543058;13.650001;57.600002;-43.350002;-;-;-;-;-;-;-;-;-
1531156231985;-;-;1.101709;-0.100590825;10.087823;0.08040945;-0.7984662;0.08570834;12.900001;57.45;-41.850002;-;-;-;-;-;-;-;-;-
1531156231995;-;-;0.6610254;0.21555176;9.666299;0.08307262;-0.6242954;0.016998783;12.900001;57.45;-41.850002;-;-;-;-;-;-;-;-;-
1531156232005;-;-;0.37362307;0.68976563;9.168135;0.011699897;-0.37236038;0.0420325;12.900001;57.15;-41.550003;-;-;-;-;-;-;-;-;-
1531156232015;-;-;0.30177248;0.68018556;9.3309965;-0.06446651;-0.26796445;0.10062204;12.900001;57.15;-41.550003;-;-;-;-;-;-;-;-;-
1531156232026;-;-;0.57001466;0.7185059;9.877061;-0.12784974;-0.17049275;0.15282;14.250001;58.050003;-42.300003;-;-;-;-;-;-;-;-;-
1531156232035;-;-;0.90052736;0.6849756;10.025552;-0.14063291;-0.038399965;0.14003682;14.250001;58.050003;-42.300003;-;-;-;-;-;-;-;-;-
1531156232045;-;-;0.6610254;0.52690434;10.116563;-0.12252343;0.11925917;0.07452306;12.900001;57.45;-43.050003;-;-;-;-;-;-;-;-;-
1531156232055;-;-;0.57959473;0.5748047;9.814791;-0.118795;0.19489296;0.033510383;12.900001;57.45;-43.050003;-;-;-;-;-;-;-;-;-
1531156232065;-;-;0.60354495;0.74724615;9.74773;-0.17898244;0.109671794;-0.0043065064;11.700001;57.600002;-42.15;-;-;-;-;-;-;-;-;-
1531156232075;-;-;0.5364844;0.7951465;9.599238;-0.19229823;0.021254843;-0.051710773;11.700001;57.600002;-42.15;-;-;-;-;-;-;-;-;-
1531156232086;-;-;0.5125342;0.7951465;8.713081;-0.34250054;-0.14279588;-0.14279088;12.150001;56.7;-43.050003;-;-;-;-;-;-;-;-;-
1531156232095;-;-;0.49337405;0.9915381;8.885523;-0.4495596;-0.10657689;-0.19126041;12.150001;56.7;-43.050003;-;-;-;-;-;-;-;-;-
1531156232105;-;-;0.34488282;1.2022998;9.843531;-0.43358064;0.24975407;-0.20138043;12.150001;58.800003;-42.75;-;-;-;-;-;-;-;-;-
1531156232116;-;-;0.7089258;0.25866213;10.197993;-0.40268797;0.50275433;-0.16835724;12.150001;58.800003;-42.75;-;-;-;-;-;-;-;-;-
1531156232125;-;-;0.1101709;-0.52690434;10.763218;-0.4346459;0.5517565;-0.13852982;13.200001;58.800003;-42.300003;-;-;-;-;-;-;-;-;-
1531156232135;-;-;-0.32093263;-0.22992188;10.97877;-0.39203534;0.48251435;-0.025611795;13.200001;58.800003;-42.300003;-;-;-;-;-;-;-;-;-
1531156232146;-;-;-0.3784131;0.25387207;11.515254;-0.09589181;0.5863776;0.14056946;11.85;58.050003;-42.75;-;-;-;-;-;-;-;-;-
1531156232155;-;-;0.22992188;0.10538086;11.735597;0.13633585;0.7387104;0.17838635;11.85;58.050003;-42.75;-;-;-;-;-;-;-;-;-
1531156232165;-;-;0.21555176;0.081430666;11.754756;0.46017566;0.8697397;0.13258201;12.6;60.000004;-41.25;-;-;-;-;-;-;-;-;-
1531156232175;-;-;-0.22992188;0.32572266;11.409874;0.59013796;0.864946;0.13631043;12.6;60.000004;-41.25;-;-;-;-;-;-;-;-;-
1531156232185;-;-;-0.7041358;0.56522465;10.98356;0.73874235;0.7887796;0.2433695;13.500001;60.15;-41.850002;-;-;-;-;-;-;-;-;-
1531156232195;-;-;-0.7424561;0.57959473;10.9069195;0.8372793;0.6961016;0.35096124;13.500001;60.15;-41.850002;-;-;-;-;-;-;-;-;-
1531156232206;-;-;-0.6514453;0.16765137;10.370435;0.9432731;0.3680001;0.48252138;13.200001;58.050003;-42.75;-;-;-;-;-;-;-;-;-
1531156232216;-;-;-0.5843848;0.244292;9.651929;0.9161089;0.15547983;0.47985822;13.200001;58.050003;-42.75;-;-;-;-;-;-;-;-;-
1531156232226;-;-;-0.33530274;0.7568262;8.62207;0.75205815;0.032974426;0.42393184;16.050001;58.65;-41.7;-;-;-;-;-;-;-;-;-
1531156232236;-;-;0.038320314;1.0825489;8.53106;0.584279;-0.018690897;0.3589507;16.050001;58.65;-41.7;-;-;-;-;-;-;-;-;-
1531156232246;-;-;0.5748047;1.4130616;8.717872;0.2604386;0.012734404;0.21247683;15.750001;57.600002;-42.9;-;-;-;-;-;-;-;-;-
1531156232256;-;-;0.5939649;1.3651612;8.966953;0.083604686;0.08943345;0.10861356;15.900001;56.100002;-43.5;-;-;-;-;-;-;-;-;-
1531156232267;-;-;-0.0047900393;1.0729688;9.517808;-0.12305662;0.2454947;0.0020871118;15.900001;56.100002;-43.5;-;-;-;-;-;-;-;-;-
1531156232276;-;-;-0.14370118;0.98195803;9.934542;-0.17365667;0.36373904;0.008478698;15.900001;56.100002;-43.5;-;-;-;-;-;-;-;-;-
1531156232286;-;-;-0.18681154;0.8909473;10.298584;-0.17472194;0.44363388;0.021794504;15.6;55.65;-43.050003;-;-;-;-;-;-;-;-;-
1531156232296;-;-;-0.3305127;0.7759864;10.341695;-0.14223137;0.3877075;0.046828218;15.6;55.65;-42.300003;-;-;-;-;-;-;-;-;-
1531156232306;-;-;-0.56522465;0.6849756;10.221944;-0.08790289;0.18370935;0.09156933;15.6;55.65;-42.300003;-;-;-;-;-;-;-;-;-
1531156232317;-;-;-0.4406836;0.6514453;10.106983;-0.05061863;0.083041854;0.07718826;16.050001;56.850002;-42.9;-;-;-;-;-;-;-;-;-
1531156232326;-;-;-0.4023633;0.7759864;9.412427;-0.0037469957;0.0132670365;0.039904;16.050001;56.850002;-42.9;-;-;-;-;-;-;-;-;-
1531156232336;-;-;-0.244292;0.7807764;9.010064;-0.1986904;0.30142108;0.040969264;16.050001;56.850002;-42.9;-;-;-;-;-;-;-;-;-
1531156232346;-;-;-0.8095166;0.7759864;10.097403;-0.1805809;-0.096987836;0.022327136;14.85;57.15;-42.75;-;-;-;-;-;-;-;-;-
1531156232357;-;-;-0.6658155;1.0202783;10.111773;-0.042096514;-0.26796278;0.04203453;17.85;56.550003;-42.45;-;-;-;-;-;-;-;-;-
1531156232367;-;-;-0.13891114;1.0059083;9.915381;0.10118155;-0.52469146;-0.059698228;17.85;56.550003;-42.45;-;-;-;-;-;-;-;-;-
1531156232377;-;-;-0.28740236;0.9963282;9.992022;0.1400637;-0.60991263;-0.11296145;15.450001;56.850002;-42.15;-;-;-;-;-;-;-;-;-
1531156232387;-;-;-0.31135255;0.7664063;10.025552;0.23220909;-0.681818;-0.13746254;15.450001;56.850002;-42.15;-;-;-;-;-;-;-;-;-
1531156232397;-;-;-0.2682422;0.7807764;9.733359;0.2785481;-0.68235064;-0.13107096;15.3;56.4;-43.050003;-;-;-;-;-;-;-;-;-
1531156232407;-;-;-0.09101075;0.67539555;9.168135;0.23487224;-0.61204314;-0.09112353;15.3;56.4;-43.050003;-;-;-;-;-;-;-;-;-
1531156232418;-;-;-0.10538086;0.68018556;8.885523;0.16935848;-0.5859442;-0.09112353;15.3;56.100002;-41.550003;-;-;-;-;-;-;-;-;-
1531156232427;-;-;-0.09580079;0.7951465;8.981323;-0.008540686;-0.49273357;-0.057567697;15.3;56.100002;-41.550003;-;-;-;-;-;-;-;-;-
1531156232437;-;-;-0.023950197;0.8143067;9.551338;-0.09322921;-0.4698304;-0.04851295;15.750001;57.300003;-43.350002;-;-;-;-;-;-;-;-;-
1531156232447;-;-;0.23950197;0.93405765;10.552457;-0.057010215;-0.41283876;-0.07940561;15.750001;57.300003;-43.350002;-;-;-;-;-;-;-;-;-
1531156232457;-;-;0.25866213;0.8047266;10.643467;0.017558293;-0.3638366;-0.098580375;14.250001;57.45;-42.75;-;-;-;-;-;-;-;-;-
1531156232467;-;-;0.34967285;0.852627;10.207574;0.09319207;-0.29352912;-0.13213621;14.250001;57.45;-42.75;-;-;-;-;-;-;-;-;-
1531156232478;-;-;0.30177248;0.89573735;9.833951;0.089463644;-0.2253522;-0.14172359;14.250001;57.45;-43.050003;-;-;-;-;-;-;-;-;-
1531156232488;-;-;0.26345217;0.9244776;9.378897;0.026080409;-0.10817312;-0.12361409;14.250001;57.45;-43.050003;-;-;-;-;-;-;-;-;-
1531156232498;-;-;0.27303225;0.9244776;9.369317;-0.031976502;-0.054909892;-0.11775514;12.900001;56.4;-42.75;-;-;-;-;-;-;-;-;-
1531156232508;-;-;0.34009278;0.96758795;9.412427;-0.13317662;-0.015495104;-0.11935303;12.900001;56.4;-42.75;-;-;-;-;-;-;-;-;-
1531156232519;-;-;0.3305127;0.98195803;9.474698;-0.18111353;0.016995462;-0.14918044;13.200001;56.7;-44.25;-;-;-;-;-;-;-;-;-
1531156232528;-;-;0.20118165;0.9867481;9.77168;-0.21520199;0.056942876;-0.15610467;13.200001;56.7;-44.25;-;-;-;-;-;-;-;-;-
1531156232538;-;-;0.19160157;0.9436377;9.987232;-0.21253884;0.08623765;-0.14864781;13.500001;57.45;-43.050003;-;-;-;-;-;-;-;-;-
1531156232549;-;-;0.06706055;0.81909674;9.872271;-0.19016828;0.12352191;-0.12361409;13.500001;57.45;-43.050003;-;-;-;-;-;-;-;-;-
1531156232559;-;-;0.10538086;0.76161623;9.637559;-0.20561461;0.15121879;-0.11615724;12.3;57.600002;-41.7;-;-;-;-;-;-;-;-;-
1531156232569;-;-;-0.086220704;0.8765772;9.5561285;-0.2812484;0.17358933;-0.1039067;12.3;57.600002;-41.7;-;-;-;-;-;-;-;-;-
1531156232580;-;-;-0.29698244;0.85741705;10.126143;-0.29775998;0.1368377;-0.07940561;13.05;56.550003;-43.65;-;-;-;-;-;-;-;-;-
1531156232589;-;-;-0.20118165;0.7185059;10.815908;-0.20082092;0.10328188;-0.033599246;13.05;56.550003;-43.65;-;-;-;-;-;-;-;-;-
1531156232600;-;-;-0.34488282;0.6227051;10.758429;-0.10974081;0.06972605;0.0015544796;13.200001;57.45;-42.300003;-;-;-;-;-;-;-;-;-
1531156232609;-;-;-0.2778223;0.5556446;10.437495;-0.01439964;0.05747551;0.058013495;13.200001;57.45;-42.300003;-;-;-;-;-;-;-;-;-
1531156232619;-;-;-0.2203418;0.6849756;10.116563;0.01915619;0.025517577;0.11766831;12.450001;57.750004;-41.100002;-;-;-;-;-;-;-;-;-
1531156232630;-;-;-0.14849122;0.76161623;9.800421;0.002644591;-0.038930923;0.15441993;12.450001;57.750004;-41.100002;-;-;-;-;-;-;-;-;-
1531156232640;-;-;0.086220704;0.91010743;9.977652;-0.025584918;-0.11349943;0.15228939;13.950001;58.500004;-43.050003;-;-;-;-;-;-;-;-;-
1531156232650;-;-;0.18681154;0.9148975;9.992022;-0.023454389;-0.15930581;0.1389736;13.950001;58.500004;-43.050003;-;-;-;-;-;-;-;-;-
1531156232661;-;-;0.07185059;0.8765772;10.001602;-0.012801744;-0.17688267;0.13311464;13.05;56.550003;-42.15;-;-;-;-;-;-;-;-;-
1531156232671;-;-;0.20118165;0.7664063;10.054293;-0.018659862;-0.21416944;0.13684002;13.05;56.550003;-42.15;-;-;-;-;-;-;-;-;-
1531156232681;-;-;0.34488282;0.8382569;10.174044;-0.0074745845;-0.20884313;0.12831791;12.150001;58.050003;-41.850002;-;-;-;-;-;-;-;-;-
1531156232692;-;-;0.4406836;0.9867481;10.154883;-0.0074745845;-0.18966836;0.09050102;12.150001;58.050003;-41.850002;-;-;-;-;-;-;-;-;-
1531156232702;-;-;0.3784131;1.0154883;10.174044;-0.02824724;-0.1257525;0.044694643;13.200001;57.750004;-42.75;-;-;-;-;-;-;-;-;-
1531156232712;-;-;0.34967285;0.86220706;10.202784;-0.02771461;-0.044259757;0.050020963;13.200001;57.750004;-42.75;-;-;-;-;-;-;-;-;-
1531156232723;-;-;0.27303225;0.7089258;10.106983;-0.03730199;0.034569815;0.06280414;13.05;57.600002;-42.9;-;-;-;-;-;-;-;-;-
1531156232733;-;-;0.19160157;0.74724615;9.77647;-0.0772494;0.094224624;0.0835768;13.05;57.600002;-42.9;-;-;-;-;-;-;-;-;-
1531156232743;-;-;0.15328126;0.7185059;9.618399;-0.14862213;0.13790046;0.10594735;13.35;57.300003;-44.100002;-;-;-;-;-;-;-;-;-
1531156232754;-;-;0.16286133;0.7185059;9.963282;-0.18803692;0.15494469;0.1134042;13.35;57.300003;-44.100002;-;-;-;-;-;-;-;-;-
1531156232764;-;-;0.28740236;0.75203615;10.164463;-0.16673163;0.14748783;0.10275156;11.85;58.050003;-43.050003;-;-;-;-;-;-;-;-;-
1531156232774;-;-;0.1820215;0.728086;10.289004;-0.13796948;0.14908573;0.09955577;11.85;58.050003;-43.050003;-;-;-;-;-;-;-;-;-
1531156232784;-;-;0.0;0.5891748;10.154883;-0.08097783;0.15281416;0.11873052;13.950001;56.7;-43.050003;-;-;-;-;-;-;-;-;-
1531156232795;-;-;-0.12933107;0.5125342;10.2315235;-0.04422621;0.15281416;0.16720006;14.85;57.45;-43.050003;-;-;-;-;-;-;-;-;-
1531156232805;-;-;-0.244292;0.43589357;9.977652;0.015428601;0.15281416;0.255617;14.85;57.45;-43.050003;-;-;-;-;-;-;-;-;-
1531156232815;-;-;-0.1820215;0.46942386;9.843531;0.033005465;0.09795305;0.28757492;14.85;57.45;-43.050003;-;-;-;-;-;-;-;-;-
1531156232826;-;-;0.086220704;0.7568262;9.920172;0.018624395;-0.014964987;0.28118333;13.05;59.4;-41.25;-;-;-;-;-;-;-;-;-
1531156232835;-;-;0.2778223;0.9053174;10.097403;0.02501598;-0.11616511;0.2391054;13.05;59.4;-41.25;-;-;-;-;-;-;-;-;-
1531156232846;-;-;0.62749517;0.86220706;10.480606;0.05537602;-0.18807046;0.12938318;15.900001;57.750004;-41.850002;-;-;-;-;-;-;-;-;-
1531156232856;-;-;0.60354495;0.81909674;10.413546;0.08999712;-0.17795046;0.07771784;15.900001;57.750004;-41.850002;-;-;-;-;-;-;-;-;-
1531156232867;-;-;0.2203418;0.613125;9.910591;0.11183504;-0.06449978;0.051618863;14.1;57.300003;-42.45;-;-;-;-;-;-;-;-;-
1531156232876;-;-;0.17244141;0.5843848;9.77168;0.094258174;-0.025084998;0.059608344;14.250001;57.750004;-42.75;-;-;-;-;-;-;-;-;-
1531156232887;-;-;0.100590825;0.613125;9.642349;0.0031780598;0.07664776;0.076119944;14.250001;57.750004;-42.75;-;-;-;-;-;-;-;-;-
1531156232897;-;-;0.07664063;0.5987549;9.74294;-0.030377772;0.104344636;0.09263155;12.450001;56.7;-41.850002;-;-;-;-;-;-;-;-;-
1531156232907;-;-;0.2203418;0.6227051;9.85311;-0.05168306;0.093159355;0.09476207;12.450001;56.7;-41.850002;-;-;-;-;-;-;-;-;-
1531156232918;-;-;0.2921924;0.7089258;9.867481;-0.047422003;0.08836567;0.08837049;13.500001;57.750004;-41.850002;-;-;-;-;-;-;-;-;-
1531156232927;-;-;0.38320315;0.732876;9.920172;-0.041030414;0.078245655;0.07718521;13.500001;57.750004;-41.850002;-;-;-;-;-;-;-;-;-
1531156232937;-;-;0.2921924;0.71371585;10.015972;-0.027181977;0.061734058;0.06386941;15.450001;58.350002;-43.350002;-;-;-;-;-;-;-;-;-
1531156232948;-;-;0.46463382;0.76161623;10.015972;-0.0069419527;0.042559296;0.015932504;15.450001;58.350002;-43.350002;-;-;-;-;-;-;-;-;-
1531156232958;-;-;0.3065625;0.7664063;9.637559;-0.0037461591;0.087300405;-0.016558062;13.950001;57.45;-42.300003;-;-;-;-;-;-;-;-;-
1531156232969;-;-;0.32572266;0.728086;9.287886;-0.097489424;0.104344636;-0.038928617;13.950001;57.45;-42.300003;-;-;-;-;-;-;-;-;-
1531156232978;-;-;0.22992188;0.71371585;9.283096;-0.16886215;0.11766044;-0.055440217;13.200001;58.500004;-41.850002;-;-;-;-;-;-;-;-;-
1531156232989;-;-;0.15328126;0.57001466;9.656719;-0.23437592;0.14216152;-0.056505483;13.200001;58.500004;-41.850002;-;-;-;-;-;-;-;-;-
1531156232999;-;-;0.09580079;0.5604346;9.915381;-0.2508875;0.14482468;-0.05863601;14.700001;58.65;-42.45;-;-;-;-;-;-;-;-;-
1531156233009;-;-;0.033530276;0.5029541;10.049502;-0.23863697;0.13257414;-0.057038113;14.700001;58.65;-42.45;-;-;-;-;-;-;-;-;-
1531156233021;-;-;-0.033530276;0.56522465;10.130933;-0.2290496;0.10754043;-0.04478757;13.200001;57.45;-43.050003;-;-;-;-;-;-;-;-;-
1531156233030;-;-;-0.15328126;0.5939649;10.116563;-0.19868957;0.06706038;-0.021351753;13.200001;57.45;-43.050003;-;-;-;-;-;-;-;-;-
1531156233040;-;-;0.014370117;0.5412744;10.2315235;-0.17898217;0.03403718;-0.024014914;13.200001;58.800003;-41.550003;-;-;-;-;-;-;-;-;-
1531156233051;-;-;-0.10538086;0.48379397;10.528506;-0.14595897;-0.032009218;-0.017623326;13.200001;58.800003;-41.550003;-;-;-;-;-;-;-;-;-
1531156233061;-;-;-0.17244141;0.45505372;10.672208;-0.08736941;-0.067162946;-0.006970683;13.35;59.7;-42.15;-;-;-;-;-;-;-;-;-
1531156233071;-;-;-0.2778223;0.3161426;10.490186;-0.03463883;-0.079946116;0.020726195;13.35;59.7;-42.15;-;-;-;-;-;-;-;-;-
1531156233082;-;-;-0.25866213;0.29698244;10.566827;0.011700176;-0.09752298;0.040433586;15.450001;58.95;-42.15;-;-;-;-;-;-;-;-;-
1531156233092;-;-;-0.16286133;0.38320315;10.269844;0.0058412207;-0.10018614;0.058010448;15.450001;58.95;-42.15;-;-;-;-;-;-;-;-;-
1531156233103;-;-;-0.009580079;0.43589357;10.178833;-0.0074745845;-0.059706092;0.0686631;14.400001;58.350002;-42.45;-;-;-;-;-;-;-;-;-
1531156233112;-;-;0.047900394;0.45984375;10.183623;-0.030910403;0.0015466132;0.07079363;14.400001;58.350002;-42.45;-;-;-;-;-;-;-;-;-
1531156233122;-;-;0.100590825;0.38320315;10.221944;-0.0490199;0.037765607;0.05854308;13.950001;57.45;-41.850002;-;-;-;-;-;-;-;-;-
1531156233133;-;-;-0.12933107;0.3305127;10.269844;-0.047954634;0.04841825;0.055879917;13.950001;57.45;-41.850002;-;-;-;-;-;-;-;-;-
1531156233143;-;-;-0.18681154;0.33530274;10.269844;-0.038899887;0.018058212;0.065467305;15.450001;56.850002;-43.65;-;-;-;-;-;-;-;-;-
1531156233153;-;-;0.038320314;0.364043;10.217154;-0.024518816;-0.017628146;0.06813046;15.450001;56.850002;-43.65;-;-;-;-;-;-;-;-;-
1531156233163;-;-;0.1101709;0.40715334;10.432706;0.0058412207;-0.0565103;0.062271502;15.750001;57.9;-40.95;-;-;-;-;-;-;-;-;-
1531156233174;-;-;0.086220704;0.2778223;10.432706;0.03140757;-0.05704293;0.06759783;15.750001;57.9;-40.95;-;-;-;-;-;-;-;-;-
1531156233184;-;-;-0.1341211;0.29698244;10.269844;0.07774658;-0.041596595;0.0835768;14.55;58.050003;-42.300003;-;-;-;-;-;-;-;-;-
1531156233194;-;-;-0.038320314;0.244292;10.001602;0.0995845;-0.047988184;0.10861051;14.55;58.050003;-42.300003;-;-;-;-;-;-;-;-;-
1531156233204;-;-;0.07185059;0.34488282;9.848321;0.10011713;-0.036802907;0.1166;13.950001;57.45;-40.65;-;-;-;-;-;-;-;-;-
1531156233215;-;-;0.22992188;0.39757326;9.599238;0.079344474;-0.009638663;0.109143145;14.700001;58.95;-44.100002;-;-;-;-;-;-;-;-;-
1531156233240;-;-;0.29698244;0.4023633;9.70941;-0.036769357;0.07931092;0.04629254;15.150001;59.7;-42.9;-;-;-;-;-;-;-;-;-
1531156233226;-;-;0.3544629;0.4742139;9.551338;0.018624395;0.053744573;0.07398942;14.700001;58.95;-44.100002;-;-;-;-;-;-;-;-;-
1531156233247;-;-;0.32093263;0.45026368;9.64714;-0.051150426;0.07877829;0.045227274;15.150001;59.7;-42.9;-;-;-;-;-;-;-;-;-
1531156233257;-;-;0.26345217;0.45984375;9.857901;-0.062335704;0.052146677;0.024987252;13.500001;58.050003;-41.550003;-;-;-;-;-;-;-;-;-
1531156233267;-;-;0.32093263;0.45984375;9.872271;-0.05860728;0.024982432;-0.0011117284;13.500001;58.050003;-41.550003;-;-;-;-;-;-;-;-;-
1531156233277;-;-;0.23471193;0.488584;10.011182;-0.057542015;0.003677142;-0.009101212;13.650001;57.9;-42.45;-;-;-;-;-;-;-;-;-
1531156233288;-;-;0.18681154;0.40715334;10.087823;-0.018127229;0.001013981;-0.02561281;13.650001;57.9;-42.45;-;-;-;-;-;-;-;-;-
1531156233298;-;-;0.07664063;0.3879932;9.872271;-0.0133335395;-5.128351E-5;-0.022949649;15.150001;59.4;-42.15;-;-;-;-;-;-;-;-;-
1531156233308;-;-;0.1341211;0.40715334;9.637559;-0.015464067;0.012731889;-0.027210707;15.150001;59.4;-42.15;-;-;-;-;-;-;-;-;-
1531156233318;-;-;0.20597169;0.37362307;9.575289;-0.03996515;0.024982432;-0.019221224;12.6;59.4;-42.45;-;-;-;-;-;-;-;-;-
1531156233328;-;-;0.12933107;0.42152345;9.604029;-0.07032518;0.047352985;-0.033602294;12.6;59.4;-42.45;-;-;-;-;-;-;-;-;-
1531156233339;-;-;0.11496094;0.40715334;9.829161;-0.079912566;0.053744573;-0.037863355;14.250001;59.100002;-43.5;-;-;-;-;-;-;-;-;-
1531156233349;-;-;0.14370118;0.41194338;9.896221;-0.06766202;0.03137402;-0.029873868;14.250001;59.100002;-43.5;-;-;-;-;-;-;-;-;-
1531156233359;-;-;0.32572266;0.46942386;9.77168;-0.072988346;0.016460316;-0.05117916;14.400001;58.350002;-43.350002;-;-;-;-;-;-;-;-;-
1531156233370;-;-;0.2921924;0.4742139;9.671089;-0.093761005;0.04149403;-0.08100656;14.400001;58.350002;-43.350002;-;-;-;-;-;-;-;-;-
1531156233380;-;-;0.100590825;0.39278322;9.867481;-0.124653675;0.05480984;-0.09219184;14.400001;58.95;-41.7;-;-;-;-;-;-;-;-;-
1531156233390;-;-;0.014370117;0.25387207;9.948912;-0.12412104;0.06972354;-0.091126576;14.400001;58.95;-41.7;-;-;-;-;-;-;-;-;-
1531156233400;-;-;-0.09101075;0.34967285;10.087823;-0.12625158;0.059603527;-0.06982128;13.650001;58.65;-41.7;-;-;-;-;-;-;-;-;-
1531156233411;-;-;-0.19639161;0.3065625;10.154883;-0.123588406;0.032971915;-0.04372231;13.650001;58.65;-41.7;-;-;-;-;-;-;-;-;-
1531156233420;-;-;-0.1820215;0.20118165;10.336905;-0.108674705;0.0031445099;-0.029341236;13.500001;57.750004;-44.25;-;-;-;-;-;-;-;-;-
1531156233430;-;-;-0.09580079;0.2921924;10.437495;-0.05913991;-0.016562883;-0.007503315;13.500001;57.750004;-44.25;-;-;-;-;-;-;-;-;-
1531156233440;-;-;-0.028740235;0.31135255;10.384805;-0.030910403;-0.010703929;0.013801974;15.6;58.500004;-42.300003;-;-;-;-;-;-;-;-;-
1531156233451;-;-;-0.20118165;0.34967285;10.188414;0.013830705;0.03616771;0.029780941;15.6;58.500004;-42.300003;-;-;-;-;-;-;-;-;-
1531156233461;-;-;-0.2203418;0.22992188;9.972861;0.006373853;0.059603527;0.06493467;14.85;57.750004;-42.75;-;-;-;-;-;-;-;-;-
1531156233472;-;-;-0.1101709;0.32093263;9.867481;-0.028779874;0.087300405;0.10328419;14.85;57.750004;-42.75;-;-;-;-;-;-;-;-;-
1531156233482;-;-;0.086220704;0.38320315;10.0063925;-0.041030414;0.10594253;0.11553473;14.1;59.4;-42.9;-;-;-;-;-;-;-;-;-
1531156233491;-;-;0.100590825;0.45026368;10.092612;-0.038899887;0.08144145;0.10381682;14.1;59.4;-42.9;-;-;-;-;-;-;-;-;-
1531156233501;-;-;-0.028740235;0.48379397;10.183623;-0.028779874;0.031906653;0.07505468;14.85;59.100002;-39.45;-;-;-;-;-;-;-;-;-
1531156233511;-;-;0.047900394;0.48379397;10.188414;-0.004811424;-0.01603025;0.06972836;14.85;59.100002;-39.45;-;-;-;-;-;-;-;-;-
1531156233522;-;-;-0.014370117;0.39278322;10.030342;0.011167543;-0.008040767;0.06599993;14.250001;58.500004;-41.550003;-;-;-;-;-;-;-;-;-
1531156233531;-;-;-0.033530276;0.44547364;9.977652;-5.5036583E-4;0.010068729;0.059075713;14.250001;58.500004;-41.550003;-;-;-;-;-;-;-;-;-
1531156233541;-;-;0.019160157;0.41194338;9.7621;-0.018659862;0.032971915;0.063336775;14.55;59.850002;-42.75;-;-;-;-;-;-;-;-;-
1531156233552;-;-;0.11496094;0.4406836;9.72857;-0.05700938;0.042559296;0.05321676;14.55;59.850002;-42.75;-;-;-;-;-;-;-;-;-
1531156233562;-;-;0.1820215;0.41194338;9.862691;-0.07511888;0.064397216;0.033509366;14.55;59.550003;-41.550003;-;-;-;-;-;-;-;-;-
1531156233572;-;-;0.1580713;0.32572266;10.197993;-0.06127044;0.060668793;0.018063033;14.55;59.550003;-41.550003;-;-;-;-;-;-;-;-;-
1531156233583;-;-;-0.019160157;0.3305127;10.360855;-0.0074745845;0.035102446;0.014867238;14.1;57.9;-41.7;-;-;-;-;-;-;-;-;-
1531156233593;-;-;0.047900394;0.43589357;10.193204;0.020754922;0.018058212;0.014867238;14.1;57.9;-41.7;-;-;-;-;-;-;-;-;-
1531156233603;-;-;0.09580079;0.4406836;10.015972;0.046853904;-0.02295447;0.007943019;15.450001;57.9;-42.9;-;-;-;-;-;-;-;-;-
1531156233613;-;-;0.033530276;0.4167334;9.915381;0.05644128;-0.03254185;0.013801974;13.650001;59.7;-41.7;-;-;-;-;-;-;-;-;-
1531156233624;-;-;0.05269043;0.364043;9.79563;0.04632127;-0.03520501;0.009540916;13.650001;59.7;-41.7;-;-;-;-;-;-;-;-;-
1531156233634;-;-;0.07664063;0.43589357;9.74773;0.03407073;-0.030943953;0.007943019;14.85;59.850002;-40.65;-;-;-;-;-;-;-;-;-
1531156233644;-;-;-0.009580079;0.5029541;9.891431;0.025548613;-0.065032415;-0.008568579;14.85;59.850002;-40.65;-;-;-;-;-;-;-;-;-
1531156233655;-;-;0.09101075;0.4023633;10.025552;0.02980967;-0.07941348;-0.012297005;13.950001;59.550003;-41.850002;-;-;-;-;-;-;-;-;-
1531156233664;-;-;-0.033530276;0.35925296;10.102193;0.054309454;-0.09379064;-0.0149554275;13.950001;59.550003;-41.850002;-;-;-;-;-;-;-;-;-
1531156233674;-;-;-0.014370117;0.32572266;10.116563;0.06869052;-0.0980517;-0.011759633;13.950001;59.850002;-42.75;-;-;-;-;-;-;-;-;-
1531156233684;-;-;0.086220704;0.2682422;9.83874;0.06922316;-0.070887454;0.0010235399;13.950001;59.850002;-42.75;-;-;-;-;-;-;-;-;-
1531156233695;-;-;0.09101075;0.34488282;9.74294;0.059635777;-0.041592687;-0.0027048858;14.55;58.500004;-41.100002;-;-;-;-;-;-;-;-;-
1531156233705;-;-;0.17723145;0.4263135;9.77168;0.018623095;-0.007504224;-0.0048354147;14.55;58.500004;-41.100002;-;-;-;-;-;-;-;-;-
1531156233714;-;-;0.1341211;0.38320315;9.77168;0.00850308;0.013801066;-0.0149554275;15.450001;60.300003;-42.15;-;-;-;-;-;-;-;-;-
1531156233734;-;-;0.16286133;0.32572266;9.8866415;-0.012802209;0.031377926;-0.02986913;13.950001;58.800003;-41.850002;-;-;-;-;-;-;-;-;-
1531156233725;-;-;0.17723145;0.364043;9.862691;-0.011736943;0.029780032;-0.034662817;15.450001;60.300003;-42.15;-;-;-;-;-;-;-;-;-
1531156233744;-;-;0.100590825;0.39278322;9.915381;-0.014932738;0.025518974;-0.044250198;13.950001;58.800003;-41.850002;-;-;-;-;-;-;-;-;-
1531156233754;-;-;0.13891114;0.35925296;9.920172;-0.014932738;0.016464228;-0.03945651;12.6;59.7;-41.25;-;-;-;-;-;-;-;-;-
1531156233765;-;-;0.17723145;0.3879932;9.929751;-0.0010842991;0.010605272;-0.0591639;12.6;59.7;-41.25;-;-;-;-;-;-;-;-;-
1531156233775;-;-;0.20597169;0.39757326;10.020762;-0.004812725;-0.022950558;-0.06129443;14.55;58.050003;-42.75;-;-;-;-;-;-;-;-;-
1531156233785;-;-;0.100590825;0.39278322;10.011182;0.009568346;-0.034135837;-0.0772734;14.55;58.050003;-42.75;-;-;-;-;-;-;-;-;-
1531156233796;-;-;-0.0047900393;0.39278322;10.059082;0.007437817;-0.028809512;-0.07354497;14.250001;58.050003;-41.850002;-;-;-;-;-;-;-;-;-
1531156233806;-;-;0.086220704;0.34488282;9.939331;0.0031767588;-0.01389581;-0.07514287;14.250001;58.050003;-41.850002;-;-;-;-;-;-;-;-;-
1531156233816;-;-;0.19639161;0.364043;9.829161;-0.02292222;0.022855813;-0.10017658;12.6;57.600002;-42.45;-;-;-;-;-;-;-;-;-
1531156233826;-;-;0.09101075;0.3784131;9.857901;-0.08310966;0.08783695;-0.10923133;12.6;57.600002;-42.45;-;-;-;-;-;-;-;-;-
1531156233837;-;-;-0.05748047;0.34488282;9.910591;-0.10281705;0.099022225;-0.11668818;14.85;59.850002;-42.75;-;-;-;-;-;-;-;-;-
1531156233847;-;-;-0.100590825;0.24908204;10.466236;-0.08257703;0.09156537;-0.11295976;14.85;59.850002;-42.75;-;-;-;-;-;-;-;-;-
1531156233858;-;-;-0.043110352;0.2921924;10.585987;-0.015998;0.083043255;-0.10443764;14.400001;58.95;-42.9;-;-;-;-;-;-;-;-;-
1531156233868;-;-;-0.038320314;0.3065625;10.4566555;0.03247153;0.08623905;-0.106568165;14.400001;58.95;-42.9;-;-;-;-;-;-;-;-;-
1531156233877;-;-;-0.100590825;0.31135255;10.269844;0.05643998;0.083043255;-0.091654465;15.750001;58.350002;-41.25;-;-;-;-;-;-;-;-;-
1531156233887;-;-;-0.0047900393;0.5460645;9.944121;0.060168408;0.054813746;-0.06928391;15.750001;58.350002;-41.25;-;-;-;-;-;-;-;-;-
1531156233898;-;-;0.009580079;0.5412744;9.77647;0.05111366;0.04629163;-0.060229164;13.950001;59.100002;-40.65;-;-;-;-;-;-;-;-;-
1531156233907;-;-;0.244292;0.64186525;9.81958;0.03939575;0.015931595;-0.06608812;13.950001;59.100002;-40.65;-;-;-;-;-;-;-;-;-
1531156233917;-;-;0.29698244;0.6514453;9.910591;0.036199957;0.009540008;-0.07088181;14.85;58.500004;-40.2;-;-;-;-;-;-;-;-;-
1531156233928;-;-;0.4981641;0.728086;9.987232;0.040461015;0.0068768463;-0.1236124;14.85;58.500004;-40.2;-;-;-;-;-;-;-;-;-
1531156233937;-;-;0.48379397;0.7041358;10.025552;0.044189442;0.0031484207;-0.15024401;14.700001;58.95;-39.600002;-;-;-;-;-;-;-;-;-
1531156233947;-;-;0.51732427;0.6945557;9.896221;0.03247153;-0.003243166;-0.18273458;14.700001;58.95;-39.600002;-;-;-;-;-;-;-;-;-
1531156233958;-;-;0.38320315;0.60833496;9.814791;0.003709391;0.016996859;-0.20936619;14.400001;59.4;-40.95;-;-;-;-;-;-;-;-;-
1531156233968;-;-;0.0047900393;0.5029541;9.877061;-0.05701068;0.04149794;-0.21629041;14.400001;59.4;-40.95;-;-;-;-;-;-;-;-;-
1531156233978;-;-;-0.07185059;0.43589357;10.092612;-0.07565281;0.038302146;-0.2194862;14.85;58.050003;-41.550003;-;-;-;-;-;-;-;-;-
1531156233989;-;-;-0.21076173;0.27303225;10.437495;-0.038368553;0.020725286;-0.17581035;14.85;58.050003;-41.550003;-;-;-;-;-;-;-;-;-
1531156233999;-;-;-0.2203418;0.23950197;10.5620365;0.009568346;-0.0027105338;-0.14598295;14.700001;58.65;-42.15;-;-;-;-;-;-;-;-;-
1531156234009;-;-;-0.119750984;0.29698244;10.432706;0.06815789;-0.041592687;-0.12947135;14.700001;58.65;-42.15;-;-;-;-;-;-;-;-;-
1531156234020;-;-;-0.07185059;0.25387207;10.346485;0.094789505;-0.041592687;-0.12734082;14.400001;59.4;-40.5;-;-;-;-;-;-;-;-;-
1531156234030;-;-;0.05269043;0.34009278;10.159674;0.1113011;-0.017091604;-0.12734082;14.400001;59.4;-40.5;-;-;-;-;-;-;-;-;-
1531156234040;-;-;0.06227051;0.3065625;10.001602;0.10437688;-0.011232649;-0.13053662;13.500001;60.600002;-41.100002;-;-;-;-;-;-;-;-;-
1531156234050;-;-;0.023950197;0.32572266;9.733359;0.037265223;0.05854217;-0.1252103;13.500001;60.600002;-41.100002;-;-;-;-;-;-;-;-;-
1531156234060;-;-;-0.06227051;0.3784131;9.901011;0.0042420235;0.035638984;-0.11881871;14.700001;58.95;-42.45;-;-;-;-;-;-;-;-;-
1531156234071;-;-;-0.100590825;0.39757326;10.059082;0.0101009775;0.034573723;-0.106568165;14.700001;58.95;-42.45;-;-;-;-;-;-;-;-;-
1531156234081;-;-;-0.0047900393;0.39757326;10.106983;0.047917865;-0.022417925;-0.084730245;15.6;58.050003;-41.550003;-;-;-;-;-;-;-;-;-
1531156234091;-;-;0.0047900393;0.50774413;9.977652;0.066027366;-0.057039022;-0.07833866;15.6;58.050003;-41.550003;-;-;-;-;-;-;-;-;-
1531156234101;-;-;-0.043110352;0.4981641;9.877061;0.061233673;-0.07248535;-0.0772734;13.05;59.7;-41.25;-;-;-;-;-;-;-;-;-
1531156234112;-;-;0.06706055;0.5460645;9.455538;0.033004165;-0.11243277;-0.07940392;13.650001;60.000004;-40.5;-;-;-;-;-;-;-;-;-
1531156234122;-;-;0.10538086;0.49337405;9.75252;-0.012269576;-0.14865176;-0.08526288;13.650001;60.000004;-40.5;-;-;-;-;-;-;-;-;-
1531156234132;-;-;0.1820215;0.46463382;10.083033;0.007437817;-0.1726202;-0.08419762;13.650001;60.000004;-40.5;-;-;-;-;-;-;-;-;-
1531156234143;-;-;0.14370118;0.46463382;10.494976;0.07561474;-0.2269487;-0.082599714;13.200001;59.100002;-43.050003;-;-;-;-;-;-;-;-;-
1531156234154;-;-;0.09101075;0.43589357;10.600357;0.14325903;-0.24452557;-0.08899131;13.650001;58.95;-41.7;-;-;-;-;-;-;-;-;-
1531156234167;-;-;0.05269043;0.44547364;10.226734;0.17255381;-0.22322027;-0.09485026;13.650001;58.95;-41.7;-;-;-;-;-;-;-;-;-
1531156234175;-;-;0.019160157;0.4263135;9.939331;0.15018326;-0.18327285;-0.09325236;14.1;58.95;-40.95;-;-;-;-;-;-;-;-;-
1531156234185;-;-;-0.019160157;0.33530274;9.72857;0.08946318;-0.11509593;-0.071947075;14.1;58.95;-40.95;-;-;-;-;-;-;-;-;-
1531156234195;-;-;-0.07185059;0.32572266;9.814791;0.059103142;-0.091127485;-0.06928391;14.400001;59.4;-42.9;-;-;-;-;-;-;-;-;-
1531156234207;-;-;-0.06227051;0.364043;10.063872;0.024482049;-0.017091604;-0.045315463;14.400001;59.4;-42.9;-;-;-;-;-;-;-;-;-
1531156234216;-;-;-0.05269043;0.34967285;10.059082;0.018090462;-0.0186895;-0.038391244;13.950001;59.850002;-41.100002;-;-;-;-;-;-;-;-;-
1531156234227;-;-;0.009580079;0.4023633;10.020762;0.014362035;-0.010700017;-0.04638073;13.950001;59.850002;-41.100002;-;-;-;-;-;-;-;-;-
1531156234238;-;-;-0.09101075;0.2921924;9.905801;5.135976E-4;0.012735801;-0.05650074;13.35;58.65;-42.45;-;-;-;-;-;-;-;-;-
1531156234249;-;-;-0.22992188;0.21076173;9.901011;-0.008008518;0.0010178919;-0.03732598;13.35;58.65;-42.45;-;-;-;-;-;-;-;-;-
1531156234257;-;-;-0.28740236;0.2778223;9.948912;-0.004812725;0.005811582;-0.038923874;13.650001;58.350002;-43.65;-;-;-;-;-;-;-;-;-
1531156234267;-;-;-0.3161426;0.17723145;10.111773;0.028210474;-0.03307057;0.0047519654;13.650001;58.350002;-43.65;-;-;-;-;-;-;-;-;-
1531156234277;-;-;-0.3161426;0.23950197;10.097403;0.070821054;-0.06396324;0.032981474;13.05;59.4;-42.45;-;-;-;-;-;-;-;-;-
1531156234287;-;-;-0.3305127;0.22992188;10.001602;0.08466949;-0.074083254;0.04150359;13.05;59.4;-42.45;-;-;-;-;-;-;-;-;-
1531156234298;-;-;-0.28740236;0.2203418;9.651929;0.07614738;-0.08739906;0.071330994;12.900001;58.800003;-42.300003;-;-;-;-;-;-;-;-;-
1531156234308;-;-;-0.16286133;0.23471193;9.484278;0.011698875;-0.04638638;0.09796261;12.900001;58.800003;-42.300003;-;-;-;-;-;-;-;-;-
1531156234318;-;-;-0.1101709;0.20118165;9.479487;-0.0053453567;-0.01389581;0.09849524;13.05;59.7;-41.25;-;-;-;-;-;-;-;-;-
1531156234328;-;-;-0.17244141;0.34488282;9.78605;-0.05914121;0.034041088;0.09583208;13.05;59.7;-41.25;-;-;-;-;-;-;-;-;-
1531156234340;-;-;-0.17723145;0.3065625;9.867481;-0.05860858;0.07558641;0.078255214;13.200001;59.100002;-41.100002;-;-;-;-;-;-;-;-;-
1531156234349;-;-;-0.100590825;0.29698244;9.867481;-0.062337004;0.10381591;0.073461525;13.200001;59.100002;-41.100002;-;-;-;-;-;-;-;-;-
1531156234360;-;-;-0.100590825;0.29698244;9.867481;-0.062337004;0.10381591;0.073461525;13.05;57.300003;-42.15;-;-;-;-;-;-;-;-;-
1531156234369;-;-;-0.033530276;0.364043;9.953702;-0.045292772;0.10967487;0.061743617;13.05;57.300003;-42.15;-;-;-;-;-;-;-;-;-
1531156234379;-;-;0.033530276;0.43110353;10.054293;-0.02771591;0.072390616;0.044699386;13.650001;59.4;-42.15;-;-;-;-;-;-;-;-;-
1531156234390;-;-;-0.019160157;0.45505372;10.073453;-0.008541151;0.03723688;0.02286146;13.650001;59.4;-42.15;-;-;-;-;-;-;-;-;-
1531156234400;-;-;-0.1580713;0.35925296;9.910591;0.0058399197;0.02179055;0.010610919;12.450001;58.800003;-43.95;-;-;-;-;-;-;-;-;-
1531156234410;-;-;-0.23950197;0.33530274;9.83874;0.006905184;0.0068768463;0.013274081;12.450001;58.800003;-43.95;-;-;-;-;-;-;-;-;-
1531156234421;-;-;-0.20597169;0.32572266;9.733359;0.0015788621;0.0010178919;0.038307797;13.950001;59.100002;-41.850002;-;-;-;-;-;-;-;-;-
1531156234431;-;-;-0.14370118;0.34488282;9.72378;-0.015998;0.0026157885;0.038840428;13.950001;59.100002;-41.850002;-;-;-;-;-;-;-;-;-
1531156234440;-;-;0.043110352;0.46463382;9.829161;-0.04262961;0.019127388;0.035112005;12.450001;60.600002;-42.300003;-;-;-;-;-;-;-;-;-
1531156234450;-;-;0.16286133;0.5412744;9.8866415;-0.05914121;0.029247401;0.01540461;12.450001;60.600002;-42.300003;-;-;-;-;-;-;-;-;-
1531156234460;-;-;0.033530276;0.48379397;9.992022;-0.063402265;0.057476908;-0.009629104;14.400001;58.65;-42.15;-;-;-;-;-;-;-;-;-
1531156234471;-;-;0.07185059;0.4981641;10.039923;-0.07085912;0.07665167;-0.012292266;14.400001;58.65;-42.15;-;-;-;-;-;-;-;-;-
1531156234481;-;-;-0.014370117;0.46463382;9.992022;-0.0639349;0.083043255;-0.012292266;13.950001;58.500004;-41.550003;-;-;-;-;-;-;-;-;-
1531156234491;-;-;-0.05748047;0.40715334;9.944121;-0.07565281;0.07292324;-0.007498576;13.950001;58.500004;-41.550003;-;-;-;-;-;-;-;-;-
1531156234501;-;-;0.0047900393;0.48379397;9.963282;-0.07671808;0.070260085;-0.003237518;13.35;59.4;-42.15;-;-;-;-;-;-;-;-;-
1531156234511;-;-;0.014370117;0.4406836;9.992022;-0.07405491;0.077184305;-0.0043027825;13.35;59.4;-42.15;-;-;-;-;-;-;-;-;-
1531156234522;-;-;0.09101075;0.43110353;10.039923;-0.07085912;0.052150585;-0.0037701502;14.250001;59.550003;-42.75;-;-;-;-;-;-;-;-;-
1531156234532;-;-;0.043110352;0.51732427;10.083033;-0.06766333;0.047356892;-0.0048354147;12.6;59.4;-40.95;-;-;-;-;-;-;-;-;-
1531156234542;-;-;0.1341211;0.43589357;10.169253;-0.05647805;0.011137905;-0.015488059;12.6;59.4;-40.95;-;-;-;-;-;-;-;-;-
1531156234552;-;-;0.14849122;0.46463382;10.303374;-0.04209698;0.01007264;-0.024542807;13.650001;60.000004;-42.45;-;-;-;-;-;-;-;-;-
1531156234563;-;-;0.12454102;0.46942386;10.298584;-0.02292222;0.027649503;-0.034662817;13.650001;60.000004;-42.45;-;-;-;-;-;-;-;-;-
1531156234573;-;-;0.033530276;0.5364844;10.116563;-0.012802209;0.04682426;-0.023477543;12.900001;59.550003;-42.75;-;-;-;-;-;-;-;-;-
1531156234583;-;-;-0.23950197;0.33530274;10.025552;-0.025585381;0.06120533;0.0052845976;12.900001;59.550003;-42.75;-;-;-;-;-;-;-;-;-
1531156234593;-;-;-0.24908204;0.364043;10.015972;-0.030379072;0.068129554;0.039373063;13.500001;58.050003;-41.850002;-;-;-;-;-;-;-;-;-
1531156234604;-;-;-0.15328126;0.4263135;10.140513;-0.033042233;0.056944273;0.089440495;13.500001;58.050003;-41.850002;-;-;-;-;-;-;-;-;-
1531156234614;-;-;-0.019160157;0.5029541;10.197993;-0.028248541;0.05374848;0.09263629;12.150001;60.15;-41.850002;-;-;-;-;-;-;-;-;-
1531156234624;-;-;0.7424561;0.05269043;9.594449;-0.028781174;0.105946444;0.038307797;12.150001;60.15;-41.850002;-;-;-;-;-;-;-;-;-
1531156234635;-;-;0.41194338;0.05748047;9.187295;-0.115067594;0.24016976;-0.0772734;13.500001;58.050003;-41.100002;-;-;-;-;-;-;-;-;-
1531156234645;-;-;-0.67539555;1.0250684;10.284214;-0.2061477;0.16613388;0.003686701;13.500001;58.050003;-41.100002;-;-;-;-;-;-;-;-;-
1531156234655;-;-;-0.34009278;0.87178713;10.375225;-0.16247186;0.08677168;0.102223665;14.700001;58.350002;-41.7;-;-;-;-;-;-;-;-;-
1531156234666;-;-;0.3065625;0.29698244;10.250684;-0.119328655;0.07931483;0.1027563;14.700001;58.350002;-41.7;-;-;-;-;-;-;-;-;-
1531156234675;-;-;0.45984375;0.1101709;10.494976;-0.037832018;0.050008323;0.012194598;15.150001;59.4;-41.25;-;-;-;-;-;-;-;-;-
1531156234686;-;-;0.038320314;0.364043;10.418335;0.041530184;-0.018701233;-0.014437013;15.150001;59.4;-41.25;-;-;-;-;-;-;-;-;-
1531156234696;-;-;-0.2203418;0.5508545;10.226734;0.092130244;-0.09326974;0.011129334;13.950001;58.500004;-41.850002;-;-;-;-;-;-;-;-;-
1531156234706;-;-;-0.16765137;0.4406836;10.030342;0.11503343;-0.13428244;0.02657567;13.950001;58.500004;-41.850002;-;-;-;-;-;-;-;-;-
1531156234716;-;-;-0.05748047;0.25387207;9.75252;0.10810921;-0.1715667;0.037760947;14.1;59.4;-42.15;-;-;-;-;-;-;-;-;-
1531156234737;-;-;-0.023950197;0.4406836;10.011182;0.03993229;-0.13960876;0.06492519;14.400001;58.95;-42.45;-;-;-;-;-;-;-;-;-
1531156234727;-;-;-0.11496094;0.3065625;9.83874;0.06869443;-0.15931615;0.052142017;14.1;59.4;-42.15;-;-;-;-;-;-;-;-;-
1531156234747;-;-;0.13891114;0.36883304;10.197993;0.04099755;-0.105520286;0.062794656;14.400001;58.95;-42.45;-;-;-;-;-;-;-;-;-
1531156234757;-;-;0.22992188;0.3879932;10.135723;0.038334392;-0.08741079;0.045750428;14.55;57.750004;-41.550003;-;-;-;-;-;-;-;-;-
1531156234768;-;-;0.1341211;0.43110353;10.140513;0.04046492;-0.056518123;0.028173566;14.55;57.750004;-41.550003;-;-;-;-;-;-;-;-;-
1531156234778;-;-;0.100590825;0.42152345;10.154883;0.034605965;-0.029353878;0.020184083;13.950001;59.100002;-41.550003;-;-;-;-;-;-;-;-;-
1531156234788;-;-;0.06706055;0.3784131;10.044712;0.030344905;-0.017635968;0.031901993;13.950001;59.100002;-41.550003;-;-;-;-;-;-;-;-;-
1531156234799;-;-;0.14370118;0.38320315;10.0063925;0.02874701;-0.008581221;0.024977773;14.400001;59.4;-42.9;-;-;-;-;-;-;-;-;-
1531156234809;-;-;0.06227051;0.38320315;10.020762;0.024485951;-0.0043201633;0.0271083;14.400001;59.4;-42.9;-;-;-;-;-;-;-;-;-
1531156234819;-;-;0.043110352;0.41194338;10.059082;0.022355422;0.0079303775;0.025510404;15.3;59.100002;-42.300003;-;-;-;-;-;-;-;-;-
1531156234830;-;-;-0.014370117;0.44547364;9.963282;0.026083848;0.014321963;0.023379875;15.3;59.100002;-42.300003;-;-;-;-;-;-;-;-;-
1531156234839;-;-;0.1101709;0.38320315;9.920172;0.026083848;-0.0032548988;0.01272723;15.150001;58.65;-41.7;-;-;-;-;-;-;-;-;-
1531156234850;-;-;0.09580079;0.4167334;9.944121;0.025018582;-5.9105572E-5;0.014325126;15.150001;58.65;-41.7;-;-;-;-;-;-;-;-;-
1531156234859;-;-;0.12454102;0.52690434;9.867481;0.022355422;-0.019233866;-0.005914897;14.1;59.7;-41.25;-;-;-;-;-;-;-;-;-
1531156234870;-;-;0.100590825;0.46942386;9.85311;0.017561732;-0.022429658;-0.007512794;14.1;59.7;-41.25;-;-;-;-;-;-;-;-;-
1531156234879;-;-;0.09101075;0.50774413;9.929751;-0.005874086;-0.013374912;-0.01869807;12.900001;59.550003;-42.300003;-;-;-;-;-;-;-;-;-
1531156234889;-;-;0.17244141;0.44547364;9.920172;-0.0074719824;-0.010711751;-0.019230703;12.900001;59.550003;-42.300003;-;-;-;-;-;-;-;-;-
1531156234900;-;-;0.086220704;0.46463382;9.987232;-0.010667777;0.003136688;-0.021361232;14.1;59.4;-42.45;-;-;-;-;-;-;-;-;-
1531156234910;-;-;-0.009580079;0.45505372;9.944121;-0.014396202;4.7352666E-4;-0.030415978;13.05;59.4;-42.9;-;-;-;-;-;-;-;-;-
1531156234920;-;-;0.0047900393;0.34967285;10.054293;-0.015994098;-0.0027222666;-0.022959128;13.05;59.4;-42.9;-;-;-;-;-;-;-;-;-
1531156234931;-;-;0.033530276;0.43110353;10.083033;-0.01173304;-0.008581221;-0.028285451;13.200001;58.800003;-41.550003;-;-;-;-;-;-;-;-;-
1531156234941;-;-;0.038320314;0.35925296;10.159674;0.01223541;-0.012309647;-0.022426495;13.200001;58.800003;-41.550003;-;-;-;-;-;-;-;-;-
1531156234951;-;-;0.100590825;0.33530274;10.140513;0.018094365;-0.009646486;-0.034144405;14.400001;58.95;-42.15;-;-;-;-;-;-;-;-;-
1531156234961;-;-;0.06706055;0.45984375;9.939331;0.013300674;0.037757784;-0.03307914;14.400001;58.95;-42.15;-;-;-;-;-;-;-;-;-
1531156234972;-;-;0.023950197;0.4263135;9.901011;0.009039616;0.038823046;-0.029350715;13.500001;58.500004;-43.050003;-;-;-;-;-;-;-;-;-
1531156234982;-;-;-0.06706055;0.4263135;9.924961;0.011702778;0.06332413;-0.02349176;13.500001;58.500004;-43.050003;-;-;-;-;-;-;-;-;-
1531156234992;-;-;0.028740235;0.51732427;9.833951;0.0047785584;0.04734516;-0.017632805;14.250001;60.600002;-42.75;-;-;-;-;-;-;-;-;-
1531156235003;-;-;-0.06227051;0.41194338;9.75731;-0.0021456606;0.03669252;-0.030948611;14.250001;60.600002;-42.75;-;-;-;-;-;-;-;-;-
1531156235013;-;-;-0.043110352;0.5029541;9.857901;-0.005874086;0.0132567;-0.022426495;14.85;58.800003;-41.550003;-;-;-;-;-;-;-;-;-
1531156235023;-;-;-0.11496094;0.39757326;9.77647;-0.021320421;-0.02988651;-0.012839117;14.85;58.800003;-41.550003;-;-;-;-;-;-;-;-;-
1531156235033;-;-;-0.07664063;0.40715334;9.766891;-0.037299387;-0.040539153;-0.01124122;13.35;59.7;-42.9;-;-;-;-;-;-;-;-;-
1531156235043;-;-;0.028740235;0.40715334;9.8866415;-0.07458364;-0.042669684;-0.009110691;13.35;59.7;-42.9;-;-;-;-;-;-;-;-;-
1531156235054;-;-;0.1341211;0.45505372;10.370435;-0.08630155;-0.037875995;-0.022959128;13.950001;59.850002;-42.75;-;-;-;-;-;-;-;-;-
1531156235064;-;-;0.10538086;0.3544629;10.609937;-0.05434362;-0.026158083;-0.03361177;13.950001;59.850002;-42.75;-;-;-;-;-;-;-;-;-
1531156235075;-;-;0.06706055;0.34009278;10.724898;-0.0064067184;-0.0027222666;-0.03201388;13.35;60.000004;-42.9;-;-;-;-;-;-;-;-;-
1531156235085;-;-;-0.019160157;0.3544629;10.542876;0.034073334;0.016452495;-0.01124122;13.35;60.000004;-42.9;-;-;-;-;-;-;-;-;-
1531156235095;-;-;0.0047900393;0.41194338;10.423125;0.052182827;0.040420946;-0.009643323;13.650001;58.95;-42.15;-;-;-;-;-;-;-;-;-
1531156235105;-;-;-0.100590825;0.40715334;10.221944;0.06922706;0.052138854;0.012194598;13.650001;58.95;-42.15;-;-;-;-;-;-;-;-;-
1531156235116;-;-;0.028740235;0.3784131;9.958491;0.060172312;0.062258862;0.025510404;14.700001;59.7;-40.95;-;-;-;-;-;-;-;-;-
1531156235127;-;-;-0.009580079;0.39757326;9.929751;0.03993229;0.06811782;0.032434624;14.700001;59.7;-40.95;-;-;-;-;-;-;-;-;-
1531156235137;-;-;0.0047900393;0.4023633;9.934542;0.02874701;0.06492203;0.030304093;13.650001;59.4;-41.7;-;-;-;-;-;-;-;-;-
1531156235147;-;-;0.15328126;0.53169435;9.968072;0.016496466;0.03988831;0.034565154;13.650001;59.4;-41.7;-;-;-;-;-;-;-;-;-
1531156235158;-;-;0.05269043;0.5604346;9.987232;0.02927964;0.008995642;0.029238831;13.650001;59.4;-42.15;-;-;-;-;-;-;-;-;-
1531156235168;-;-;0.0047900393;0.4263135;10.059082;0.04366071;0.006332481;0.028706199;13.650001;59.4;-42.15;-;-;-;-;-;-;-;-;-
1531156235178;-;-;0.05269043;0.45505372;9.877061;0.044725977;-0.023494923;0.028706199;12.900001;58.800003;-40.65;-;-;-;-;-;-;-;-;-
1531156235188;-;-;0.06227051;0.37362307;9.78605;0.046856508;-0.0069833244;0.028173566;12.900001;58.800003;-40.65;-;-;-;-;-;-;-;-;-
1531156235199;-;-;0.17723145;0.34488282;9.905801;0.035138596;0.02763777;0.014857759;12.6;59.4;-42.15;-;-;-;-;-;-;-;-;-
1531156235209;-;-;0.22513184;0.3879932;9.996812;0.025018582;0.03988831;0.0063356436;13.200001;58.050003;-42.300003;-;-;-;-;-;-;-;-;-
1531156235219;-;-;0.31135255;0.4742139;10.159674;0.030344905;0.10380418;-0.037340198;13.200001;58.050003;-42.300003;-;-;-;-;-;-;-;-;-
1531156235229;-;-;0.25387207;0.43110353;10.356065;0.037801757;0.14162105;-0.059710752;14.700001;59.7;-42.15;-;-;-;-;-;-;-;-;-
1531156235250;-;-;-0.13891114;0.4023633;9.877061;0.05750915;0.15919793;-0.0703634;14.85;58.800003;-43.050003;-;-;-;-;-;-;-;-;-
1531156235240;-;-;0.009580079;0.40715334;10.159674;0.059107047;0.16345899;-0.079418145;14.700001;59.7;-42.15;-;-;-;-;-;-;-;-;-
1531156235260;-;-;-0.34009278;0.39278322;9.513018;-0.013330937;0.17517689;-0.066634975;14.85;58.800003;-43.050003;-;-;-;-;-;-;-;-;-
1531156235270;-;-;-0.38320315;0.3879932;9.527389;-0.049017295;0.1703832;-0.041601256;13.35;60.000004;-41.25;-;-;-;-;-;-;-;-;-
1531156235280;-;-;-0.39757326;0.34967285;9.70941;-0.08789945;0.13576211;0.0015419539;13.35;60.000004;-41.25;-;-;-;-;-;-;-;-;-
1531156235291;-;-;-0.364043;0.3161426;9.867481;-0.08417102;0.08516205;0.02178198;13.500001;59.850002;-41.850002;-;-;-;-;-;-;-;-;-
1531156235301;-;-;-0.32572266;0.3544629;10.226734;-0.044756237;0.024441978;0.039358843;13.500001;59.850002;-41.850002;-;-;-;-;-;-;-;-;-
1531156235311;-;-;-0.34488282;0.31135255;10.322535;-0.0026782928;-0.024560187;0.04788096;13.950001;59.550003;-39.45;-;-;-;-;-;-;-;-;-
1531156235322;-;-;-0.364043;0.3879932;10.102193;0.06922706;-0.09486764;0.05533781;13.950001;59.550003;-39.45;-;-;-;-;-;-;-;-;-
1531156235332;-;-;-0.28740236;0.31135255;10.020762;0.09319551;-0.10711818;0.07025151;15.450001;58.65;-44.100002;-;-;-;-;-;-;-;-;-
1531156235342;-;-;0.023950197;0.4406836;9.987232;0.10438079;-0.0858129;0.051609386;15.450001;58.65;-44.100002;-;-;-;-;-;-;-;-;-
1531156235352;-;-;0.1341211;0.45026368;9.929751;0.08627129;-0.035212833;0.022314612;13.500001;59.100002;-42.300003;-;-;-;-;-;-;-;-;-
1531156235363;-;-;-0.009580079;0.49337405;9.924961;0.03300807;0.07291151;-0.021893863;13.500001;59.100002;-42.300003;-;-;-;-;-;-;-;-;-
1531156235373;-;-;-0.34967285;0.45026368;10.049502;0.005843823;0.13469684;-0.018165438;13.950001;59.100002;-40.65;-;-;-;-;-;-;-;-;-
1531156235383;-;-;-0.5412744;0.39757326;10.217154;0.015963836;0.12990315;0.017520921;13.950001;59.100002;-40.65;-;-;-;-;-;-;-;-;-
1531156235394;-;-;-0.5556446;0.42152345;10.025552;0.044725977;0.07823783;0.054272544;13.650001;58.65;-41.7;-;-;-;-;-;-;-;-;-
1531156235404;-;-;-0.60354495;0.45984375;9.920172;0.05697652;-0.00591806;0.0734473;13.650001;58.65;-41.7;-;-;-;-;-;-;-;-;-
1531156235414;-;-;-0.4981641;0.5508545;9.963282;0.05484599;-0.06344234;0.0899589;13.35;56.850002;-41.7;-;-;-;-;-;-;-;-;-
1531156235424;-;-;-0.15328126;0.5508545;10.073453;0.061237577;-0.0991287;0.098481014;13.35;56.850002;-41.7;-;-;-;-;-;-;-;-;-
1531156235435;-;-;-0.07664063;0.52690434;10.092612;0.054313358;-0.10871608;0.07557783;13.950001;58.050003;-41.850002;-;-;-;-;-;-;-;-;-
1531156235444;-;-;-0.09580079;0.5412744;10.111773;0.04099755;-0.0991287;0.06545782;13.950001;58.050003;-41.850002;-;-;-;-;-;-;-;-;-
1531156235454;-;-;-0.21076173;0.46463382;10.030342;0.020757524;-0.07196446;0.05533781;15.450001;60.000004;-43.350002;-;-;-;-;-;-;-;-;-
1531156235464;-;-;-0.3784131;0.45505372;10.183623;0.005843823;-0.024560187;0.062794656;15.450001;60.000004;-43.350002;-;-;-;-;-;-;-;-;-
1531156235475;-;-;-0.47900394;0.3065625;10.341695;0.0074417195;-0.0048527955;0.10593787;13.650001;57.9;-42.15;-;-;-;-;-;-;-;-;-
1531156235485;-;-;-0.52690434;0.45505372;10.241104;0.021290157;0.011126171;0.13470002;13.650001;57.9;-42.15;-;-;-;-;-;-;-;-;-
1531156235496;-;-;-0.3544629;0.4167334;10.169253;0.023953319;0.008463009;0.15547267;14.55;58.050003;-41.850002;-;-;-;-;-;-;-;-;-
1531156235505;-;-;-0.23471193;0.5125342;10.178833;0.030344905;-0.013907543;0.160799;14.55;58.050003;-41.850002;-;-;-;-;-;-;-;-;-
1531156235515;-;-;-0.07664063;0.5748047;10.059082;0.03300807;0.0132567;0.14908108;13.950001;56.7;-41.550003;-;-;-;-;-;-;-;-;-
1531156235526;-;-;0.028740235;0.6179151;9.881851;0.02874701;0.03722515;0.1277758;13.950001;56.7;-41.550003;-;-;-;-;-;-;-;-;-
1531156235536;-;-;-0.009580079;0.6610254;9.75252;0.007974352;0.049475692;0.11179682;14.250001;58.800003;-43.050003;-;-;-;-;-;-;-;-;-
1531156235546;-;-;0.014370117;0.5939649;9.83874;-0.0026782928;0.041486207;0.10380734;14.250001;58.800003;-43.050003;-;-;-;-;-;-;-;-;-
1531156235556;-;-;-0.014370117;0.5939649;9.982442;5.175007E-4;0.021246184;0.09208943;14.55;59.100002;-41.850002;-;-;-;-;-;-;-;-;-
1531156235567;-;-;0.038320314;0.5891748;10.083033;0.026083848;0.011126171;0.08037152;14.55;59.100002;-41.850002;-;-;-;-;-;-;-;-;-
1531156235577;-;-;0.009580079;0.51732427;10.102193;0.053248093;0.018050391;0.06599045;14.85;58.500004;-42.300003;-;-;-;-;-;-;-;-;-
1531156235587;-;-;-0.05748047;0.5460645;9.953702;0.07189022;0.010593538;0.053207282;14.85;58.500004;-42.300003;-;-;-;-;-;-;-;-;-
1531156235597;-;-;-0.119750984;0.46942386;9.848321;0.06603127;0.0036693201;0.053739913;14.1;56.550003;-42.15;-;-;-;-;-;-;-;-;-
1531156235608;-;-;-0.081430666;0.36883304;9.81;0.062302843;0.021778816;0.0585336;15.750001;58.65;-42.9;-;-;-;-;-;-;-;-;-
1531156235617;-;-;-0.21076173;0.40715334;9.479487;0.028214376;0.038823046;0.06545782;15.750001;58.65;-42.9;-;-;-;-;-;-;-;-;-
1531156235628;-;-;-0.06706055;0.43589357;9.378897;-0.005874086;0.050540958;0.061729398;15.750001;57.600002;-42.45;-;-;-;-;-;-;-;-;-
1531156235638;-;-;-0.033530276;0.56522465;9.412427;-0.06819206;0.07344414;0.05107675;15.750001;57.600002;-42.45;-;-;-;-;-;-;-;-;-
1531156235647;-;-;-0.0047900393;0.53169435;9.455538;-0.08736681;0.08303152;0.029771462;15.750001;57.600002;-42.45;-;-;-;-;-;-;-;-;-
1531156235657;-;-;-0.17723145;0.46463382;9.733359;-0.094823666;0.06438939;0.01965145;14.400001;57.9;-42.15;-;-;-;-;-;-;-;-;-
1531156235668;-;-;-0.2203418;0.4981641;9.958491;-0.079909965;0.021778816;0.02178198;14.250001;58.800003;-42.300003;-;-;-;-;-;-;-;-;-
1531156235677;-;-;-0.32093263;0.4981641;10.039923;-0.027712751;-0.041602183;0.03669839;14.250001;58.800003;-42.300003;-;-;-;-;-;-;-;-;-
1531156235687;-;-;-0.3065625;0.38320315;10.035132;-5.485072E-4;-0.05704852;0.048416298;15.450001;58.95;-41.7;-;-;-;-;-;-;-;-;-
1531156235698;-;-;-0.21076173;0.46463382;9.75731;0.009571506;-0.04586324;0.059068944;15.450001;58.95;-41.7;-;-;-;-;-;-;-;-;-
1531156235708;-;-;-0.019160157;0.50774413;9.608819;-0.013864312;-0.030416906;0.050014194;14.55;57.750004;-42.300003;-;-;-;-;-;-;-;-;-
1531156235718;-;-;0.05269043;0.5604346;9.580078;-0.06552964;0.015389464;0.03936155;14.55;57.750004;-42.300003;-;-;-;-;-;-;-;-;-
1531156235728;-;-;0.014370117;0.60833496;9.623189;-0.10174863;0.04095581;0.023382584;15.6;57.750004;-40.65;-;-;-;-;-;-;-;-;-
1531156235739;-;-;-0.13891114;0.53169435;10.054293;-0.11985812;0.046814766;-0.004314292;15.6;57.750004;-40.65;-;-;-;-;-;-;-;-;-
1531156235749;-;-;-0.25866213;0.51732427;10.054293;-0.0980202;0.03349896;0.0020772945;15.750001;58.350002;-42.9;-;-;-;-;-;-;-;-;-
1531156235759;-;-;-0.3544629;0.51732427;10.241104;-0.058072787;0.0031389226;0.014327834;15.750001;58.350002;-42.9;-;-;-;-;-;-;-;-;-
1531156235770;-;-;-0.244292;0.53169435;10.193204;-0.038365394;-0.022960056;0.019654159;14.85;59.550003;-41.550003;-;-;-;-;-;-;-;-;-
