TimeStamp[ms];Prox[Cm];Lux[lux];AccX[m/s^2];AccY[m/s^2];AccZ[m/s^2];GyroX[rad/s];GyroY[rad/s];GyroZ[rad/s];MagnX[uT];MagnY[uT];MagnZ[uT];OrienYaw[degrees];OrienPitch[degrees];OrienRoll[degrees];Press[Pa];Temp[C°];Batt[%];Lat;Lng;Speed[m/s]
1531156305303;-;-;-0.3544629;0.488584;9.326206;0.07560935;0.2864944;-0.077090085;-7.05;26.250002;-39.45;-;-;-;-;-;-;-;-;-
1531156305302;-;-;-0.4167334;0.46942386;9.254355;0.0846641;0.2614607;-0.07655745;-7.05;26.250002;-39.45;-;-;-;-;-;-;-;-;-
1531156305319;-;-;-0.49337405;0.613125;9.800421;0.069217764;0.35200816;-0.041403722;-7.5000005;26.400002;-39.600002;-;-;-;-;-;-;-;-;-
1531156305319;-;-;-0.49337405;0.613125;9.800421;0.069217764;0.35200816;-0.041403722;-7.5000005;26.400002;-39.600002;-;-;-;-;-;-;-;-;-
1531156305326;-;-;-0.6706055;0.71371585;10.188414;0.07667461;0.33017024;-0.013706846;-7.5000005;26.400002;-39.600002;-;-;-;-;-;-;-;-;-
1531156305336;-;-;-0.8095166;0.6610254;10.202784;0.089988925;0.20498213;0.01610541;-7.5000005;26.400002;-39.600002;-;-;-;-;-;-;-;-;-
1531156305346;-;-;-0.6227051;0.6514453;10.020762;0.05057413;0.09312937;0.031551745;-8.700001;27.6;-41.100002;-;-;-;-;-;-;-;-;-
1531156305356;-;-;-0.60833496;0.6993457;10.106983;-0.015472262;0.022821914;0.01663804;-8.700001;27.6;-41.100002;-;-;-;-;-;-;-;-;-
1531156305367;-;-;-0.5843848;0.5508545;10.159674;-0.06553969;-0.048550803;0.008115925;-7.8;27.45;-40.050003;-;-;-;-;-;-;-;-;-
1531156305376;-;-;-0.52690434;0.5029541;10.197993;-0.07672497;-0.092226654;-0.012124099;-7.8;27.45;-40.050003;-;-;-;-;-;-;-;-;-
1531156305387;-;-;-0.5412744;0.45505372;10.265054;-0.060213372;-0.09382455;-0.004667248;-7.2000003;26.400002;-40.95;-;-;-;-;-;-;-;-;-
1531156305397;-;-;-0.4742139;0.2682422;10.236314;-0.017070161;-0.10181403;-0.0051998803;-7.2000003;26.400002;-40.95;-;-;-;-;-;-;-;-;-
1531156305407;-;-;-0.40715334;0.3161426;9.968072;0.0058330256;-0.10341193;-0.02171148;-7.2000003;28.050001;-39.300003;-;-;-;-;-;-;-;-;-
1531156305417;-;-;-0.39757326;0.5556446;9.72857;0.0074309222;-0.05281186;-0.029700963;-7.2000003;28.050001;-39.300003;-;-;-;-;-;-;-;-;-
1531156305428;-;-;-0.4981641;0.6227051;9.637559;-0.013874366;-0.018190768;-0.015852526;-6.6000004;27.150002;-41.850002;-;-;-;-;-;-;-;-;-
1531156305438;-;-;-0.613125;0.63707525;9.766891;-0.029320702;0.0047124177;-0.02224411;-6.6000004;27.150002;-41.850002;-;-;-;-;-;-;-;-;-
1531156305448;-;-;-0.75203615;0.6322852;10.212363;-0.031983864;0.043594573;0.0107790865;-5.8500004;27.45;-40.050003;-;-;-;-;-;-;-;-;-
1531156305458;-;-;-0.86220706;0.6227051;10.212363;-5.5856106E-4;0.026017707;0.03314964;-7.2000003;26.400002;-39.600002;-;-;-;-;-;-;-;-;-
1531156305469;-;-;-0.6322852;0.5843848;10.183623;0.044715177;0.022289282;0.06244441;-7.2000003;26.400002;-39.600002;-;-;-;-;-;-;-;-;-
1531156305479;-;-;-0.5508545;0.57001466;10.121353;0.05749835;0.040398777;0.07309706;-7.05;25.800001;-40.2;-;-;-;-;-;-;-;-;-
1531156305489;-;-;-0.4263135;0.5939649;10.116563;0.09424998;0.05531248;0.06350968;-7.05;25.800001;-40.2;-;-;-;-;-;-;-;-;-
1531156305499;-;-;-0.4023633;0.4167334;9.972861;0.10650052;0.025485076;0.050726503;-6.3;26.250002;-39.0;-;-;-;-;-;-;-;-;-
1531156305510;-;-;-0.35925296;0.45026368;9.862691;0.08040154;-0.0048749624;0.015572777;-6.3;26.250002;-39.0;-;-;-;-;-;-;-;-;-
1531156305520;-;-;-0.4023633;0.44547364;9.829161;0.060161512;-0.02138656;-9.388225E-4;-6.4500003;26.7;-39.600002;-;-;-;-;-;-;-;-;-
1531156305530;-;-;-0.45026368;0.56522465;9.81;0.02127936;-0.048550803;-0.024374641;-6.4500003;26.7;-39.600002;-;-;-;-;-;-;-;-;-
1531156305540;-;-;-0.5508545;0.57001466;9.814791;0.019681463;-0.038963426;-0.02224411;-4.65;26.250002;-40.2;-;-;-;-;-;-;-;-;-
1531156305551;-;-;-0.6322852;0.62749517;9.81958;0.008496187;-0.024049722;-0.011591467;-4.65;26.250002;-40.2;-;-;-;-;-;-;-;-;-
1531156305561;-;-;-0.613125;0.56522465;9.924961;0.018083567;0.012169269;-4.061903E-4;-6.6000004;25.2;-39.45;-;-;-;-;-;-;-;-;-
1531156305571;-;-;-0.5987549;0.64186525;10.063872;0.060694143;0.049986158;0.014507512;-6.6000004;25.2;-39.45;-;-;-;-;-;-;-;-;-
1531156305582;-;-;-0.5748047;0.5604346;10.097403;0.09904367;0.044127204;0.023029627;-5.4;26.7;-40.5;-;-;-;-;-;-;-;-;-
1531156305591;-;-;-0.488584;0.4981641;9.982442;0.13419738;0.05318195;0.021964364;-5.4;26.7;-40.5;-;-;-;-;-;-;-;-;-
1531156305601;-;-;-0.35925296;0.45984375;9.75731;0.14325213;0.07075881;0.0107790865;-7.3500004;26.250002;-40.2;-;-;-;-;-;-;-;-;-
1531156305611;-;-;-0.29698244;0.48379397;9.589659;0.12407739;0.08460725;-0.014254628;-7.3500004;26.250002;-40.2;-;-;-;-;-;-;-;-;-
1531156305622;-;-;-0.3544629;0.51732427;9.72378;0.1160879;0.089933574;-0.022776743;-6.3;25.2;-40.2;-;-;-;-;-;-;-;-;-
1531156305632;-;-;-0.3879932;0.5125342;9.733359;0.09691314;0.06543249;-0.0435494;-6.3;25.2;-40.2;-;-;-;-;-;-;-;-;-
1531156305642;-;-;-0.488584;0.6945557;9.83874;0.088923655;0.054779846;-0.03396202;-6.6000004;25.2;-39.0;-;-;-;-;-;-;-;-;-
1531156305653;-;-;-0.6322852;0.7089258;9.82437;0.07347732;0.04625773;-0.021178847;-6.6000004;25.2;-39.0;-;-;-;-;-;-;-;-;-
1531156305663;-;-;-0.49337405;0.7951465;9.829161;0.071879424;0.051051423;-0.0014714547;-8.25;24.0;-38.850002;-;-;-;-;-;-;-;-;-
1531156305673;-;-;-0.5843848;0.79993653;9.77647;0.055900455;0.044659834;0.012909615;-8.25;24.0;-38.850002;-;-;-;-;-;-;-;-;-
1531156305683;-;-;-0.5987549;0.8669971;9.77647;0.035127796;0.023354545;0.04007386;-6.15;25.95;-38.4;-;-;-;-;-;-;-;-;-
1531156305693;-;-;-0.43110353;0.8047266;9.7812605;-0.004286987;0.023354545;0.06617284;-6.15;25.95;-38.4;-;-;-;-;-;-;-;-;-
1531156305703;-;-;-0.38320315;0.8143067;9.857901;-0.04849546;0.028680868;0.076825485;-6.15;26.400002;-38.4;-;-;-;-;-;-;-;-;-
1531156305714;-;-;-0.28740236;0.71371585;9.939331;-0.086312346;0.021756649;0.06830337;-6.15;26.400002;-38.4;-;-;-;-;-;-;-;-;-
1531156305724;-;-;-0.22992188;0.57959473;10.135723;-0.08950814;0.023887178;0.03794333;-6.4500003;25.650002;-40.050003;-;-;-;-;-;-;-;-;-
1531156305734;-;-;-0.23950197;0.60833496;10.418335;-0.06394179;0.04838826;0.0011917064;-6.4500003;25.650002;-40.050003;-;-;-;-;-;-;-;-;-
1531156305744;-;-;-0.39278322;0.6993457;10.5620365;-5.5856106E-4;0.043061938;-0.02224411;-6.4500003;27.45;-39.600002;-;-;-;-;-;-;-;-;-
1531156305754;-;-;-0.5987549;0.7424561;10.471025;0.060694143;0.008440843;-0.015852526;-6.4500003;27.45;-39.600002;-;-;-;-;-;-;-;-;-
1531156305764;-;-;-0.46463382;0.728086;10.169253;0.09851103;-0.0027444337;0.0022569709;-6.7500005;27.750002;-40.95;-;-;-;-;-;-;-;-;-
1531156305775;-;-;-0.28261232;0.8143067;9.82437;0.10756578;-0.038963426;0.011311719;-6.7500005;27.750002;-40.95;-;-;-;-;-;-;-;-;-
1531156305784;-;-;-0.19160157;0.7376661;9.522598;0.0846626;-0.058138184;0.014507512;-7.05;25.500002;-40.65;-;-;-;-;-;-;-;-;-
1531156305794;-;-;-0.1580713;0.847837;9.685459;0.03619306;-0.0016791692;-0.004667248;-7.05;25.500002;-40.65;-;-;-;-;-;-;-;-;-
1531156305804;-;-;-0.2921924;0.8861573;9.72857;0.023409888;0.006310314;-0.02171148;-6.7500005;25.050001;-39.300003;-;-;-;-;-;-;-;-;-
1531156305814;-;-;-0.40715334;0.8047266;9.604029;-0.006950148;-0.03789816;-0.037690446;-6.7500005;25.050001;-39.300003;-;-;-;-;-;-;-;-;-
1531156305824;-;-;-0.46463382;0.75203615;9.594449;-0.051691256;-0.027245516;-0.032896757;-5.25;26.250002;-39.9;-;-;-;-;-;-;-;-;-
1531156305834;-;-;-0.5843848;0.89573735;9.953702;-0.07193128;0.0020492563;-0.027570434;-5.25;26.250002;-39.9;-;-;-;-;-;-;-;-;-
1531156305845;-;-;-0.5748047;0.92926764;10.178833;-0.07779023;4.5135967E-4;-0.02171148;-6.7500005;25.650002;-41.25;-;-;-;-;-;-;-;-;-
1531156305855;-;-;-0.6322852;0.9388477;10.418335;-0.07246391;-0.00913602;-0.0057325126;-6.7500005;25.650002;-41.25;-;-;-;-;-;-;-;-;-
1531156305865;-;-;-0.6562354;0.8813672;10.686578;-0.051691256;-0.0123318145;0.0022569709;-7.65;26.85;-40.2;-;-;-;-;-;-;-;-;-
1531156305875;-;-;-0.68018556;0.7759864;11.079361;-0.00268909;-0.06559504;0.021964364;-7.65;26.85;-40.2;-;-;-;-;-;-;-;-;-
1531156305885;-;-;-0.6562354;0.7424561;10.87818;0.05962888;-0.16732779;0.029421214;-5.8500004;26.7;-38.100002;-;-;-;-;-;-;-;-;-
1531156305896;-;-;-0.5556446;0.6849756;10.4566555;0.07880364;-0.2765174;0.0374107;-5.8500004;26.7;-38.100002;-;-;-;-;-;-;-;-;-
1531156305906;-;-;-0.4263135;0.6322852;10.054293;0.058563616;-0.30634478;0.020899098;-6.4500003;25.95;-40.95;-;-;-;-;-;-;-;-;-
1531156305916;-;-;-0.31135255;0.6466553;9.70941;0.021811992;-0.2882353;-0.0030693514;-6.4500003;25.95;-40.95;-;-;-;-;-;-;-;-;-
1531156305926;-;-;-0.14849122;0.67539555;9.618399;-0.02665754;-0.23710261;-0.035027284;-6.0;26.250002;-40.65;-;-;-;-;-;-;-;-;-
1531156305936;-;-;-0.15328126;0.6514453;9.651929;-0.03411439;-0.1790457;-0.049408354;-6.0;26.250002;-40.65;-;-;-;-;-;-;-;-;-
1531156305946;-;-;-0.2921924;0.6514453;9.920172;-0.011743837;-0.1327067;-0.06698522;-6.6000004;26.550001;-39.0;-;-;-;-;-;-;-;-;-
1531156305956;-;-;-0.2921924;0.68976563;10.020762;0.01382251;-0.09755297;-0.07177891;-6.6000004;26.550001;-39.0;-;-;-;-;-;-;-;-;-
1531156305966;-;-;-0.36883304;0.74724615;9.901011;0.076140486;-0.022451825;-0.071246274;-6.3;26.85;-40.2;-;-;-;-;-;-;-;-;-
1531156305976;-;-;-0.39278322;0.7711963;9.75731;0.09211945;0.006310314;-0.056865208;-6.3;26.85;-40.2;-;-;-;-;-;-;-;-;-
1531156305986;-;-;-0.45505372;0.8334668;9.7812605;0.10330473;0.056377742;-0.06325679;-7.3500004;25.800001;-40.2;-;-;-;-;-;-;-;-;-
1531156305997;-;-;-0.5508545;0.852627;9.814791;0.10650052;0.059040904;-0.05047362;-7.3500004;25.800001;-40.2;-;-;-;-;-;-;-;-;-
1531156306007;-;-;-0.60354495;0.85741705;9.958491;0.09904367;0.040398777;-0.05047362;-6.3;25.800001;-39.9;-;-;-;-;-;-;-;-;-
1531156306017;-;-;-0.5987549;0.852627;10.025552;0.09638051;0.027615603;-0.04621256;-6.3;25.800001;-39.9;-;-;-;-;-;-;-;-;-
1531156306027;-;-;-0.5987549;0.8813672;10.039923;0.103837356;-0.019256033;-0.0435494;-7.2000003;24.6;-39.600002;-;-;-;-;-;-;-;-;-
1531156306037;-;-;-0.68018556;0.89573735;9.972861;0.103837356;-0.02138656;-0.048875723;-6.0;25.2;-40.65;-;-;-;-;-;-;-;-;-
1531156306047;-;-;-0.7089258;0.9244776;9.910591;0.10170683;-0.0123318145;-0.048875723;-6.0;25.2;-40.65;-;-;-;-;-;-;-;-;-
1531156306057;-;-;-0.6945557;0.9867481;9.72378;0.10010894;-0.013929711;-0.041951504;-6.3;24.45;-39.45;-;-;-;-;-;-;-;-;-
1531156306068;-;-;-0.6658155;1.0059083;9.474698;0.062824674;0.013234532;-0.01691779;-6.3;24.45;-39.45;-;-;-;-;-;-;-;-;-
1531156306078;-;-;-0.6993457;1.0585986;9.570498;0.031932004;0.022821914;-0.0025367192;-7.8;25.650002;-40.050003;-;-;-;-;-;-;-;-;-
1531156306088;-;-;-0.6993457;1.0346485;9.426797;-0.03411439;0.041996673;0.029421214;-7.8;25.650002;-40.050003;-;-;-;-;-;-;-;-;-
1531156306098;-;-;-0.64186525;1.0490186;9.517808;-0.06607232;0.06383459;0.053389665;-6.0;25.500002;-40.2;-;-;-;-;-;-;-;-;-
1531156306108;-;-;-0.52690434;1.0298585;9.6615095;-0.09270393;0.1085757;0.07895601;-6.0;25.500002;-40.2;-;-;-;-;-;-;-;-;-
1531156306118;-;-;-0.51732427;0.9580079;9.7621;-0.10175868;0.11549992;0.08801076;-6.6000004;25.500002;-39.9;-;-;-;-;-;-;-;-;-
1531156306128;-;-;-0.22513184;0.9484278;9.996812;-0.09962815;0.13094625;0.083749704;-6.6000004;25.500002;-39.9;-;-;-;-;-;-;-;-;-
1531156306139;-;-;-0.2778223;0.9436377;10.039923;-0.08311655;0.1234894;0.07948864;-6.6000004;24.750002;-39.45;-;-;-;-;-;-;-;-;-
1531156306149;-;-;-0.21555176;0.8909473;10.159674;-0.06980075;0.079813555;0.060313884;-6.6000004;24.750002;-39.45;-;-;-;-;-;-;-;-;-
1531156306159;-;-;-0.25387207;0.91010743;10.197993;-0.053821784;0.08034619;0.05445493;-6.3;26.250002;-39.9;-;-;-;-;-;-;-;-;-
1531156306170;-;-;-0.3161426;0.9532178;10.054293;-0.020265954;0.0457251;0.05552019;-6.3;26.250002;-39.9;-;-;-;-;-;-;-;-;-
1531156306179;-;-;-0.3065625;1.0538087;9.953702;-0.022929115;0.03933351;0.062977046;-7.05;27.150002;-39.45;-;-;-;-;-;-;-;-;-
1531156306189;-;-;-0.3065625;1.0154883;9.963282;-0.028255437;0.028148236;0.07789075;-7.05;27.150002;-39.45;-;-;-;-;-;-;-;-;-
1531156306200;-;-;-0.3544629;0.9388477;9.968072;-0.01973332;0.041464042;0.0853476;-7.65;26.550001;-39.0;-;-;-;-;-;-;-;-;-
1531156306210;-;-;-0.34967285;0.79993653;10.030342;-0.022929115;0.06383459;0.09120655;-7.65;26.550001;-39.0;-;-;-;-;-;-;-;-;-
1531156306220;-;-;-0.20597169;0.71371585;10.078242;-0.014939631;0.09898832;0.07789075;-7.05;25.2;-40.2;-;-;-;-;-;-;-;-;-
1531156306230;-;-;-0.35925296;0.6849756;10.380015;-0.0032217223;0.14639258;0.05552019;-7.05;25.2;-40.2;-;-;-;-;-;-;-;-;-
1531156306240;-;-;-0.4167334;0.6466553;10.504556;-0.0021564579;0.13414204;0.058183353;-7.5000005;26.7;-38.850002;-;-;-;-;-;-;-;-;-
1531156306251;-;-;-0.49337405;0.6322852;10.432706;-5.5856106E-4;0.13254414;0.04433492;-7.5000005;26.7;-38.850002;-;-;-;-;-;-;-;-;-
1531156306261;-;-;-0.43110353;0.5939649;10.447076;-0.0032217223;0.11656518;0.041671757;-7.5000005;25.95;-41.7;-;-;-;-;-;-;-;-;-
1531156306271;-;-;-0.5125342;0.5939649;10.624307;-0.009613308;0.09898832;0.026225422;-7.5000005;25.95;-41.7;-;-;-;-;-;-;-;-;-
1531156306281;-;-;-0.6514453;0.53169435;10.581197;-0.016004896;0.0622367;0.024627525;-4.9500003;25.800001;-41.100002;-;-;-;-;-;-;-;-;-
1531156306291;-;-;-0.6179151;0.5125342;10.557246;-0.011211205;0.039866146;0.024094893;-4.9500003;25.800001;-41.100002;-;-;-;-;-;-;-;-;-
1531156306302;-;-;-0.5987549;0.5221143;10.461446;-0.011743837;0.021224018;0.012909615;-5.4;25.650002;-40.95;-;-;-;-;-;-;-;-;-
1531156306312;-;-;-0.7089258;0.52690434;10.360855;-0.017070161;-0.014994975;0.020899098;-5.4;25.650002;-40.95;-;-;-;-;-;-;-;-;-
1531156306322;-;-;-0.45984375;0.56522465;10.174044;-0.025059644;-0.062399242;0.025160156;-6.15;26.400002;-40.95;-;-;-;-;-;-;-;-;-
1531156306333;-;-;-0.34009278;0.57001466;10.183623;-0.027723853;-0.11514345;0.018225366;-6.15;26.400002;-40.95;-;-;-;-;-;-;-;-;-
1531156306343;-;-;-0.13891114;0.51732427;9.996812;-0.02719122;-0.13751401;-0.004677818;-6.4500003;25.650002;-41.25;-;-;-;-;-;-;-;-;-
1531156306353;-;-;0.014370117;0.4981641;9.7812605;-0.009614356;-0.15296035;-0.05527788;-6.4500003;25.650002;-41.25;-;-;-;-;-;-;-;-;-
1531156306363;-;-;0.023950197;0.4406836;9.733359;0.001038288;-0.15402561;-0.10161689;-6.15;25.95;-40.050003;-;-;-;-;-;-;-;-;-
1531156306373;-;-;-0.14849122;0.42152345;9.541759;0.038322546;-0.101827644;-0.14529271;-6.15;25.95;-40.050003;-;-;-;-;-;-;-;-;-
1531156306383;-;-;-0.19160157;0.50774413;9.412427;0.058029935;-0.011812799;-0.17831592;-7.3500004;26.550001;-39.0;-;-;-;-;-;-;-;-;-
1531156306394;-;-;-0.19160157;0.6227051;9.6758795;0.08785734;0.047309376;-0.20281701;-7.3500004;26.550001;-39.0;-;-;-;-;-;-;-;-;-
1531156306404;-;-;-0.38320315;0.78556645;9.80521;0.13366371;0.08885469;-0.22412229;-6.3;25.500002;-39.45;-;-;-;-;-;-;-;-;-
1531156306414;-;-;-0.57001466;0.82388675;9.872271;0.18000272;0.08778943;-0.21560018;-6.3;25.500002;-39.45;-;-;-;-;-;-;-;-;-
1531156306424;-;-;-0.71371585;1.0059083;9.656719;0.20290591;0.06222308;-0.19589278;-5.4;25.050001;-41.25;-;-;-;-;-;-;-;-;-
1531156306435;-;-;-0.67539555;0.9963282;9.608819;0.20237327;0.043580953;-0.18470751;-5.4;25.050001;-41.25;-;-;-;-;-;-;-;-;-
1531156306445;-;-;-0.82388675;1.0394385;9.455538;0.19012272;-9.488978E-5;-0.16500011;-6.3;26.250002;-42.300003;-;-;-;-;-;-;-;-;-
1531156306455;-;-;-0.9532178;1.1496094;9.350157;0.17414376;-0.01660649;-0.14955378;-6.3;26.250002;-42.300003;-;-;-;-;-;-;-;-;-
1531156306465;-;-;-0.86220706;1.1352394;9.268726;0.14484899;-0.008084374;-0.10587794;-5.55;24.45;-39.9;-;-;-;-;-;-;-;-;-
1531156306475;-;-;-0.9148975;1.0106983;9.220825;0.12833738;0.008959858;-0.08404002;-5.55;24.45;-39.9;-;-;-;-;-;-;-;-;-
1531156306486;-;-;-0.9388477;0.977168;9.278306;0.07773733;0.061690446;-0.04888629;-6.0;25.2;-41.100002;-;-;-;-;-;-;-;-;-
1531156306496;-;-;-0.85741705;0.96758795;9.220825;0.039387807;0.08991996;-0.017993623;-5.8500004;25.95;-38.100002;-;-;-;-;-;-;-;-;-
1531156306506;-;-;-0.9963282;1.0011182;9.484278;-0.021332266;0.16235794;0.0065074586;-5.8500004;25.95;-38.100002;-;-;-;-;-;-;-;-;-
1531156306516;-;-;-1.092129;0.93405765;9.599238;-0.05382283;0.19218534;0.046987507;-5.55;25.2;-39.9;-;-;-;-;-;-;-;-;-
1531156306526;-;-;-1.22625;0.8861573;10.121353;-0.11241238;0.22680643;0.10291389;-5.55;25.2;-39.9;-;-;-;-;-;-;-;-;-
1531156306537;-;-;-1.1496094;0.7807764;10.518927;-0.13052188;0.22520854;0.15617712;-5.8500004;24.300001;-40.050003;-;-;-;-;-;-;-;-;-
1531156306547;-;-;-0.89573735;0.63707525;10.93087;-0.12679344;0.16076003;0.18920031;-5.8500004;24.300001;-40.050003;-;-;-;-;-;-;-;-;-
1531156306557;-;-;-0.6610254;0.51732427;11.04104;-0.11880396;0.09844208;0.18440662;-7.2000003;25.35;-40.050003;-;-;-;-;-;-;-;-;-
1531156306568;-;-;-0.20597169;0.42152345;10.825489;-0.09430288;-0.012345431;0.14019816;-7.2000003;25.35;-40.050003;-;-;-;-;-;-;-;-;-
1531156306578;-;-;-0.14849122;0.244292;10.571617;-0.09536815;-0.06667392;0.12102339;-6.4500003;24.6;-40.050003;-;-;-;-;-;-;-;-;-
1531156306588;-;-;-0.014370117;0.21555176;10.289004;-0.11667343;-0.16254772;0.005442194;-6.4500003;24.6;-40.050003;-;-;-;-;-;-;-;-;-
1531156306598;-;-;0.1341211;0.4167334;10.154883;-0.12839134;-0.20941935;-0.06912632;-6.15;25.050001;-39.600002;-;-;-;-;-;-;-;-;-
1531156306608;-;-;0.14849122;0.5125342;9.982442;-0.119869225;-0.21527831;-0.14476009;-6.15;25.050001;-39.600002;-;-;-;-;-;-;-;-;-
1531156306619;-;-;-0.033530276;0.6227051;9.877061;-0.07512812;-0.19130987;-0.2193286;-6.7500005;24.6;-41.25;-;-;-;-;-;-;-;-;-
1531156306629;-;-;-0.364043;0.8813672;9.618399;-0.013875414;-0.15296035;-0.2603413;-6.7500005;24.6;-41.25;-;-;-;-;-;-;-;-;-
1531156306639;-;-;-0.5987549;1.0250684;9.455538;0.007962507;-0.103958175;-0.27046132;-6.6000004;24.45;-40.65;-;-;-;-;-;-;-;-;-
1531156306649;-;-;-0.79993653;1.1927198;9.445957;0.033528853;-0.051227584;-0.27472237;-6.6000004;24.45;-40.65;-;-;-;-;-;-;-;-;-
1531156306659;-;-;-0.8909473;1.2549903;9.398057;0.03672465;-0.022998076;-0.26939604;-6.3;26.85;-41.550003;-;-;-;-;-;-;-;-;-
1531156306670;-;-;-1.1208692;1.2741505;9.383687;0.05217098;-9.488978E-5;-0.2475581;-6.3;26.85;-41.550003;-;-;-;-;-;-;-;-;-
1531156306679;-;-;-1.0346485;1.21188;9.407638;0.041518338;-0.015541224;-0.21080649;-5.8500004;25.35;-40.050003;-;-;-;-;-;-;-;-;-
1531156306689;-;-;-1.1256592;1.22146;9.412427;0.0052993456;-0.04270547;-0.17405486;-5.8500004;25.35;-40.050003;-;-;-;-;-;-;-;-;-
1531156306699;-;-;-1.1256592;1.2693604;9.259146;-0.027723853;-0.07839183;-0.14369482;-6.4500003;25.95;-39.600002;-;-;-;-;-;-;-;-;-
1531156306709;-;-;-0.9963282;1.1975098;9.412427;-0.09270498;-0.08212025;-0.11546532;-6.4500003;25.95;-39.600002;-;-;-;-;-;-;-;-;-
1531156306719;-;-;-0.9388477;1.1687696;9.513018;-0.11347764;-0.07572866;-0.09842109;-4.05;26.400002;-40.5;-;-;-;-;-;-;-;-;-
1531156306729;-;-;-0.97237796;1.0490186;9.766891;-0.10974921;-0.044836;-0.0787137;-4.05;26.400002;-40.5;-;-;-;-;-;-;-;-;-
1531156306740;-;-;-0.93405765;0.98195803;10.001602;-0.07938918;-0.033118088;-0.056343142;-6.15;26.7;-40.050003;-;-;-;-;-;-;-;-;-
1531156306750;-;-;-0.7807764;0.93405765;10.030342;-0.040507026;-0.008617005;-0.030776797;-6.15;26.7;-40.050003;-;-;-;-;-;-;-;-;-
1531156306760;-;-;-0.74724615;0.85741705;9.958491;-0.020799633;0.01641671;-0.024385212;-6.6000004;25.2;-40.65;-;-;-;-;-;-;-;-;-
1531156306770;-;-;-0.5939649;0.75203615;9.948912;0.011158301;0.05316833;-0.009471508;-6.6000004;25.2;-40.65;-;-;-;-;-;-;-;-;-
1531156306780;-;-;-0.6227051;0.7089258;9.948912;0.017549887;0.07820205;-0.004677818;-6.6000004;26.250002;-40.2;-;-;-;-;-;-;-;-;-
1531156306790;-;-;-0.57959473;0.6227051;9.910591;0.0058319783;0.059027284;0.012899045;-6.6000004;26.250002;-40.2;-;-;-;-;-;-;-;-;-
1531156306801;-;-;-0.53169435;0.45026368;9.77647;-0.020799633;0.03878726;0.008637987;-7.5000005;25.050001;-40.050003;-;-;-;-;-;-;-;-;-
1531156306811;-;-;-0.5891748;0.41194338;9.666299;-0.074062854;0.044646215;0.01609484;-7.5000005;25.050001;-40.050003;-;-;-;-;-;-;-;-;-
1531156306821;-;-;-0.5364844;0.4406836;9.8866415;-0.13904399;0.05742939;0.019290632;-5.1000004;26.7;-38.850002;-;-;-;-;-;-;-;-;-
1531156306831;-;-;-0.44547364;0.41194338;10.2315235;-0.15981807;0.06646553;0.01980882;-5.1000004;26.7;-38.850002;-;-;-;-;-;-;-;-;-
1531156306841;-;-;-0.5508545;0.37362307;10.528506;-0.15608965;0.06699816;0.0016993231;-6.6000004;25.2;-39.45;-;-;-;-;-;-;-;-;-
1531156306852;-;-;-0.5987549;0.30177248;10.700948;-0.11880539;0.04516024;-0.00629016;-6.6000004;25.2;-39.45;-;-;-;-;-;-;-;-;-
1531156306862;-;-;-0.613125;0.38320315;10.6817875;-0.068205334;0.030246537;-0.017475437;-5.8500004;25.95;-41.7;-;-;-;-;-;-;-;-;-
1531156306872;-;-;-0.7664063;0.4981641;10.700948;-0.042106353;-0.005439822;-0.023334391;-5.8500004;25.95;-41.7;-;-;-;-;-;-;-;-;-
1531156306882;-;-;-0.89573735;0.29698244;10.571617;-0.006952627;-0.031006169;-0.024399657;-6.3;25.500002;-39.9;-;-;-;-;-;-;-;-;-
1531156306892;-;-;-0.60354495;0.4981641;10.547667;0.01382003;-0.07468201;-0.024932288;-6.3;25.500002;-39.9;-;-;-;-;-;-;-;-;-
1531156306902;-;-;-0.5125342;0.60833496;10.293795;0.036190584;-0.13966314;-0.056890223;-6.3;25.800001;-39.45;-;-;-;-;-;-;-;-;-
1531156306913;-;-;-0.6514453;0.64186525;9.857901;0.015950559;-0.19079584;-0.09310922;-6.3;25.800001;-39.45;-;-;-;-;-;-;-;-;-
1531156306923;-;-;-0.68018556;0.63707525;9.72378;0.0106242355;-0.19612217;-0.11388187;-6.15;25.35;-40.5;-;-;-;-;-;-;-;-;-
1531156306933;-;-;-0.68018556;0.7376661;9.608819;0.019146351;-0.1966548;-0.12240399;-6.15;25.35;-40.5;-;-;-;-;-;-;-;-;-
1531156306943;-;-;-0.6658155;0.93405765;9.503438;0.040451642;-0.13114104;-0.123469256;-5.8500004;24.6;-39.300003;-;-;-;-;-;-;-;-;-
1531156306953;-;-;-0.68976563;0.9963282;9.532178;0.05376745;-0.10504205;-0.12826294;-5.8500004;24.6;-39.300003;-;-;-;-;-;-;-;-;-
1531156306964;-;-;-0.6706055;0.9436377;9.604029;0.07826853;-0.056572516;-0.12986083;-5.8500004;26.400002;-40.5;-;-;-;-;-;-;-;-;-
1531156306974;-;-;-0.7185059;0.98195803;9.513018;0.08679064;-0.044854607;-0.14690508;-5.8500004;26.400002;-40.5;-;-;-;-;-;-;-;-;-
1531156306984;-;-;-0.8047266;0.98195803;9.388477;0.0926496;-0.015559834;-0.15702508;-6.0;26.250002;-41.100002;-;-;-;-;-;-;-;-;-
1531156306994;-;-;-0.8047266;1.0681788;9.273516;0.08093169;0.013202305;-0.16181877;-6.0;26.250002;-41.100002;-;-;-;-;-;-;-;-;-
1531156307005;-;-;-0.8334668;1.1735597;9.168135;0.050571654;0.05687815;-0.13731769;-5.8500004;25.650002;-40.5;-;-;-;-;-;-;-;-;-
1531156307015;-;-;-0.86220706;1.1496094;9.321417;0.032994792;0.09948873;-0.12293662;-7.2000003;24.6;-41.25;-;-;-;-;-;-;-;-;-
1531156307025;-;-;-0.8765772;1.1783496;9.517808;-0.0010936726;0.1287835;-0.09896817;-7.2000003;24.6;-41.25;-;-;-;-;-;-;-;-;-
1531156307035;-;-;-0.8669971;1.22146;9.632769;0.0021021208;0.12345718;-0.083521836;-5.55;25.2;-39.45;-;-;-;-;-;-;-;-;-
1531156307045;-;-;-0.9053174;1.1927198;9.584868;-0.029855814;0.06806342;-0.054759692;-5.55;25.2;-39.45;-;-;-;-;-;-;-;-;-
1531156307055;-;-;-0.847837;1.1687696;9.479487;-0.044769514;0.055280253;-0.0350523;-5.8500004;24.6;-40.050003;-;-;-;-;-;-;-;-;-
1531156307066;-;-;-0.7232959;1.1879297;9.455538;-0.10122853;0.054214988;-0.017475437;-5.8500004;24.6;-40.050003;-;-;-;-;-;-;-;-;-
1531156307077;-;-;-0.6993457;1.1208692;9.580078;-0.120935924;0.0659329;-0.0094859535;-5.4;24.0;-40.5;-;-;-;-;-;-;-;-;-
1531156307087;-;-;-0.6562354;1.1400293;9.78605;-0.15076333;0.072324485;-0.0014964703;-5.4;24.0;-40.5;-;-;-;-;-;-;-;-;-
1531156307098;-;-;-0.57959473;1.0681788;9.896221;-0.16780756;0.092031874;-9.638381E-4;-4.9500003;26.250002;-40.2;-;-;-;-;-;-;-;-;-
1531156307108;-;-;-0.56522465;1.0250684;10.126143;-0.15822017;0.08404239;-0.012149114;-4.9500003;26.250002;-40.2;-;-;-;-;-;-;-;-;-
1531156307119;-;-;-0.6466553;1.0490186;10.145303;-0.14437175;0.074455015;-0.012149114;-5.8500004;24.6;-40.95;-;-;-;-;-;-;-;-;-
1531156307128;-;-;-0.57001466;1.0729688;10.360855;-0.120935924;0.06486763;-0.021736495;-5.8500004;24.6;-40.95;-;-;-;-;-;-;-;-;-
1531156307138;-;-;-0.5221143;1.1112891;10.403965;-0.09483694;0.055280253;-0.039845992;-5.55;26.250002;-40.2;-;-;-;-;-;-;-;-;-
1531156307148;-;-;-0.51732427;1.1735597;10.341695;-0.05808532;0.05954131;-0.060618646;-5.55;26.250002;-40.2;-;-;-;-;-;-;-;-;-
1531156307159;-;-;-0.62749517;1.21188;10.260264;-0.023996858;0.065400265;-0.07020603;-5.1000004;26.7;-40.050003;-;-;-;-;-;-;-;-;-
1531156307169;-;-;-0.7807764;1.2933106;10.241104;0.009558972;0.061139207;-0.082456574;-5.1000004;26.7;-40.050003;-;-;-;-;-;-;-;-;-
1531156307179;-;-;-0.8765772;1.4465919;10.154883;0.022342145;0.053682357;-0.062216543;-5.8500004;26.400002;-40.5;-;-;-;-;-;-;-;-;-
1531156307190;-;-;-1.0585986;1.4992822;10.044712;0.041516908;0.03344233;-0.040378623;-5.8500004;26.400002;-40.5;-;-;-;-;-;-;-;-;-
1531156307200;-;-;-0.9867481;1.6334034;10.035132;0.031396896;-0.011298777;0.0043624844;-5.55;25.800001;-41.100002;-;-;-;-;-;-;-;-;-
1531156307210;-;-;-0.89573735;1.6717237;10.073453;0.043647435;-0.040060915;0.041114107;-5.55;25.800001;-41.100002;-;-;-;-;-;-;-;-;-
1531156307221;-;-;-0.89573735;1.6717237;10.073453;0.043647435;-0.040060915;0.041114107;-5.25;26.250002;-41.100002;-;-;-;-;-;-;-;-;-
1531156307232;-;-;-0.6562354;1.5663428;9.857901;0.043647435;-0.10078099;0.062419396;-5.25;26.250002;-41.100002;-;-;-;-;-;-;-;-;-
1531156307242;-;-;-0.51732427;1.5136524;9.666299;0.038321115;-0.08160623;0.037385684;-4.3500004;26.7;-39.600002;-;-;-;-;-;-;-;-;-
1531156307252;-;-;-0.57001466;1.6381935;9.589659;0.03512532;-0.04325671;0.02513514;-4.3500004;26.7;-39.600002;-;-;-;-;-;-;-;-;-
1531156307263;-;-;-0.6993457;1.6334034;9.484278;0.015417926;0.062204473;-0.0025617348;-5.1000004;25.95;-40.5;-;-;-;-;-;-;-;-;-
1531156307273;-;-;-0.7664063;1.7627344;9.81;-0.0090831565;0.102151886;-0.008953322;-5.1000004;25.95;-40.5;-;-;-;-;-;-;-;-;-
1531156307283;-;-;-0.8765772;1.9734962;10.332115;-0.02452949;0.15008879;-0.04250915;-7.3500004;25.800001;-41.550003;-;-;-;-;-;-;-;-;-
1531156307293;-;-;-1.0011182;2.078877;10.518927;-0.007485259;0.14422983;-0.051031265;-7.3500004;25.800001;-41.550003;-;-;-;-;-;-;-;-;-
1531156307304;-;-;-1.3507911;2.1219873;10.734478;0.043114804;0.12345718;-0.03238914;-6.0;25.2;-39.45;-;-;-;-;-;-;-;-;-
1531156307314;-;-;-1.4849122;2.2465284;10.99314;0.081996955;0.120261386;-9.638381E-4;-6.0;25.2;-39.45;-;-;-;-;-;-;-;-;-
1531156307325;-;-;-1.5807129;2.2465284;11.108101;0.20769817;0.08297713;0.09490996;-5.8500004;25.95;-39.300003;-;-;-;-;-;-;-;-;-
1531156307334;-;-;-1.5136524;2.2129982;11.02667;0.2396556;0.06060022;0.12153664;-5.8500004;25.95;-39.300003;-;-;-;-;-;-;-;-;-
1531156307345;-;-;-1.336421;1.9878663;10.605147;0.3035715;0.04142546;0.15828826;-4.05;25.050001;-40.050003;-;-;-;-;-;-;-;-;-
1531156307356;-;-;-1.2597803;1.7771046;10.255474;0.31156096;-0.031012524;0.19397461;-4.9500003;25.500002;-41.100002;-;-;-;-;-;-;-;-;-
1531156307366;-;-;-1.1352394;1.5950831;9.517808;0.27001566;-0.09439576;0.2152799;-4.9500003;25.500002;-41.100002;-;-;-;-;-;-;-;-;-
1531156307376;-;-;-0.9963282;1.5519727;9.177715;0.21195872;-0.10771157;0.22699782;-4.9500003;25.500002;-41.100002;-;-;-;-;-;-;-;-;-
1531156307387;-;-;-0.5843848;1.4418018;9.163345;0.08785542;-0.14819162;0.2349873;-6.6000004;23.400002;-41.100002;-;-;-;-;-;-;-;-;-
1531156307397;-;-;-0.34488282;1.4226416;9.350157;0.009558484;-0.15405057;0.21368201;-4.9500003;24.45;-41.100002;-;-;-;-;-;-;-;-;-
1531156307407;-;-;-0.17723145;1.2885206;9.733359;-0.04849843;-0.14020213;0.18918093;-4.9500003;24.45;-41.100002;-;-;-;-;-;-;-;-;-
1531156307417;-;-;-0.19160157;1.22625;9.85311;-0.042106844;-0.12582105;0.17160407;-5.4;25.050001;-40.5;-;-;-;-;-;-;-;-;-
1531156307428;-;-;-0.038320314;1.0490186;10.049502;-0.023997346;-0.08587364;0.16254932;-5.4;25.050001;-40.5;-;-;-;-;-;-;-;-;-
1531156307438;-;-;-0.023950197;1.0873389;10.111773;-0.011746805;-0.07788416;0.17373459;-5.4;25.050001;-40.5;-;-;-;-;-;-;-;-;-
1531156307448;-;-;0.19160157;0.7185059;10.174044;0.022341657;-0.017164085;0.1076882;-6.15;24.300001;-39.600002;-;-;-;-;-;-;-;-;-
1531156307459;-;-;0.22513184;0.5604346;9.996812;0.026070083;0.015859112;0.053892348;-5.8500004;25.650002;-38.850002;-;-;-;-;-;-;-;-;-
1531156307470;-;-;0.19160157;0.47900394;10.001602;0.0106237475;0.06379601;0.011281771;-5.8500004;25.650002;-38.850002;-;-;-;-;-;-;-;-;-
1531156307481;-;-;0.09101075;0.5556446;10.2315235;-0.013877334;0.089894995;-0.013219313;-6.4500003;25.35;-39.600002;-;-;-;-;-;-;-;-;-
1531156307491;-;-;-0.014370117;0.5508545;10.375225;-0.04050895;0.11279818;-0.035589866;-6.4500003;25.35;-39.600002;-;-;-;-;-;-;-;-;-
1531156307502;-;-;0.019160157;0.57001466;10.624307;-0.06660793;0.104808696;-0.067547806;-3.6000001;25.800001;-40.65;-;-;-;-;-;-;-;-;-
1531156307513;-;-;-0.014370117;0.6610254;10.92608;-0.07406478;0.049947575;-0.10483206;-3.6000001;25.800001;-40.65;-;-;-;-;-;-;-;-;-
1531156307523;-;-;-0.27303225;0.74724615;11.127261;-0.052226856;-0.06297046;-0.15703002;-4.9500003;25.500002;-38.7;-;-;-;-;-;-;-;-;-
1531156307534;-;-;-0.36883304;0.79993653;11.02188;-0.031986833;-0.11623368;-0.15117106;-4.9500003;25.500002;-38.7;-;-;-;-;-;-;-;-;-
1531156307544;-;-;-0.5604346;0.852627;10.724898;0.022341657;-0.20038958;-0.1548995;-6.3;25.800001;-39.45;-;-;-;-;-;-;-;-;-
1531156307554;-;-;-0.46463382;0.852627;10.523716;0.048440635;-0.23447804;-0.13039841;-4.8;25.650002;-40.95;-;-;-;-;-;-;-;-;-
1531156307564;-;-;-0.3161426;0.92926764;10.221944;0.06921329;-0.24193488;-0.10749522;-4.8;25.650002;-40.95;-;-;-;-;-;-;-;-;-
1531156307575;-;-;-0.14370118;0.78556645;9.73815;0.0809312;-0.20891169;-0.09950574;-7.3500004;24.45;-40.65;-;-;-;-;-;-;-;-;-
1531156307584;-;-;0.16765137;0.6179151;9.704619;0.078268036;-0.14872424;-0.10376679;-7.3500004;24.45;-40.65;-;-;-;-;-;-;-;-;-
1531156307595;-;-;0.16286133;0.6706055;9.70941;0.07347435;-0.12049474;-0.12134366;-7.3500004;24.45;-40.65;-;-;-;-;-;-;-;-;-
1531156307605;-;-;0.3161426;0.5939649;9.857901;0.09850806;-0.054448344;-0.15649739;-5.4;25.650002;-38.850002;-;-;-;-;-;-;-;-;-
1531156307616;-;-;0.27303225;0.60833496;10.044712;0.14271654;-0.016098822;-0.18206373;-5.55;25.2;-39.9;-;-;-;-;-;-;-;-;-
1531156307625;-;-;0.1820215;0.6562354;10.121353;0.17094605;-0.0038482803;-0.20230375;-5.55;25.2;-39.9;-;-;-;-;-;-;-;-;-
1531156307635;-;-;-0.05748047;0.6514453;9.915381;0.2380577;-0.0049135447;-0.21242377;-5.55;25.2;-39.9;-;-;-;-;-;-;-;-;-
1531156307646;-;-;-0.25387207;0.847837;9.575289;0.24072087;0.008402261;-0.19271637;-4.3500004;25.35;-40.5;-;-;-;-;-;-;-;-;-
1531156307656;-;-;-0.3544629;0.75203615;9.4507475;0.22314401;0.016391745;-0.18579216;-5.4;24.6;-40.050003;-;-;-;-;-;-;-;-;-
1531156307666;-;-;-0.43110353;0.8143067;9.307046;0.12513968;0.06539391;-0.1351921;-5.4;24.6;-40.050003;-;-;-;-;-;-;-;-;-
1531156307677;-;-;-0.5364844;0.8047266;9.431587;0.043646943;0.100547634;-0.094179414;-6.0;23.85;-40.65;-;-;-;-;-;-;-;-;-
1531156307687;-;-;-0.49337405;0.7232959;9.944121;-0.028258404;0.10906975;-0.06381938;-6.0;23.85;-40.65;-;-;-;-;-;-;-;-;-
1531156307698;-;-;-0.4263135;0.5891748;10.427916;-0.045302637;0.095753945;-0.052101463;-5.4;24.6;-40.050003;-;-;-;-;-;-;-;-;-
1531156307707;-;-;-0.3544629;0.5460645;10.715318;-0.027725773;0.07072023;-0.05582989;-5.4;24.6;-40.050003;-;-;-;-;-;-;-;-;-
1531156307717;-;-;-0.2921924;0.488584;10.758429;-0.010681542;0.030240182;-0.05636252;-5.25;23.85;-41.100002;-;-;-;-;-;-;-;-;-
1531156307728;-;-;-0.09101075;0.50774413;10.844649;0.04045115;-0.0571115;-0.078200445;-5.25;23.85;-41.100002;-;-;-;-;-;-;-;-;-
1531156307738;-;-;-0.06706055;0.48379397;10.748848;0.059093278;-0.08374312;-0.07713518;-6.7500005;24.300001;-39.600002;-;-;-;-;-;-;-;-;-
1531156307748;-;-;-0.07185059;0.52690434;10.380015;0.1320639;-0.1726927;-0.14318158;-6.7500005;24.300001;-39.600002;-;-;-;-;-;-;-;-;-
1531156307759;-;-;-0.17244141;0.5843848;10.035132;0.15656498;-0.21317275;-0.17300898;-5.55;24.750002;-41.550003;-;-;-;-;-;-;-;-;-
1531156307769;-;-;-0.29698244;0.7807764;9.81;0.16615236;-0.21370538;-0.19910796;-5.55;24.750002;-41.550003;-;-;-;-;-;-;-;-;-
1531156307779;-;-;-0.4742139;0.9484278;9.513018;0.176805;-0.19932431;-0.21082588;-4.9500003;24.750002;-39.9;-;-;-;-;-;-;-;-;-
1531156307790;-;-;-0.5221143;1.0490186;9.278306;0.17201132;-0.17642112;-0.20763008;-4.9500003;24.750002;-39.9;-;-;-;-;-;-;-;-;-
1531156307799;-;-;-0.57001466;1.1639795;9.048384;0.15390182;-0.14978951;-0.1948469;-5.55;24.150002;-39.9;-;-;-;-;-;-;-;-;-
1531156307809;-;-;-0.5125342;1.2645704;9.024434;0.12513968;-0.11676631;-0.18099847;-5.55;24.150002;-39.9;-;-;-;-;-;-;-;-;-
1531156307819;-;-;-0.6179151;1.1687696;9.034014;0.093181744;-0.100254714;-0.17567214;-6.0;23.85;-40.65;-;-;-;-;-;-;-;-;-
1531156307830;-;-;-0.56522465;1.2454102;9.057964;0.06122381;-0.11090736;-0.17141108;-6.0;23.85;-40.65;-;-;-;-;-;-;-;-;-
1531156307840;-;-;-0.6466553;1.2166699;9.091495;0.0425806;-0.12104145;-0.16716096;-4.65;23.400002;-39.0;-;-;-;-;-;-;-;-;-
1531156307850;-;-;-0.60354495;1.3747413;9.1202345;0.0036984459;-0.13169408;-0.15810621;-4.65;23.400002;-39.0;-;-;-;-;-;-;-;-;-
1531156307860;-;-;-0.5939649;1.4465919;9.278306;-0.014943683;-0.16098885;-0.161302;-5.55;24.45;-42.75;-;-;-;-;-;-;-;-;-
1531156307871;-;-;-0.6322852;1.4705421;9.560919;-0.021867901;-0.18069625;-0.15704094;-5.55;24.45;-42.75;-;-;-;-;-;-;-;-;-
1531156307882;-;-;-0.8334668;1.575923;9.82437;0.004231078;-0.20519733;-0.13094196;-5.8500004;23.550001;-39.600002;-;-;-;-;-;-;-;-;-
1531156307893;-;-;-0.9580079;1.6525636;9.977652;0.037254278;-0.24248159;-0.10910404;-5.4;23.25;-42.15;-;-;-;-;-;-;-;-;-
1531156307903;-;-;-0.9388477;1.7387843;9.901011;0.108094364;-0.28455952;-0.041992374;-5.4;23.25;-42.15;-;-;-;-;-;-;-;-;-
1531156307913;-;-;-0.8430469;1.8154249;9.7621;0.13259543;-0.30959326;-0.00737128;-6.6000004;23.400002;-40.65;-;-;-;-;-;-;-;-;-
1531156307923;-;-;-0.613125;1.7483643;9.565708;0.17414075;-0.29681006;0.042163517;-6.6000004;23.400002;-40.65;-;-;-;-;-;-;-;-;-
1531156307933;-;-;-0.53169435;1.7818946;9.350157;0.18053234;-0.28615743;0.050685633;-6.0;23.85;-39.9;-;-;-;-;-;-;-;-;-
1531156307944;-;-;-0.48379397;1.6573536;9.230406;0.20077236;-0.23023105;0.081045665;-6.0;23.85;-39.9;-;-;-;-;-;-;-;-;-
1531156307954;-;-;-0.4023633;1.719624;9.029224;0.1965113;-0.19028363;0.10341622;-5.4;23.550001;-39.300003;-;-;-;-;-;-;-;-;-
1531156307964;-;-;-0.38320315;1.6813037;8.875943;0.16402075;-0.13062882;0.13164572;-5.4;23.550001;-39.300003;-;-;-;-;-;-;-;-;-
1531156307974;-;-;-0.28740236;1.6908839;8.847202;0.13419333;-0.10452984;0.14815733;-6.6000004;23.400002;-39.45;-;-;-;-;-;-;-;-;-
1531156307984;-;-;-0.12933107;1.5950831;8.875943;0.058559567;-0.04221187;0.17478894;-6.6000004;23.400002;-39.45;-;-;-;-;-;-;-;-;-
1531156307994;-;-;-0.05269043;1.5280225;8.904683;0.019677414;-0.012384468;0.20408371;-5.4;21.900002;-40.95;-;-;-;-;-;-;-;-;-
1531156308005;-;-;0.05748047;1.3747413;9.287886;-0.02666159;0.035552435;0.1971595;-5.4;21.900002;-40.95;-;-;-;-;-;-;-;-;-
1531156308015;-;-;0.16286133;1.2933106;9.469908;-0.032520544;0.04354192;0.1955616;-6.4500003;21.900002;-39.600002;-;-;-;-;-;-;-;-;-
1531156308025;-;-;-0.0047900393;1.2070899;9.766891;-0.0064215665;0.053129297;0.16360366;-6.4500003;21.900002;-39.600002;-;-;-;-;-;-;-;-;-
1531156308035;-;-;-0.119750984;1.2502003;9.800421;0.007959504;0.062184047;0.18118052;-6.4500003;23.550001;-40.95;-;-;-;-;-;-;-;-;-
1531156308046;-;-;-0.05748047;1.3843213;9.800421;-0.0026931409;0.0073229256;0.22432373;-6.4500003;23.550001;-40.95;-;-;-;-;-;-;-;-;-
1531156308056;-;-;-0.033530276;1.4034815;9.939331;-0.010682625;-0.0022644545;0.2371069;-6.0;22.050001;-40.65;-;-;-;-;-;-;-;-;-
1531156308066;-;-;0.17723145;1.2549903;9.934542;-0.016008945;-0.011319202;0.23337848;-6.0;22.050001;-40.65;-;-;-;-;-;-;-;-;-
1531156308076;-;-;0.17244141;1.1975098;10.020762;-0.022400532;-0.020906582;0.22219321;-6.3;22.800001;-40.65;-;-;-;-;-;-;-;-;-
1531156308086;-;-;0.17244141;1.1112891;10.030342;0.007959504;-0.0070581445;0.1971595;-6.3;22.800001;-40.65;-;-;-;-;-;-;-;-;-
1531156308096;-;-;0.28261232;1.21188;9.79084;0.012753193;0.017442938;0.1907679;-6.4500003;23.25;-41.25;-;-;-;-;-;-;-;-;-
1531156308106;-;-;0.31135255;1.2022998;9.70941;0.0026331814;0.03715033;0.17478894;-6.4500003;23.25;-41.25;-;-;-;-;-;-;-;-;-
1531156308117;-;-;0.43110353;1.2406201;9.685459;-0.018672107;0.04407455;0.17265841;-6.0;22.800001;-39.9;-;-;-;-;-;-;-;-;-
1531156308127;-;-;0.51732427;1.3986914;9.632769;-0.04849951;0.064314574;0.16040787;-6.0;22.800001;-39.9;-;-;-;-;-;-;-;-;-
1531156308137;-;-;0.6322852;1.3555812;9.7812605;-0.063945845;0.0845546;0.12844993;-6.0;23.1;-38.7;-;-;-;-;-;-;-;-;-
1531156308147;-;-;0.50774413;1.3986914;10.025552;-0.06927217;0.10745778;0.10022043;-6.0;23.1;-38.7;-;-;-;-;-;-;-;-;-
1531156308157;-;-;0.50774413;1.5663428;10.154883;-0.044771086;0.09094618;0.08903515;-5.8500004;23.25;-39.300003;-;-;-;-;-;-;-;-;-
1531156308167;-;-;0.488584;1.7483643;10.183623;0.0021005492;0.09680513;0.066131964;-5.8500004;23.25;-39.300003;-;-;-;-;-;-;-;-;-
1531156308178;-;-;0.5556446;1.8202149;10.049502;0.035123747;0.1127841;0.06240354;-5.8500004;23.550001;-39.600002;-;-;-;-;-;-;-;-;-
1531156308187;-;-;0.5939649;1.8968556;9.905801;0.0425806;0.13462204;0.058675118;-5.8500004;23.550001;-39.600002;-;-;-;-;-;-;-;-;-
1531156308197;-;-;0.50774413;1.8537452;9.766891;0.031395324;0.1671126;0.029912975;-7.2000003;22.95;-39.600002;-;-;-;-;-;-;-;-;-
1531156308207;-;-;0.4167334;1.954336;9.78605;0.013818459;0.19960317;0.02352139;-7.2000003;22.95;-39.600002;-;-;-;-;-;-;-;-;-
1531156308218;-;-;0.2778223;1.9447559;9.896221;0.0010352848;0.23369163;0.022988757;-4.2000003;23.85;-39.45;-;-;-;-;-;-;-;-;-
1531156308228;-;-;0.12454102;1.9782863;10.312955;-0.01441105;0.26724747;0.026717182;-4.2000003;23.85;-39.45;-;-;-;-;-;-;-;-;-
1531156308239;-;-;0.1580713;1.9878663;10.624307;-0.010682625;0.2709759;0.04003299;-6.7500005;24.0;-39.600002;-;-;-;-;-;-;-;-;-
1531156308248;-;-;0.13891114;1.9591261;10.772799;0.012753193;0.24114847;0.0517509;-6.7500005;24.0;-39.600002;-;-;-;-;-;-;-;-;-
1531156308259;-;-;0.014370117;1.9687061;10.744058;0.029264793;0.19321157;0.06346881;-6.7500005;22.2;-40.050003;-;-;-;-;-;-;-;-;-
1531156308269;-;-;-0.023950197;1.9687061;10.629097;0.028732162;0.15645996;0.09169831;-6.7500005;22.2;-40.050003;-;-;-;-;-;-;-;-;-
1531156308279;-;-;-0.014370117;1.8633252;10.403965;0.020742677;0.12823045;0.120993085;-6.3;22.800001;-40.2;-;-;-;-;-;-;-;-;-
1531156308289;-;-;-0.14370118;1.7339942;10.207574;0.0052963425;0.12716518;0.13803731;-6.3;22.800001;-40.2;-;-;-;-;-;-;-;-;-
1531156308299;-;-;-0.2778223;1.705254;9.996812;-0.042640556;0.17510208;0.17638683;-6.15;22.650002;-40.050003;-;-;-;-;-;-;-;-;-
1531156308309;-;-;-0.34009278;1.6525636;10.083033;-0.06820691;0.21558213;0.21686688;-6.15;22.650002;-40.050003;-;-;-;-;-;-;-;-;-
1531156308320;-;-;-0.21076173;1.5088624;10.346485;-0.11294801;0.23848532;0.271728;-6.4500003;23.25;-40.95;-;-;-;-;-;-;-;-;-
1531156308330;-;-;-0.009580079;1.2454102;10.528506;-0.11135011;0.23742005;0.28451118;-6.4500003;23.25;-40.95;-;-;-;-;-;-;-;-;-
1531156308340;-;-;0.05269043;0.8765772;10.97398;-0.10442649;0.17935543;0.2892989;-6.3;22.800001;-40.2;-;-;-;-;-;-;-;-;-
1531156308350;-;-;0.10538086;0.6993457;10.9644;-0.08578436;0.14473432;0.26053676;-6.3;22.800001;-40.2;-;-;-;-;-;-;-;-;-
1531156308360;-;-;0.1580713;0.6227051;11.00272;-0.054891694;0.058980532;0.22431774;-7.05;24.150002;-39.9;-;-;-;-;-;-;-;-;-
1531156308370;-;-;0.1341211;0.6322852;10.8925495;-0.035716936;0.030751025;0.2104693;-7.05;24.150002;-39.9;-;-;-;-;-;-;-;-;-
1531156308381;-;-;-0.15328126;0.4981641;10.902129;-0.011748482;-0.008663758;0.20461035;-6.15;23.25;-41.25;-;-;-;-;-;-;-;-;-
1531156308390;-;-;-0.1101709;0.37362307;10.772799;-0.01121585;-0.056068026;0.20141456;-6.15;23.25;-41.25;-;-;-;-;-;-;-;-;-
1531156308400;-;-;0.047900394;0.2682422;10.581197;-0.009617953;-0.17218184;0.1822398;-5.4;23.25;-39.300003;-;-;-;-;-;-;-;-;-
1531156308410;-;-;0.06706055;0.22992188;10.447076;-0.016542172;-0.26166406;0.14868397;-5.4;23.25;-39.300003;-;-;-;-;-;-;-;-;-
1531156308421;-;-;-0.11496094;0.23471193;10.332115;-0.009617953;-0.35913578;0.09435549;-5.25;23.1;-39.9;-;-;-;-;-;-;-;-;-
1531156308431;-;-;-0.16765137;0.30177248;10.169253;-5.632055E-4;-0.3681905;0.051212277;-4.9500003;22.800001;-40.2;-;-;-;-;-;-;-;-;-
1531156308442;-;-;-0.33530274;0.34488282;9.982442;0.03459052;-0.32291678;0.015525917;-4.9500003;22.800001;-40.2;-;-;-;-;-;-;-;-;-
1531156308451;-;-;-0.49337405;0.42152345;9.7812605;0.069744244;-0.23876087;7.958175E-5;-5.4;24.300001;-39.300003;-;-;-;-;-;-;-;-;-
1531156308462;-;-;-0.92926764;0.5412744;9.718989;0.09744112;-0.05180697;0.019786974;-5.4;24.300001;-39.300003;-;-;-;-;-;-;-;-;-
1531156308472;-;-;-1.0106983;0.5748047;9.77168;0.102767445;-0.0054679643;0.027243825;-5.8500004;24.0;-41.7;-;-;-;-;-;-;-;-;-
1531156308482;-;-;-1.4274317;0.71371585;9.929751;0.08891901;0.06963318;0.06612598;-5.8500004;24.0;-41.7;-;-;-;-;-;-;-;-;-
1531156308492;-;-;-1.4944923;0.7041358;9.877061;0.062287398;0.062176332;0.108203925;-6.6000004;23.1;-40.65;-;-;-;-;-;-;-;-;-
1531156308503;-;-;-1.5950831;0.7424561;9.829161;-0.0016284699;0.007847842;0.19768614;-6.6000004;23.1;-40.65;-;-;-;-;-;-;-;-;-
1531156308512;-;-;-1.4513819;0.7041358;9.79563;-0.058087487;-0.028903782;0.24935146;-6.3;24.150002;-41.100002;-;-;-;-;-;-;-;-;-
1531156308522;-;-;-0.9963282;0.5748047;9.896221;-0.12253599;-0.091754384;0.29036415;-6.3;24.150002;-41.100002;-;-;-;-;-;-;-;-;-
1531156308533;-;-;-0.7568262;0.49337405;9.958491;-0.15289602;-0.1167881;0.2908968;-4.9500003;23.400002;-41.100002;-;-;-;-;-;-;-;-;-
1531156308544;-;-;-0.45026368;0.3879932;10.030342;-0.16141813;-0.12051652;0.25094938;-4.9500003;23.400002;-41.100002;-;-;-;-;-;-;-;-;-
1531156308554;-;-;-0.3305127;0.41194338;10.126143;-0.13052547;-0.082699634;0.1939577;-6.15;24.6;-41.25;-;-;-;-;-;-;-;-;-
1531156308564;-;-;-0.26345217;0.5748047;10.241104;-0.050630637;-0.02144693;0.13004184;-6.15;24.6;-41.25;-;-;-;-;-;-;-;-;-
1531156308575;-;-;-0.37362307;0.5460645;10.274634;0.0116873365;0.021696279;0.08317021;-7.3500004;22.35;-40.2;-;-;-;-;-;-;-;-;-
1531156308585;-;-;-0.57001466;0.6849756;10.092612;0.08199479;0.07016581;0.046418585;-7.3500004;22.35;-40.2;-;-;-;-;-;-;-;-;-
1531156308595;-;-;-0.6179151;0.6945557;9.867481;0.10170218;0.065372124;0.035765942;-7.3500004;22.800001;-39.9;-;-;-;-;-;-;-;-;-
1531156308606;-;-;-0.76161623;0.8813672;9.613608;0.11342009;0.04087104;0.012330122;-7.3500004;22.800001;-39.9;-;-;-;-;-;-;-;-;-
1531156308615;-;-;-0.9148975;0.90052736;9.422008;0.10170218;-0.0028048032;0.014993284;-6.0;23.1;-41.550003;-;-;-;-;-;-;-;-;-
1531156308625;-;-;-1.0729688;1.0633887;9.211246;0.078798994;-0.03476274;0.03736384;-6.0;23.1;-41.550003;-;-;-;-;-;-;-;-;-
1531156308636;-;-;-1.1256592;1.1400293;9.048384;0.045775797;-0.053404868;0.08530074;-6.6000004;24.150002;-39.0;-;-;-;-;-;-;-;-;-
1531156308646;-;-;-0.8430469;1.1064991;8.818462;0.005828381;-0.041154325;0.122052364;-6.6000004;24.150002;-39.0;-;-;-;-;-;-;-;-;-
1531156308657;-;-;-0.5604346;1.0681788;8.899893;-0.03198851;-0.0075984932;0.1359008;-6.3;24.150002;-41.100002;-;-;-;-;-;-;-;-;-
1531156308667;-;-;-0.41194338;1.0729688;8.828042;-0.04636958;0.030218394;0.11885657;-6.3;24.150002;-41.100002;-;-;-;-;-;-;-;-;-
1531156308678;-;-;-0.27303225;0.977168;8.842413;-0.047434844;0.089340575;0.10074708;-6.6000004;23.400002;-39.0;-;-;-;-;-;-;-;-;-
1531156308688;-;-;-0.22513184;0.96758795;9.077125;-0.047967475;0.13674484;0.08157232;-6.6000004;23.400002;-39.0;-;-;-;-;-;-;-;-;-
1531156308698;-;-;-0.12933107;0.97237796;9.249566;-0.028792713;0.18361647;0.052810173;-6.4500003;23.550001;-39.300003;-;-;-;-;-;-;-;-;-
1531156308709;-;-;-0.22513184;1.0490186;9.383687;0.0036978524;0.21078072;0.03363541;-6.4500003;23.550001;-39.300003;-;-;-;-;-;-;-;-;-
1531156308718;-;-;-0.4023633;1.0298585;9.402847;0.03672105;0.21450914;0.024580665;-6.0;23.400002;-41.850002;-;-;-;-;-;-;-;-;-
1531156308728;-;-;-0.3879932;1.0681788;9.273516;0.03725368;0.20492177;0.03736384;-6.0;23.400002;-41.850002;-;-;-;-;-;-;-;-;-
1531156308739;-;-;-0.33530274;1.092129;9.148975;0.0015673235;0.17509437;0.052810173;-5.4;24.300001;-40.95;-;-;-;-;-;-;-;-;-
1531156308749;-;-;-0.27303225;1.096919;9.148975;-0.038380094;0.16710488;0.038961735;-5.4;24.300001;-40.95;-;-;-;-;-;-;-;-;-
1531156308759;-;-;-0.28261232;1.0490186;9.105865;-0.11880756;0.1426038;0.031504884;-7.05;23.400002;-40.2;-;-;-;-;-;-;-;-;-
1531156308769;-;-;-0.19639161;0.977168;9.220825;-0.15502654;0.13994063;0.0235154;-7.05;23.400002;-40.2;-;-;-;-;-;-;-;-;-
1531156308780;-;-;-0.25387207;1.0394385;9.369317;-0.20296344;0.13887537;0.007003801;-6.15;24.0;-40.95;-;-;-;-;-;-;-;-;-
1531156308790;-;-;-0.20118165;1.0011182;9.671089;-0.22000767;0.12662482;6.12214E-4;-6.0;23.400002;-39.9;-;-;-;-;-;-;-;-;-
1531156308800;-;-;-0.20597169;0.9915381;10.044712;-0.20988767;0.12183114;-0.028149927;-6.0;23.400002;-39.9;-;-;-;-;-;-;-;-;-
1531156308811;-;-;-0.3305127;1.0011182;10.226734;-0.18538658;0.111178495;-0.02868256;-5.4;24.300001;-41.25;-;-;-;-;-;-;-;-;-
1531156308821;-;-;-0.3784131;0.9867481;10.370435;-0.0996328;0.10585217;-0.03400888;-5.4;24.300001;-41.25;-;-;-;-;-;-;-;-;-
1531156308831;-;-;-0.32093263;0.9484278;10.250684;-0.06501171;0.09679742;-0.030813087;-6.4500003;24.0;-41.7;-;-;-;-;-;-;-;-;-
1531156308841;-;-;-0.14849122;0.85741705;10.083033;-0.058621027;0.032869756;-0.04360542;-6.4500003;24.0;-41.7;-;-;-;-;-;-;-;-;-
1531156308852;-;-;0.043110352;0.92926764;9.8866415;-0.08099158;-0.0124039855;-0.07716125;-6.15;23.550001;-40.050003;-;-;-;-;-;-;-;-;-
1531156308862;-;-;0.038320314;0.9148975;9.699829;-0.12839584;-0.041166123;-0.13202238;-6.15;23.550001;-40.050003;-;-;-;-;-;-;-;-;-
1531156308873;-;-;-0.1341211;1.0106983;9.70941;-0.16035378;-0.049155608;-0.17889401;-6.4500003;22.2;-42.45;-;-;-;-;-;-;-;-;-
1531156308883;-;-;-0.20597169;1.0250684;9.905801;-0.1640822;-0.049155608;-0.21724352;-6.4500003;22.2;-42.45;-;-;-;-;-;-;-;-;-
1531156308893;-;-;-0.21555176;1.1735597;10.015972;-0.1427769;-0.034774538;-0.22736353;-4.65;24.750002;-42.300003;-;-;-;-;-;-;-;-;-
1531156308904;-;-;-0.34488282;1.2406201;10.106983;-0.081524216;-0.010806088;-0.24866882;-4.65;24.750002;-42.300003;-;-;-;-;-;-;-;-;-
1531156308913;-;-;-0.3784131;1.3076807;9.972861;-0.06767578;-0.022523997;-0.24440777;-5.25;24.45;-42.300003;-;-;-;-;-;-;-;-;-
1531156308923;-;-;-0.43110353;1.3603711;9.704619;-0.008553597;-0.002816605;-0.2598541;-5.25;24.45;-42.300003;-;-;-;-;-;-;-;-;-
1531156308934;-;-;-0.64186525;1.336421;9.584868;-0.010151493;0.040326606;-0.24866882;-6.0;24.750002;-40.65;-;-;-;-;-;-;-;-;-
1531156308943;-;-;-0.613125;1.3172607;9.311836;-0.044239957;0.06376243;-0.24174461;-6.0;24.750002;-40.65;-;-;-;-;-;-;-;-;-
1531156308953;-;-;-0.6849756;1.2933106;9.340576;-0.06874104;0.08187192;-0.22310248;-4.9500003;24.150002;-41.100002;-;-;-;-;-;-;-;-;-
1531156308964;-;-;-0.6658155;1.2454102;9.718989;-0.120939;0.09785089;-0.2167109;-4.9500003;24.150002;-41.100002;-;-;-;-;-;-;-;-;-
1531156308974;-;-;-0.7376661;1.2358302;9.939331;-0.13798322;0.09785089;-0.2055256;-5.4;23.550001;-42.45;-;-;-;-;-;-;-;-;-
1531156308984;-;-;-0.6849756;1.2933106;10.332115;-0.12733057;0.07814349;-0.1852856;-5.4;23.550001;-42.45;-;-;-;-;-;-;-;-;-
1531156308994;-;-;-0.57959473;1.1831397;10.571617;-0.09963371;0.043522403;-0.17889401;-4.2000003;23.85;-42.300003;-;-;-;-;-;-;-;-;-
1531156309004;-;-;-0.43589357;1.0585986;10.600357;-0.06607788;-0.0033492371;-0.18475297;-4.2000003;23.85;-42.300003;-;-;-;-;-;-;-;-;-
1531156309014;-;-;-0.48379397;1.0202783;10.542876;-0.039446265;-0.047025077;-0.20712352;-4.65;23.85;-41.550003;-;-;-;-;-;-;-;-;-
1531156309025;-;-;-0.4167334;1.0442286;10.389595;-0.019206243;-0.091766186;-0.22203723;-4.65;23.85;-41.550003;-;-;-;-;-;-;-;-;-
1531156309035;-;-;-0.48379397;0.9963282;10.336905;-0.004825171;-0.1317136;-0.25825623;-5.4;23.550001;-40.95;-;-;-;-;-;-;-;-;-
1531156309045;-;-;-0.48379397;0.9963282;10.346485;0.009023267;-0.12691991;-0.28169203;-5.4;23.550001;-40.95;-;-;-;-;-;-;-;-;-
1531156309056;-;-;-0.5125342;0.9963282;10.427916;0.054297008;-0.14130098;-0.29873627;-5.4;23.25;-41.25;-;-;-;-;-;-;-;-;-
1531156309065;-;-;-0.4023633;1.1448194;10.293795;0.115549706;-0.15781258;-0.31631312;-5.4;23.25;-41.25;-;-;-;-;-;-;-;-;-
1531156309076;-;-;-0.34009278;1.1591895;10.049502;0.18053085;-0.16207364;-0.3205742;-5.8500004;23.550001;-40.95;-;-;-;-;-;-;-;-;-
1531156309086;-;-;-0.39278322;1.22625;9.613608;0.19970562;-0.1695305;-0.33175945;-5.8500004;23.550001;-40.95;-;-;-;-;-;-;-;-;-
1531156309096;-;-;-0.52690434;1.3172607;9.287886;0.18692243;-0.15088837;-0.33389;-4.9500003;24.150002;-41.100002;-;-;-;-;-;-;-;-;-
1531156309106;-;-;-0.62749517;1.3651612;9.139395;0.118745506;-0.07578722;-0.31684577;-4.9500003;24.150002;-41.100002;-;-;-;-;-;-;-;-;-
1531156309116;-;-;-0.7807764;1.346001;9.254355;0.05696017;0.022749742;-0.3061931;-5.1000004;24.0;-42.45;-;-;-;-;-;-;-;-;-
1531156309126;-;-;-1.0538087;1.21188;9.623189;0.004229577;0.11116669;-0.26571307;-5.1000004;24.0;-42.45;-;-;-;-;-;-;-;-;-
1531156309137;-;-;-1.2837305;1.1975098;10.001602;-0.022402035;0.24112895;-0.21244985;-6.15;22.95;-42.15;-;-;-;-;-;-;-;-;-
1531156309147;-;-;-1.4322218;1.0346485;10.336905;-0.06128419;0.35351434;-0.13042447;-6.15;22.95;-42.15;-;-;-;-;-;-;-;-;-
1531156309157;-;-;-1.2645704;0.9915381;11.194322;-0.1044274;0.42275655;-0.037213836;-3.3000002;23.25;-40.95;-;-;-;-;-;-;-;-;-
1531156309167;-;-;-0.96758795;0.8909473;11.615846;-0.12573268;0.41743022;-0.014843281;-3.3000002;23.25;-40.95;-;-;-;-;-;-;-;-;-
1531156309177;-;-;-0.7951465;0.7711963;12.300821;-0.08525264;0.2762827;-0.009516959;-3.6000001;23.1;-41.850002;-;-;-;-;-;-;-;-;-
1531156309187;-;-;-0.56522465;0.732876;12.387041;-0.046903115;0.12022144;-0.0015274757;-3.6000001;23.1;-41.850002;-;-;-;-;-;-;-;-;-
1531156309198;-;-;-0.21555176;0.5604346;12.18107;0.0740044;-0.14929047;-0.020702235;-3.15;22.800001;-41.850002;-;-;-;-;-;-;-;-;-
1531156309208;-;-;-0.05269043;0.3544629;11.615846;0.1400508;-0.2872422;-0.042540155;-3.15;22.800001;-41.850002;-;-;-;-;-;-;-;-;-
1531156309218;-;-;0.119750984;0.32572266;10.327325;0.20982562;-0.42625922;-0.07982441;-4.9500003;23.85;-42.300003;-;-;-;-;-;-;-;-;-
1531156309228;-;-;0.12454102;0.37362307;9.69504;0.19650981;-0.45448872;-0.10752129;-3.7500002;21.6;-41.25;-;-;-;-;-;-;-;-;-
1531156309238;-;-;0.21076173;0.45505372;8.962164;0.14857292;-0.40495393;-0.15758872;-3.7500002;21.6;-41.25;-;-;-;-;-;-;-;-;-
1531156309249;-;-;0.05269043;0.50774413;8.828042;0.11341918;-0.3085475;-0.19380772;-5.25;22.800001;-40.2;-;-;-;-;-;-;-;-;-
1531156309259;-;-;-0.26345217;0.7089258;8.914263;0.07826545;-0.083776705;-0.2087214;-5.25;22.800001;-40.2;-;-;-;-;-;-;-;-;-
1531156309269;-;-;-0.32093263;0.8047266;9.105865;0.063884385;0.021684477;-0.19007927;-4.3500004;23.25;-42.9;-;-;-;-;-;-;-;-;-
1531156309279;-;-;-0.48379397;0.6466553;9.608819;0.07933072;0.19478995;-0.17676347;-4.3500004;23.25;-42.9;-;-;-;-;-;-;-;-;-
1531156309290;-;-;-0.6179151;0.67539555;9.82437;0.09051599;0.21343209;-0.17037189;-4.2000003;22.800001;-40.65;-;-;-;-;-;-;-;-;-
1531156309300;-;-;-0.8143067;0.5125342;9.953702;0.09584232;0.18786573;-0.1357508;-4.2000003;22.800001;-40.65;-;-;-;-;-;-;-;-;-
1531156309310;-;-;-0.86220706;0.46463382;9.81;0.070808604;0.15857096;-0.11870657;-3.6000001;22.050001;-42.300003;-;-;-;-;-;-;-;-;-
1531156309321;-;-;-0.7951465;0.42152345;9.79084;-0.012282022;0.09891615;-0.07290019;-3.6000001;22.050001;-42.300003;-;-;-;-;-;-;-;-;-
1531156309330;-;-;-0.8047266;0.35925296;9.671089;-0.07619789;0.06482769;-0.06224755;-4.3500004;21.900002;-42.15;-;-;-;-;-;-;-;-;-
1531156309340;-;-;-0.613125;0.34967285;10.063872;-0.15556076;0.016349532;-0.04680791;-4.3500004;21.900002;-42.15;-;-;-;-;-;-;-;-;-
1531156309351;-;-;-0.60833496;0.34967285;10.346485;-0.20562819;-0.023065254;-0.036155265;-3.7500002;23.550001;-43.350002;-;-;-;-;-;-;-;-;-
1531156309361;-;-;-0.364043;0.28740236;10.643467;-0.18645343;-0.05076213;-0.031894207;-3.7500002;23.550001;-43.350002;-;-;-;-;-;-;-;-;-
1531156309371;-;-;-0.09580079;0.05269043;10.619517;-0.14331022;-0.037978955;-0.053732127;-3.15;22.800001;-41.550003;-;-;-;-;-;-;-;-;-
1531156309382;-;-;0.10538086;0.047900394;10.5620365;-0.057556424;0.0056968867;-0.10539745;-3.15;22.800001;-41.550003;-;-;-;-;-;-;-;-;-
1531156309392;-;-;0.06227051;-0.033530276;10.605147;-0.010152157;0.037654817;-0.1474754;-3.9;23.1;-42.300003;-;-;-;-;-;-;-;-;-
1531156309403;-;-;-0.081430666;0.07185059;10.427916;0.053763714;0.08612435;-0.21618496;-3.9;23.1;-42.300003;-;-;-;-;-;-;-;-;-
1531156309413;-;-;-0.244292;0.16286133;10.336905;0.09211323;0.10476648;-0.24281657;-3.0;21.150002;-42.9;-;-;-;-;-;-;-;-;-
1531156309424;-;-;-0.488584;0.26345217;10.169253;0.097972184;0.089320146;-0.2550671;-3.0;21.150002;-42.9;-;-;-;-;-;-;-;-;-
1531156309433;-;-;-0.62749517;0.34967285;10.087823;0.09477639;0.06641696;-0.25187132;-4.05;23.25;-41.25;-;-;-;-;-;-;-;-;-
1531156309443;-;-;-0.79035646;0.53169435;9.72857;0.07400373;0.013153737;-0.23962077;-4.05;23.25;-41.25;-;-;-;-;-;-;-;-;-
1531156309453;-;-;-0.85741705;0.5221143;9.489068;0.047372125;-0.0124126095;-0.21405444;-3.15;23.400002;-41.850002;-;-;-;-;-;-;-;-;-
1531156309464;-;-;-0.79993653;0.6993457;9.268726;-0.005358467;-0.019336829;-0.16451964;-3.15;23.400002;-41.850002;-;-;-;-;-;-;-;-;-
1531156309474;-;-;-0.62749517;0.732876;9.2256155;-0.07140487;-0.02945684;-0.116050094;-2.5500002;21.45;-41.100002;-;-;-;-;-;-;-;-;-
1531156309485;-;-;-0.5987549;0.68976563;9.465117;-0.092177525;-0.025728414;-0.09581007;-2.5500002;21.45;-41.100002;-;-;-;-;-;-;-;-;-
1531156309494;-;-;-0.5460645;0.68976563;9.364527;-0.10815649;-0.009216815;-0.08089638;-3.15;22.050001;-41.550003;-;-;-;-;-;-;-;-;-
1531156309504;-;-;-0.48379397;0.7711963;9.479487;-0.090046994;-0.0124126095;-0.0665153;-3.15;22.050001;-41.550003;-;-;-;-;-;-;-;-;-
1531156309515;-;-;-0.41194338;0.7951465;9.541759;-0.04903431;0.016882164;-0.06278688;-3.3000002;23.25;-41.7;-;-;-;-;-;-;-;-;-
1531156309525;-;-;-0.34488282;0.81909674;9.608819;-0.02027217;0.036589555;-0.05213423;-3.3000002;23.25;-41.7;-;-;-;-;-;-;-;-;-
1531156309535;-;-;-0.25387207;0.8861573;9.589659;0.004228913;0.07387381;-0.040416323;-2.5500002;23.1;-42.300003;-;-;-;-;-;-;-;-;-
1531156309546;-;-;-0.2203418;0.8669971;9.685459;0.023403673;0.08985278;-0.05426476;-2.5500002;23.1;-42.300003;-;-;-;-;-;-;-;-;-
1531156309556;-;-;-0.34967285;0.9963282;9.848321;0.052165814;0.07387381;-0.07823321;-2.8500001;21.75;-41.550003;-;-;-;-;-;-;-;-;-
1531156309566;-;-;-0.33530274;1.0777588;9.81958;0.07293847;0.06002537;-0.09581007;-2.8500001;21.75;-41.550003;-;-;-;-;-;-;-;-;-
1531156309576;-;-;-0.6945557;1.3555812;9.79084;0.097972184;0.048840098;-0.104332194;-2.5500002;22.800001;-43.5;-;-;-;-;-;-;-;-;-
1531156309587;-;-;-0.8382569;1.4322218;9.85311;0.104896404;0.043513775;-0.07929848;-2.5500002;22.800001;-43.5;-;-;-;-;-;-;-;-;-
1531156309597;-;-;-1.0346485;1.6669337;9.81;0.10542903;0.027534807;-0.045742646;-0.75;22.800001;-40.65;-;-;-;-;-;-;-;-;-
1531156309608;-;-;-1.2166699;1.6860938;9.75252;0.107026935;0.028600072;-0.0031320667;-1.95;21.900002;-43.350002;-;-;-;-;-;-;-;-;-
1531156309618;-;-;-1.21188;1.7435743;9.7812605;0.11182062;0.05416642;0.06611012;-1.95;21.900002;-43.350002;-;-;-;-;-;-;-;-;-
1531156309628;-;-;-1.0394385;1.6381935;9.73815;0.10436377;0.06109064;0.117775455;-1.6500001;20.85;-42.9;-;-;-;-;-;-;-;-;-
1531156309638;-;-;-0.8047266;1.5232325;9.963282;0.11395115;0.07493907;0.18328921;-1.6500001;20.85;-42.9;-;-;-;-;-;-;-;-;-
1531156309649;-;-;-0.6466553;1.4274317;10.068663;0.12566906;0.07760224;0.19713765;-3.15;22.050001;-42.300003;-;-;-;-;-;-;-;-;-
1531156309659;-;-;-0.4167334;1.1160791;9.963282;0.14697435;0.061623268;0.19607238;-3.15;22.050001;-42.300003;-;-;-;-;-;-;-;-;-
1531156309670;-;-;-0.28261232;1.1400293;10.025552;0.15762699;0.03286113;0.16358182;-0.75;20.7;-43.050003;-;-;-;-;-;-;-;-;-
1531156309680;-;-;-0.28740236;1.1975098;9.948912;0.17999755;-0.008151552;0.13695021;-0.75;20.7;-43.050003;-;-;-;-;-;-;-;-;-
1531156309690;-;-;-0.3879932;1.1735597;9.7621;0.19597651;-0.029989472;0.12310177;-1.5;21.0;-42.300003;-;-;-;-;-;-;-;-;-
1531156309701;-;-;-0.5364844;1.2358302;9.436378;0.19011755;-0.04543581;0.13109125;-1.5;21.0;-42.300003;-;-;-;-;-;-;-;-;-
1531156309711;-;-;-0.5748047;1.3507911;9.235196;0.17893228;-0.04756634;0.14600496;-3.3000002;20.85;-41.25;-;-;-;-;-;-;-;-;-
1531156309722;-;-;-0.4263135;1.341211;8.813672;0.104896404;-0.042240016;0.17529972;-3.3000002;20.85;-41.25;-;-;-;-;-;-;-;-;-
1531156309731;-;-;-0.40715334;1.2837305;8.832832;0.076134264;-0.028391575;0.17902815;-3.0;21.6;-42.9;-;-;-;-;-;-;-;-;-
1531156309741;-;-;-0.29698244;1.2741505;8.885523;-0.043175355;0.0025010933;0.18914816;-3.0;21.6;-42.9;-;-;-;-;-;-;-;-;-
1531156309752;-;-;-0.32093263;1.2549903;9.158555;-0.08259014;0.014219003;0.18435447;-2.4;20.25;-42.15;-;-;-;-;-;-;-;-;-
1531156309762;-;-;-0.41194338;1.3939015;9.469908;-0.12733124;0.03499166;0.17370182;-2.4;20.25;-42.15;-;-;-;-;-;-;-;-;-
1531156309772;-;-;-0.3544629;1.5423926;9.64714;-0.12253756;0.037654817;0.17263657;-3.3000002;20.25;-42.9;-;-;-;-;-;-;-;-;-
1531156309783;-;-;-0.34009278;1.5807129;9.83874;-0.114015445;0.0072947834;0.18222395;-3.3000002;20.25;-42.9;-;-;-;-;-;-;-;-;-
1531156309794;-;-;-0.45026368;1.7818946;9.958491;-0.09164489;-0.030522104;0.19660501;-3.3000002;20.550001;-42.9;-;-;-;-;-;-;-;-;-
1531156309804;-;-;-0.44547364;1.6860938;9.987232;-0.08951436;-0.08751375;0.22483452;-3.3000002;20.550001;-42.9;-;-;-;-;-;-;-;-;-
1531156309815;-;-;-0.3784131;1.6669337;9.671089;-0.118809134;-0.1477012;0.2477377;-2.8500001;21.0;-41.550003;-;-;-;-;-;-;-;-;-
1531156309825;-;-;-0.2203418;1.6190332;9.383687;-0.17633341;-0.20788863;0.25945562;-2.8500001;21.0;-41.550003;-;-;-;-;-;-;-;-;-
1531156309836;-;-;-0.119750984;1.5567628;9.469908;-0.22693348;-0.23665078;0.2493356;-2.4;20.550001;-40.95;-;-;-;-;-;-;-;-;-
1531156309846;-;-;0.0047900393;1.4897022;9.354947;-0.2775342;-0.24837686;0.22056714;-2.4;20.550001;-40.95;-;-;-;-;-;-;-;-;-
1531156309856;-;-;0.014370117;1.4130616;9.426797;-0.29830682;-0.17274308;0.20139237;-3.3000002;21.150002;-42.15;-;-;-;-;-;-;-;-;-
1531156309866;-;-;0.17244141;1.3076807;9.7621;-0.2844584;-0.10350089;0.17955445;-3.3000002;21.150002;-42.15;-;-;-;-;-;-;-;-;-
1531156309877;-;-;0.07664063;1.2597803;10.159674;-0.21468356;0.03551612;0.15025967;-2.8500001;21.45;-40.2;-;-;-;-;-;-;-;-;-
1531156309887;-;-;-0.019160157;1.3172607;10.413546;-0.15449612;0.12499833;0.14173757;-3.7500002;21.900002;-42.45;-;-;-;-;-;-;-;-;-
1531156309898;-;-;-0.29698244;1.3268409;11.108101;-0.03784966;0.2682764;0.1374765;-3.7500002;21.900002;-42.45;-;-;-;-;-;-;-;-;-
1531156309908;-;-;-0.244292;1.2837305;11.208692;0.016478825;0.34391016;0.14227019;-3.6000001;21.75;-42.300003;-;-;-;-;-;-;-;-;-
1531156309918;-;-;-0.25866213;1.21188;11.199112;0.044708334;0.46854612;0.14173757;-3.6000001;21.75;-42.300003;-;-;-;-;-;-;-;-;-
1531156309929;-;-;-0.4263135;1.0585986;11.635005;0.044175703;0.49198192;0.14493336;-4.05;22.2;-43.65;-;-;-;-;-;-;-;-;-
1531156309939;-;-;-0.45026368;0.81909674;11.8074465;0.0020977557;0.38279232;0.14013967;-4.05;22.2;-43.65;-;-;-;-;-;-;-;-;-
1531156309949;-;-;-0.43589357;0.74724615;11.903248;-0.027197016;0.27946168;0.124160685;-2.5500002;22.800001;-43.050003;-;-;-;-;-;-;-;-;-
1531156309959;-;-;-0.60833496;0.56522465;11.941567;-0.057557054;0.07546354;0.0879417;-2.5500002;22.800001;-43.050003;-;-;-;-;-;-;-;-;-
1531156309970;-;-;-0.6179151;0.52690434;11.979888;-0.07193813;-0.049172405;0.067701675;-2.1000001;22.050001;-43.95;-;-;-;-;-;-;-;-;-
1531156309979;-;-;-0.9484278;0.4167334;11.4625635;-0.076731816;-0.20416838;0.04905955;-2.1000001;22.050001;-43.95;-;-;-;-;-;-;-;-;-
1531156309989;-;-;-1.0873389;0.35925296;11.050621;-0.09590657;-0.28619376;0.051722713;-3.3000002;21.900002;-44.100002;-;-;-;-;-;-;-;-;-
1531156309999;-;-;-1.0777588;0.4167334;10.241104;-0.12733187;-0.3218801;0.054385874;-3.3000002;21.900002;-44.100002;-;-;-;-;-;-;-;-;-
1531156310009;-;-;-0.9915381;0.5364844;9.85311;-0.17047508;-0.2734106;0.083680645;-2.5500002;22.050001;-44.25;-;-;-;-;-;-;-;-;-
1531156310020;-;-;-0.8047266;0.5939649;9.75731;-0.22000988;-0.17327571;0.12575859;-2.5500002;22.050001;-44.25;-;-;-;-;-;-;-;-;-
1531156310030;-;-;-0.6514453;0.5604346;9.77647;-0.27859944;-0.04810714;0.15931442;-3.0;21.900002;-42.15;-;-;-;-;-;-;-;-;-
1531156310040;-;-;-0.31135255;0.42152345;10.499766;-0.28232786;0.13085729;0.18168499;-3.0;21.900002;-42.15;-;-;-;-;-;-;-;-;-
1531156310050;-;-;-0.09580079;0.28740236;11.02188;-0.22427094;0.21820898;0.1587818;-1.2;22.050001;-43.050003;-;-;-;-;-;-;-;-;-
1531156310060;-;-;0.1101709;0.25866213;11.759546;-0.03838229;0.2831901;0.09007223;-1.2;22.050001;-43.050003;-;-;-;-;-;-;-;-;-
1531156310070;-;-;-0.119750984;0.18681154;11.850557;0.114483155;0.26667848;0.03947217;-3.7500002;20.85;-41.7;-;-;-;-;-;-;-;-;-
1531156310080;-;-;-0.6993457;0.2778223;11.409874;0.3025023;0.13138993;0.02083004;-3.7500002;20.85;-41.7;-;-;-;-;-;-;-;-;-
