TimeStamp[ms];Prox[Cm];Lux[lux];AccX[m/s^2];AccY[m/s^2];AccZ[m/s^2];GyroX[rad/s];GyroY[rad/s];GyroZ[rad/s];MagnX[uT];MagnY[uT];MagnZ[uT];OrienYaw[degrees];OrienPitch[degrees];OrienRoll[degrees];Press[Pa];Temp[C°];Batt[%];Lat;Lng;Speed[m/s]
1531156396093;-;-;0.06227051;0.019160157;9.891431;0.11661546;0.106942;-0.03451889;15.150001;58.65;-40.95;-;-;-;-;-;-;-;-;-
1531156396094;-;-;0.06227051;0.019160157;9.891431;0.11661546;0.106942;-0.03451889;15.150001;58.65;-40.95;-;-;-;-;-;-;-;-;-
1531156396111;-;-;0.05269043;0.038320314;9.939331;0.08891858;0.078712486;-0.08032526;14.400001;60.750004;-42.15;-;-;-;-;-;-;-;-;-
1531156396111;-;-;0.05269043;0.038320314;9.939331;0.08891858;0.078712486;-0.08032526;14.400001;60.750004;-42.15;-;-;-;-;-;-;-;-;-
1531156396120;-;-;-0.0047900393;0.05269043;9.924961;0.08891858;0.07498406;-0.085651584;14.55;57.750004;-41.550003;-;-;-;-;-;-;-;-;-
1531156396131;-;-;-0.1101709;0.22992188;9.81958;0.06175434;0.056874562;-0.100565284;14.55;57.750004;-41.550003;-;-;-;-;-;-;-;-;-
1531156396141;-;-;-0.2778223;0.39278322;9.843531;0.05429749;0.06326615;-0.1090874;13.500001;59.550003;-44.7;-;-;-;-;-;-;-;-;-
1531156396151;-;-;-0.39757326;0.38320315;9.79084;0.03618799;0.09682198;-0.09151054;13.500001;59.550003;-44.7;-;-;-;-;-;-;-;-;-
1531156396161;-;-;-0.40715334;0.41194338;9.7621;0.027133245;0.10640936;-0.086716846;14.55;58.050003;-41.850002;-;-;-;-;-;-;-;-;-
1531156396171;-;-;-0.57959473;0.41194338;10.346485;0.026600612;0.08829987;-0.07073788;14.55;58.050003;-41.850002;-;-;-;-;-;-;-;-;-
1531156396181;-;-;-0.6945557;0.43110353;10.552457;0.071341716;0.092560925;-0.059552602;14.85;58.800003;-43.5;-;-;-;-;-;-;-;-;-
1531156396192;-;-;-0.5364844;0.36883304;10.686578;0.16135657;0.025981892;-0.023333613;14.85;58.800003;-43.5;-;-;-;-;-;-;-;-;-
1531156396201;-;-;-0.4981641;0.21555176;10.566827;0.1981082;-0.073620334;-0.023333613;15.150001;61.050003;-42.9;-;-;-;-;-;-;-;-;-
1531156396211;-;-;-0.25387207;0.15328126;10.178833;0.23858824;-0.17375518;-0.06328103;15.150001;61.050003;-42.9;-;-;-;-;-;-;-;-;-
1531156396221;-;-;-0.23950197;0.21555176;9.857901;0.23006612;-0.19346258;-0.086716846;12.450001;60.600002;-43.5;-;-;-;-;-;-;-;-;-
1531156396231;-;-;-0.33530274;0.46942386;9.6758795;0.18745555;-0.21583314;-0.0925758;12.450001;60.600002;-43.5;-;-;-;-;-;-;-;-;-
1531156396241;-;-;-0.38320315;0.64186525;9.297466;0.128866;-0.19665837;-0.08192316;15.150001;58.65;-41.25;-;-;-;-;-;-;-;-;-
1531156396252;-;-;-0.32093263;0.5987549;9.201666;0.031926934;-0.1657657;-0.063813664;15.150001;58.65;-41.25;-;-;-;-;-;-;-;-;-
1531156396262;-;-;-0.31135255;0.5412744;9.168135;-0.020271024;-0.14019936;-0.05529155;14.400001;57.9;-42.9;-;-;-;-;-;-;-;-;-
1531156396272;-;-;-0.23950197;0.613125;9.192085;-0.060218442;-0.031009756;-0.051030487;14.400001;57.9;-42.9;-;-;-;-;-;-;-;-;-
1531156396282;-;-;-0.2203418;0.5843848;9.378897;-0.06820793;0.035036642;-0.03931258;14.1;58.65;-41.7;-;-;-;-;-;-;-;-;-
1531156396292;-;-;0.033530276;0.50774413;9.575289;-0.052228957;0.13144308;-0.032920994;14.1;58.65;-41.7;-;-;-;-;-;-;-;-;-
1531156396303;-;-;0.081430666;0.38320315;9.944121;-0.030391037;0.17724945;-0.040910475;14.250001;59.100002;-42.300003;-;-;-;-;-;-;-;-;-
1531156396313;-;-;0.028740235;0.4263135;10.169253;0.015415335;0.19056526;-0.057422075;14.250001;59.100002;-42.300003;-;-;-;-;-;-;-;-;-
1531156396323;-;-;-0.1341211;0.35925296;10.202784;0.053764857;0.19216315;-0.062215764;12.150001;59.550003;-43.5;-;-;-;-;-;-;-;-;-
1531156396333;-;-;-0.27303225;0.45984375;10.217154;0.07879857;0.17565155;-0.06594419;12.150001;59.550003;-43.5;-;-;-;-;-;-;-;-;-
1531156396344;-;-;-0.3305127;0.4023633;10.197993;0.08891858;0.13304098;-0.054226283;14.85;59.550003;-43.95;-;-;-;-;-;-;-;-;-
1531156396354;-;-;-0.23950197;0.44547364;9.829161;0.055362754;0.083506174;-0.052628387;14.85;59.550003;-43.95;-;-;-;-;-;-;-;-;-
1531156396365;-;-;-0.081430666;0.46942386;9.68067;-0.008020483;0.056874562;-0.060617868;13.950001;60.600002;-43.5;-;-;-;-;-;-;-;-;-
1531156396375;-;-;0.028740235;0.35925296;9.484278;-0.066077396;0.024383996;-0.07499894;13.950001;60.600002;-43.5;-;-;-;-;-;-;-;-;-
1531156396385;-;-;0.09101075;0.38320315;9.393267;-0.14650486;0.040895596;-0.10429371;14.1;58.95;-42.9;-;-;-;-;-;-;-;-;-
1531156396395;-;-;0.047900394;0.488584;9.369317;-0.19763756;0.09149566;-0.11814215;14.1;58.95;-42.9;-;-;-;-;-;-;-;-;-
1531156396405;-;-;-0.023950197;0.4981641;9.656719;-0.2200081;0.1383673;-0.11281583;14.400001;60.000004;-42.9;-;-;-;-;-;-;-;-;-
1531156396415;-;-;-0.8909473;0.68018556;9.364527;-0.221606;0.32904965;-0.07712947;14.400001;60.000004;-42.9;-;-;-;-;-;-;-;-;-
1531156396426;-;-;-0.47900394;0.8143067;10.437495;-0.18805018;0.38497603;0.0032979995;14.55;59.550003;-43.050003;-;-;-;-;-;-;-;-;-
1531156396436;-;-;-0.21555176;0.5987549;10.95961;-0.12306905;0.20707685;0.07254019;14.55;59.550003;-43.050003;-;-;-;-;-;-;-;-;-
1531156396446;-;-;-0.7089258;0.488584;10.427916;-0.07673004;0.20228316;0.07786651;14.250001;58.050003;-43.050003;-;-;-;-;-;-;-;-;-
1531156396456;-;-;-0.8286768;0.42152345;10.418335;-0.038913153;0.235839;0.073605455;14.250001;58.050003;-43.050003;-;-;-;-;-;-;-;-;-
1531156396467;-;-;-0.23471193;0.29698244;10.9069195;0.032459565;0.08936513;0.088519156;15.6;59.550003;-43.5;-;-;-;-;-;-;-;-;-
1531156396477;-;-;-0.15328126;0.17723145;10.605147;0.045775373;-0.021955008;0.08372547;15.6;59.550003;-43.5;-;-;-;-;-;-;-;-;-
1531156396487;-;-;-0.34488282;0.3879932;10.068663;0.010621645;-0.081609815;0.04431068;15.750001;57.9;-43.350002;-;-;-;-;-;-;-;-;-
1531156396497;-;-;-0.2203418;0.34009278;10.083033;-0.022401553;-0.11356775;0.024603289;15.750001;57.9;-43.350002;-;-;-;-;-;-;-;-;-
1531156396508;-;-;-0.13891114;0.46942386;10.150093;-0.056490015;-0.20784365;0.0091569545;14.85;58.500004;-41.100002;-;-;-;-;-;-;-;-;-
1531156396517;-;-;-0.19639161;0.5460645;10.126143;-0.07619741;-0.22062683;0.0198096;14.85;58.500004;-41.100002;-;-;-;-;-;-;-;-;-
1531156396527;-;-;-0.21076173;0.4406836;10.111773;-0.08844795;-0.20677839;0.013950643;15.450001;57.9;-40.95;-;-;-;-;-;-;-;-;-
1531156396537;-;-;-0.29698244;0.4742139;10.341695;-0.060218442;-0.19825627;0.012352747;15.450001;57.9;-40.95;-;-;-;-;-;-;-;-;-
1531156396547;-;-;-0.21555176;0.488584;10.490186;-0.0042882226;-0.1742932;0.02405995;15.6;59.100002;-43.050003;-;-;-;-;-;-;-;-;-
1531156396558;-;-;-0.19160157;0.43589357;10.471025;0.05430132;-0.13700895;0.033114698;16.5;59.7;-42.15;-;-;-;-;-;-;-;-;-
1531156396568;-;-;-0.07185059;0.44547364;10.389595;0.14804459;-0.08268045;0.030984167;16.5;59.7;-42.15;-;-;-;-;-;-;-;-;-
1531156396578;-;-;-0.1101709;0.39278322;10.303374;0.18852463;-0.05764674;0.0150052;15.6;59.550003;-42.300003;-;-;-;-;-;-;-;-;-
1531156396588;-;-;-0.033530276;0.4263135;9.891431;0.18586148;-0.039004613;-0.0068327207;15.6;59.550003;-42.300003;-;-;-;-;-;-;-;-;-
1531156396599;-;-;-0.06706055;0.39278322;9.733359;0.16349092;-0.01982985;-0.02813801;14.85;57.750004;-41.850002;-;-;-;-;-;-;-;-;-
1531156396609;-;-;-0.17723145;0.48379397;9.560919;0.08732452;-0.023025645;-0.038790654;14.85;57.750004;-41.850002;-;-;-;-;-;-;-;-;-
1531156396619;-;-;-0.28261232;0.5029541;9.74773;0.050040264;-0.029949863;-0.028670643;15.3;58.050003;-41.850002;-;-;-;-;-;-;-;-;-
1531156396630;-;-;-0.28261232;0.6322852;9.78605;-2.716505E-5;-0.01982985;-0.012691676;15.3;58.050003;-41.850002;-;-;-;-;-;-;-;-;-
1531156396640;-;-;-0.2682422;0.5508545;9.718989;-0.026126144;-0.032613024;-4.411342E-4;15.900001;59.850002;-42.300003;-;-;-;-;-;-;-;-;-
1531156396650;-;-;-0.12933107;0.42152345;9.6758795;-0.07299778;-0.023558278;0.020864155;15.900001;59.850002;-42.300003;-;-;-;-;-;-;-;-;-
1531156396660;-;-;-0.23471193;0.38320315;9.867481;-0.088444114;-0.011840368;0.019798892;15.3;59.550003;-41.850002;-;-;-;-;-;-;-;-;-
1531156396671;-;-;-0.27303225;0.48379397;10.092612;-0.08524832;0.028107049;0.029918902;15.3;59.550003;-41.850002;-;-;-;-;-;-;-;-;-
1531156396681;-;-;-0.26345217;0.4406836;10.423125;-0.0319851;0.0520755;0.034712594;14.400001;58.350002;-42.9;-;-;-;-;-;-;-;-;-
1531156396691;-;-;-0.19639161;0.364043;10.585987;0.077737145;0.08243554;0.038441017;14.400001;58.350002;-42.9;-;-;-;-;-;-;-;-;-
1531156396701;-;-;-0.09101075;0.37362307;10.399176;0.15869723;0.10107767;0.040571548;15.6;58.800003;-41.850002;-;-;-;-;-;-;-;-;-
1531156396711;-;-;-0.06706055;0.25866213;10.073453;0.22527626;0.13569875;0.016603097;15.6;58.800003;-41.850002;-;-;-;-;-;-;-;-;-
1531156396722;-;-;-0.047900394;0.35925296;9.589659;0.23592891;0.16659142;-0.007897985;15.150001;58.65;-41.25;-;-;-;-;-;-;-;-;-
1531156396732;-;-;0.009580079;0.45984375;9.302257;0.20077518;0.19535357;-0.041453816;15.150001;58.65;-41.25;-;-;-;-;-;-;-;-;-
1531156396742;-;-;-0.26345217;0.47900394;9.235196;0.15496881;0.21506096;-0.048378035;14.85;59.850002;-41.100002;-;-;-;-;-;-;-;-;-
1531156396752;-;-;-0.5412744;0.5508545;9.158555;0.055366587;0.20707147;-0.029735906;14.85;59.850002;-41.100002;-;-;-;-;-;-;-;-;-
1531156396763;-;-;-0.67539555;0.6706055;9.479487;-0.030919833;0.14901456;0.025125213;15.900001;58.050003;-42.75;-;-;-;-;-;-;-;-;-
1531156396773;-;-;-0.613125;0.6658155;9.7621;-0.067671455;0.1250461;0.054419987;15.900001;58.050003;-42.75;-;-;-;-;-;-;-;-;-
1531156396783;-;-;-0.364043;0.5125342;10.217154;-0.06074724;0.109599784;0.06933369;15.750001;58.350002;-42.45;-;-;-;-;-;-;-;-;-
1531156396793;-;-;-0.24908204;0.44547364;10.442286;-0.01067981;0.10214293;0.05761578;15.750001;58.350002;-42.45;-;-;-;-;-;-;-;-;-
1531156396804;-;-;-0.28740236;0.2682422;10.269844;0.030865505;0.03982496;0.0480284;15.750001;58.350002;-42.45;-;-;-;-;-;-;-;-;-
1531156396813;-;-;-0.16765137;0.23950197;10.188414;0.03725709;-0.012373;0.009678878;15.750001;58.350002;-42.45;-;-;-;-;-;-;-;-;-
1531156396823;-;-;-0.28740236;0.46942386;9.996812;0.028202344;-0.044330932;-0.022279054;15.450001;57.300003;-41.7;-;-;-;-;-;-;-;-;-
1531156396833;-;-;-0.32093263;0.4981641;9.872271;0.0175497;-0.044863567;-0.033996962;15.450001;57.300003;-41.7;-;-;-;-;-;-;-;-;-
1531156396844;-;-;-0.42152345;0.4742139;9.939331;-0.007484016;-0.034743555;-0.04731277;15.150001;58.95;-43.65;-;-;-;-;-;-;-;-;-
1531156396853;-;-;-0.40715334;0.5460645;9.977652;-0.016538763;-0.018764587;-0.036127493;15.150001;58.95;-43.65;-;-;-;-;-;-;-;-;-
1531156396863;-;-;-0.3879932;0.43589357;9.934542;-0.028256672;-0.028884599;-0.028670643;14.85;58.800003;-43.5;-;-;-;-;-;-;-;-;-
1531156396873;-;-;-0.29698244;0.52690434;9.972861;-0.045300905;-0.045928832;-0.021746423;14.85;58.800003;-43.5;-;-;-;-;-;-;-;-;-
1531156396884;-;-;-0.3065625;0.51732427;9.968072;-0.06713882;-0.050189886;-0.04038855;15.3;58.050003;-43.050003;-;-;-;-;-;-;-;-;-
1531156396894;-;-;-0.41194338;0.5891748;10.025552;-0.08098726;-0.053918313;-0.030268539;15.3;58.050003;-43.050003;-;-;-;-;-;-;-;-;-
1531156396904;-;-;-0.4981641;0.5412744;10.245894;-0.067671455;-0.058712002;-0.019615894;14.55;59.550003;-41.100002;-;-;-;-;-;-;-;-;-
1531156396914;-;-;-0.39757326;0.57001466;10.356065;-0.025593512;-0.039537244;-0.018017996;14.55;59.550003;-41.100002;-;-;-;-;-;-;-;-;-
1531156396925;-;-;-0.39757326;0.5460645;10.375225;0.013821273;-0.04113514;-0.010028514;15.450001;59.4;-43.350002;-;-;-;-;-;-;-;-;-
1531156396935;-;-;-0.37362307;0.5604346;10.217154;0.063888706;-0.045396198;-0.012691676;15.450001;59.4;-43.350002;-;-;-;-;-;-;-;-;-
1531156396945;-;-;-0.33530274;0.45505372;9.968072;0.0670845;-0.06244043;-0.014289572;14.700001;58.350002;-41.7;-;-;-;-;-;-;-;-;-
1531156396955;-;-;-0.32093263;0.45984375;9.829161;0.039387617;-0.09652889;-0.020681158;14.700001;58.350002;-41.7;-;-;-;-;-;-;-;-;-
1531156396966;-;-;-0.34009278;0.5460645;9.656719;-0.031452466;-0.1279542;-0.027605377;15.150001;57.300003;-40.050003;-;-;-;-;-;-;-;-;-
1531156396976;-;-;-0.28261232;0.5939649;9.699829;-0.058084078;-0.13061737;-0.039323285;15.150001;57.300003;-40.050003;-;-;-;-;-;-;-;-;-
1531156396986;-;-;-0.32093263;0.728086;9.881851;-0.072465144;-0.10132258;-0.0164201;14.700001;57.600002;-43.350002;-;-;-;-;-;-;-;-;-
1531156396996;-;-;-0.3305127;0.613125;10.030342;-0.054355655;-0.07788676;-0.00416956;15.3;58.800003;-42.75;-;-;-;-;-;-;-;-;-
1531156397007;-;-;-0.28261232;0.6227051;9.924961;-0.020267189;-0.03634145;0.018200994;15.3;58.800003;-42.75;-;-;-;-;-;-;-;-;-
1531156397017;-;-;-0.20118165;0.5748047;9.857901;-0.013875603;0.0014754384;0.029918902;15.6;57.750004;-41.550003;-;-;-;-;-;-;-;-;-
1531156397027;-;-;-0.25866213;0.5412744;9.968072;-0.0064187516;0.036096532;0.019798892;15.6;57.750004;-41.550003;-;-;-;-;-;-;-;-;-
1531156397037;-;-;-0.26345217;0.5748047;9.996812;-0.0026903262;0.043553386;0.009146246;15.450001;59.7;-42.45;-;-;-;-;-;-;-;-;-
1531156397048;-;-;-0.30177248;0.74724615;10.039923;0.00583933;0.023835426;0.0123209795;15.450001;59.7;-42.45;-;-;-;-;-;-;-;-;-
1531156397058;-;-;-0.364043;0.6562354;9.977652;0.0047740657;0.02223753;0.02403889;14.400001;59.7;-41.7;-;-;-;-;-;-;-;-;-
1531156397068;-;-;-0.24908204;0.74724615;9.872271;-0.013868062;0.02223753;0.039485224;14.400001;59.7;-41.7;-;-;-;-;-;-;-;-;-
1531156397078;-;-;-0.25866213;0.74724615;9.848321;-0.015465958;0.027563851;0.037887327;14.400001;58.350002;-43.350002;-;-;-;-;-;-;-;-;-
1531156397089;-;-;-0.18681154;0.6706055;10.039923;-0.031444926;0.027563851;0.035224166;14.400001;58.350002;-43.350002;-;-;-;-;-;-;-;-;-
1531156397099;-;-;-0.24908204;0.6610254;10.0063925;-0.029314397;0.011052253;0.02403889;15.900001;58.050003;-43.050003;-;-;-;-;-;-;-;-;-
1531156397109;-;-;-0.3065625;0.6849756;10.135723;-0.025585972;0.016378576;0.03628943;15.900001;58.050003;-43.050003;-;-;-;-;-;-;-;-;-
1531156397119;-;-;-0.2203418;0.74724615;10.073453;-0.012802798;0.008921724;0.044278916;14.250001;59.550003;-43.050003;-;-;-;-;-;-;-;-;-
1531156397130;-;-;-0.14370118;0.732876;10.083033;-0.021324914;-0.014514094;0.05493156;14.250001;59.550003;-43.050003;-;-;-;-;-;-;-;-;-
1531156397139;-;-;-0.10538086;0.68018556;10.154883;-0.026118604;-0.014514094;0.053866293;15.150001;57.600002;-42.45;-;-;-;-;-;-;-;-;-
1531156397149;-;-;-0.09101075;0.6514453;10.212363;-0.0144006945;-0.021438312;0.035224166;15.150001;57.600002;-42.45;-;-;-;-;-;-;-;-;-
1531156397159;-;-;-0.033530276;0.5987549;10.308165;0.0010456399;-0.019840416;0.02616942;14.400001;60.300003;-42.9;-;-;-;-;-;-;-;-;-
1531156397170;-;-;-0.019160157;0.6610254;10.145303;0.025546722;-0.024634106;0.006994658;14.400001;60.300003;-42.9;-;-;-;-;-;-;-;-;-
1531156397180;-;-;-0.014370117;0.6706055;10.063872;0.034068838;-0.009720404;-9.948255E-4;16.050001;58.350002;-42.9;-;-;-;-;-;-;-;-;-
1531156397190;-;-;-0.14370118;0.7376661;9.929751;0.028742516;-0.006524611;-0.0057885153;16.050001;58.350002;-42.9;-;-;-;-;-;-;-;-;-
1531156397200;-;-;-0.15328126;0.74724615;9.85311;0.020753032;-0.0038614497;0.0011357034;17.85;58.350002;-42.45;-;-;-;-;-;-;-;-;-
1531156397210;-;-;-0.24908204;0.8143067;9.958491;0.0202204;0.013715414;0.013918876;17.85;58.350002;-42.45;-;-;-;-;-;-;-;-;-
1531156397221;-;-;-0.21076173;0.86220706;10.063872;0.028209884;0.03448807;0.017114671;13.35;58.65;-42.15;-;-;-;-;-;-;-;-;-
1531156397231;-;-;-0.21076173;0.79993653;10.083033;0.03726463;0.016911209;0.029897843;13.35;58.65;-42.15;-;-;-;-;-;-;-;-;-
1531156397241;-;-;-0.17244141;0.7664063;9.877061;0.022883562;-0.002263553;0.03841996;14.250001;58.050003;-43.050003;-;-;-;-;-;-;-;-;-
1531156397251;-;-;-0.10538086;0.7664063;9.79084;-0.02984703;-0.045406763;0.0357568;14.250001;58.050003;-43.050003;-;-;-;-;-;-;-;-;-
1531156397262;-;-;-0.09580079;0.7711963;9.77647;-0.07192498;-0.081093125;0.04055049;14.1;59.4;-42.15;-;-;-;-;-;-;-;-;-
1531156397272;-;-;-0.13891114;0.8765772;9.79563;-0.09962185;-0.092278406;0.038952593;14.1;59.4;-42.15;-;-;-;-;-;-;-;-;-
1531156397282;-;-;-0.07664063;0.8861573;10.001602;-0.10175238;-0.06884258;0.041615754;14.400001;60.300003;-43.65;-;-;-;-;-;-;-;-;-
1531156397292;-;-;0.028740235;0.9532178;10.298584;-0.06500076;-0.028895164;0.04055049;14.400001;60.300003;-43.65;-;-;-;-;-;-;-;-;-
1531156397303;-;-;0.119750984;0.8909473;10.471025;0.0031761688;-0.012383565;0.03841996;14.1;60.000004;-44.100002;-;-;-;-;-;-;-;-;-
1531156397313;-;-;0.043110352;0.82388675;10.2315235;0.060167816;-0.011850933;0.020843096;14.1;60.000004;-44.100002;-;-;-;-;-;-;-;-;-
1531156397323;-;-;0.09101075;0.9388477;10.083033;0.099582605;0.0019975048;0.005396761;16.35;59.550003;-42.75;-;-;-;-;-;-;-;-;-
1531156397333;-;-;0.10538086;0.8765772;9.75731;0.076679416;-0.0038614497;-0.014843264;16.35;59.550003;-42.75;-;-;-;-;-;-;-;-;-
1531156397344;-;-;-0.043110352;0.9532178;9.503438;0.015959343;-0.021438312;-0.022832746;14.250001;59.850002;-43.050003;-;-;-;-;-;-;-;-;-
1531156397354;-;-;-0.12933107;0.9436377;9.498648;-0.042097572;-0.022503577;-0.028159069;14.250001;59.850002;-43.050003;-;-;-;-;-;-;-;-;-
1531156397364;-;-;-0.023950197;1.0538087;9.75252;-0.090567105;-0.010253036;-0.023365378;15.450001;57.9;-44.100002;-;-;-;-;-;-;-;-;-
1531156397374;-;-;-0.023950197;1.0346485;10.054293;-0.098556586;0.008389091;-0.037213817;15.450001;57.9;-44.100002;-;-;-;-;-;-;-;-;-
1531156397386;-;-;0.019160157;1.0298585;10.044712;-0.06713128;0.0531302;-0.041474875;15.750001;58.350002;-41.7;-;-;-;-;-;-;-;-;-
1531156397396;-;-;-0.100590825;0.9963282;10.078242;-0.047956526;0.056858625;-0.04999699;15.150001;57.9;-42.9;-;-;-;-;-;-;-;-;-
1531156397407;-;-;-0.2778223;1.0490186;10.039923;-0.034108087;0.0531302;-0.044138037;15.150001;57.9;-42.9;-;-;-;-;-;-;-;-;-
1531156397416;-;-;-0.32572266;1.1064991;9.896221;-0.02505334;0.037683863;-0.03987698;12.6;59.4;-42.45;-;-;-;-;-;-;-;-;-
1531156397427;-;-;-0.5125342;1.1064991;9.70941;-0.065533385;0.020107001;-0.006321148;12.6;59.4;-42.45;-;-;-;-;-;-;-;-;-
1531156397437;-;-;-0.5556446;1.096919;9.73815;-0.087371305;0.04141229;0.014984141;14.400001;60.000004;-43.65;-;-;-;-;-;-;-;-;-
1531156397447;-;-;-0.51732427;1.101709;9.77168;-0.1070787;0.06271757;0.045876812;14.400001;60.000004;-43.65;-;-;-;-;-;-;-;-;-
1531156397457;-;-;-0.5939649;1.0250684;9.905801;-0.10654607;0.084022865;0.052268397;14.85;58.800003;-43.050003;-;-;-;-;-;-;-;-;-
1531156397467;-;-;-0.6562354;0.9580079;9.74773;-0.10015448;0.093077615;0.08156317;14.85;58.800003;-43.050003;-;-;-;-;-;-;-;-;-
1531156397477;-;-;-0.5939649;1.0442286;9.718989;-0.104415536;0.103730254;0.087422125;14.55;58.800003;-42.75;-;-;-;-;-;-;-;-;-
1531156397488;-;-;-0.46942386;1.0394385;9.77168;-0.09482816;0.10532816;0.08795475;14.55;58.800003;-42.75;-;-;-;-;-;-;-;-;-
1531156397498;-;-;-0.46942386;0.977168;10.102193;-0.065533385;0.09041445;0.08475896;14.700001;58.95;-43.65;-;-;-;-;-;-;-;-;-
1531156397508;-;-;-0.46463382;1.0202783;10.025552;-0.0016175213;0.04354282;0.0820958;14.700001;58.95;-43.65;-;-;-;-;-;-;-;-;-
1531156397518;-;-;-0.48379397;1.0059083;9.7812605;0.052710965;-0.0075898753;0.08156317;15.750001;57.600002;-42.9;-;-;-;-;-;-;-;-;-
1531156397528;-;-;-0.30177248;1.092129;9.292676;0.05643939;-0.0592552;0.08262843;15.750001;57.600002;-42.9;-;-;-;-;-;-;-;-;-
1531156397539;-;-;-0.2203418;1.1256592;9.067544;0.019687768;-0.114116326;0.076236844;14.250001;58.500004;-42.75;-;-;-;-;-;-;-;-;-
1531156397549;-;-;-0.05748047;1.2070899;8.962164;-0.039429296;-0.18070251;0.052254118;14.250001;58.500004;-42.75;-;-;-;-;-;-;-;-;-
1531156397560;-;-;-0.15328126;1.1975098;8.919053;-0.05913669;-0.16951725;0.03787305;14.85;59.550003;-43.95;-;-;-;-;-;-;-;-;-
1531156397570;-;-;-0.16765137;1.2597803;8.914263;-0.06499565;-0.10240558;0.030416198;14.85;59.550003;-43.95;-;-;-;-;-;-;-;-;-
1531156397580;-;-;-0.3161426;1.3124708;9.0148535;-0.05966932;-0.017184418;0.020296186;12.900001;59.550003;-41.550003;-;-;-;-;-;-;-;-;-
1531156397591;-;-;-0.5748047;1.4418018;9.192085;-0.04422299;0.070167266;0.028818302;12.900001;59.550003;-41.550003;-;-;-;-;-;-;-;-;-
1531156397600;-;-;-0.7376661;1.5471827;9.340576;-0.04262509;0.13727891;0.058645707;14.250001;59.850002;-43.95;-;-;-;-;-;-;-;-;-
1531156397610;-;-;-0.85741705;1.5376027;9.608819;-0.051147204;0.17935687;0.075689934;14.250001;59.850002;-43.95;-;-;-;-;-;-;-;-;-
1531156397621;-;-;-0.9436377;1.7244141;9.905801;-0.032505076;0.19267267;0.115637355;15.900001;58.500004;-43.5;-;-;-;-;-;-;-;-;-
1531156397631;-;-;-0.852627;1.8250049;9.939331;-0.023450332;0.15698633;0.13214897;15.900001;58.500004;-43.5;-;-;-;-;-;-;-;-;-
1531156397642;-;-;-0.79035646;1.8681153;9.934542;-0.030907182;0.08934203;0.15558478;16.35;58.500004;-44.25;-;-;-;-;-;-;-;-;-
1531156397652;-;-;-0.847837;1.7627344;9.642349;-0.06126722;-1.4018733E-4;0.16677006;16.35;58.500004;-44.25;-;-;-;-;-;-;-;-;-
1531156397663;-;-;-0.79993653;1.7387843;9.297466;-0.122519925;-0.062458158;0.1774227;15.450001;60.000004;-42.45;-;-;-;-;-;-;-;-;-
1531156397673;-;-;-0.6993457;1.6621436;9.034014;-0.20933898;-0.08376345;0.17848797;15.450001;60.000004;-42.45;-;-;-;-;-;-;-;-;-
1531156397684;-;-;-0.5843848;1.6717237;9.168135;-0.30681068;-0.03422865;0.18008587;13.950001;59.550003;-42.75;-;-;-;-;-;-;-;-;-
1531156397693;-;-;-0.5556446;1.6142433;9.517808;-0.3334423;0.02808932;0.18381429;13.950001;59.550003;-42.75;-;-;-;-;-;-;-;-;-
1531156397703;-;-;-0.4981641;1.6094532;10.030342;-0.33397493;0.10745152;0.18381429;15.450001;60.000004;-43.350002;-;-;-;-;-;-;-;-;-
1531156397714;-;-;-0.46463382;1.6573536;10.303374;-0.31107175;0.1335505;0.17369427;15.450001;60.000004;-43.350002;-;-;-;-;-;-;-;-;-
1531156397725;-;-;-0.3879932;1.5040723;10.547667;-0.27165696;0.15964949;0.14013845;16.050001;58.95;-42.9;-;-;-;-;-;-;-;-;-
1531156397734;-;-;-0.39278322;1.4513819;10.643467;-0.24182954;0.15485579;0.1081805;16.050001;58.95;-42.9;-;-;-;-;-;-;-;-;-
1531156397744;-;-;-0.29698244;1.4034815;10.490186;-0.21146952;0.112777844;0.05704781;16.35;58.800003;-42.75;-;-;-;-;-;-;-;-;-
1531156397754;-;-;-0.364043;1.4082716;10.595567;-0.19602318;0.07176516;0.02615514;15.3;60.15;-41.850002;-;-;-;-;-;-;-;-;-
1531156397765;-;-;-0.51732427;1.456172;10.370435;-0.17258736;-0.01505389;-0.014857541;15.3;60.15;-41.850002;-;-;-;-;-;-;-;-;-
1531156397775;-;-;-0.4742139;1.6238233;10.3512745;-0.16779368;-0.06938238;-0.03136914;16.35;59.100002;-42.75;-;-;-;-;-;-;-;-;-
1531156397785;-;-;-0.5412744;1.6525636;10.140513;-0.14329259;-0.14128771;-0.059598647;16.35;59.100002;-42.75;-;-;-;-;-;-;-;-;-
1531156397796;-;-;-0.488584;1.7339942;9.987232;-0.11932413;-0.15992984;-0.07770815;16.650002;60.600002;-43.5;-;-;-;-;-;-;-;-;-
1531156397806;-;-;-0.56522465;1.7866846;9.929751;-0.09056199;-0.18709409;-0.0984808;16.650002;60.600002;-43.5;-;-;-;-;-;-;-;-;-
1531156397816;-;-;-0.7041358;1.9351759;9.82437;-0.069789335;-0.17697409;-0.0984808;15.3;59.850002;-42.75;-;-;-;-;-;-;-;-;-
1531156397826;-;-;-0.7041358;2.0453467;9.613608;-0.042092457;-0.15194038;-0.111263976;15.3;59.850002;-42.75;-;-;-;-;-;-;-;-;-
1531156397837;-;-;-0.7711963;2.1698878;9.74773;-0.028776653;-0.12903717;-0.10487239;15.6;58.800003;-43.5;-;-;-;-;-;-;-;-;-
1531156397847;-;-;-0.74724615;2.1315675;9.81958;0.010638132;-0.07577396;-0.10593765;15.6;58.800003;-43.5;-;-;-;-;-;-;-;-;-
1531156397857;-;-;-0.7041358;2.193838;9.74294;0.05058555;-0.066186585;-0.10487239;15.6;60.600002;-42.75;-;-;-;-;-;-;-;-;-
1531156397867;-;-;-0.75203615;2.2848487;9.7142;0.052183446;-0.06352343;-0.0968829;15.6;60.600002;-42.75;-;-;-;-;-;-;-;-;-
1531156397878;-;-;-0.728086;2.2129982;9.699829;0.055911873;-0.04594656;-0.08676289;15.150001;60.000004;-44.100002;-;-;-;-;-;-;-;-;-
1531156397888;-;-;-0.8286768;2.2225783;9.608819;0.020225512;-0.01505389;-0.0686534;15.150001;60.000004;-44.100002;-;-;-;-;-;-;-;-;-
1531156397898;-;-;-0.81909674;2.198628;9.6758795;-0.017058745;0.024360895;-0.06013128;14.85;61.2;-43.050003;-;-;-;-;-;-;-;-;-
1531156397908;-;-;-0.6514453;2.088457;9.963282;-0.04049456;0.0722978;-0.0505439;14.85;61.2;-43.050003;-;-;-;-;-;-;-;-;-
1531156397919;-;-;-0.3784131;2.0309765;10.384805;-0.052745104;0.13141999;-0.042554416;14.85;59.550003;-41.850002;-;-;-;-;-;-;-;-;-
1531156397929;-;-;-0.28261232;2.0980372;10.859019;-0.04475562;0.13674629;-0.052141797;14.85;59.550003;-41.850002;-;-;-;-;-;-;-;-;-
1531156397939;-;-;-0.22992188;2.0980372;11.074571;-0.028776653;0.09413572;-0.06279444;15.450001;61.050003;-43.350002;-;-;-;-;-;-;-;-;-
1531156397950;-;-;-0.22992188;2.1267774;11.213482;-0.0021450412;0.028621953;-0.080371305;15.450001;61.050003;-43.350002;-;-;-;-;-;-;-;-;-
1531156397960;-;-;-0.25866213;2.059717;11.352393;0.0026486488;-0.07790449;-0.10487239;16.650002;61.2;-43.050003;-;-;-;-;-;-;-;-;-
1531156397970;-;-;-0.5843848;2.2417383;11.280542;0.033541318;-0.16525617;-0.11179661;16.650002;61.2;-43.050003;-;-;-;-;-;-;-;-;-
1531156397981;-;-;-0.7041358;2.2848487;11.357183;0.08360875;-0.17004988;-0.096350275;16.5;61.050003;-41.7;-;-;-;-;-;-;-;-;-
1531156397990;-;-;-0.64186525;2.2752686;11.160791;0.1342088;-0.11572138;-0.07025129;16.5;61.050003;-41.7;-;-;-;-;-;-;-;-;-
1531156398000;-;-;-0.4406836;2.0453467;11.03625;0.14752461;-0.020380212;-0.046282843;16.650002;60.9;-42.75;-;-;-;-;-;-;-;-;-
1531156398011;-;-;-0.3305127;1.9447559;11.170372;0.14113303;0.05472093;-0.025510186;16.650002;60.9;-42.75;-;-;-;-;-;-;-;-;-
1531156398021;-;-;-0.22992188;1.8345851;11.376344;0.13953513;0.08241781;-0.052141797;14.85;61.500004;-45.600002;-;-;-;-;-;-;-;-;-
1531156398030;-;-;-0.22992188;1.6860938;11.515254;0.13474144;0.064308316;-0.071316555;14.85;61.500004;-45.600002;-;-;-;-;-;-;-;-;-
1531156398040;-;-;-0.34488282;1.5232325;11.625425;0.14006776;0.05898199;-0.08569763;14.250001;59.850002;-43.95;-;-;-;-;-;-;-;-;-
1531156398050;-;-;-0.41194338;1.3651612;11.783497;0.1480621;0.07122573;-0.096363835;14.250001;59.850002;-43.95;-;-;-;-;-;-;-;-;-
1531156398060;-;-;-0.30177248;1.1639795;12.051739;0.1810853;0.07388889;-0.096363835;15.450001;60.000004;-44.550003;-;-;-;-;-;-;-;-;-
1531156398070;-;-;-0.033530276;0.9867481;12.166699;0.26843697;0.061638344;-0.104353316;15.450001;60.000004;-44.550003;-;-;-;-;-;-;-;-;-
1531156398080;-;-;0.32572266;0.6227051;12.291241;0.3808224;0.040333055;-0.15868181;15.900001;61.95;-43.5;-;-;-;-;-;-;-;-;-
1531156398091;-;-;0.5029541;0.39757326;12.051739;0.5097194;9.1827207E-4;-0.23804401;15.900001;61.95;-43.5;-;-;-;-;-;-;-;-;-
1531156398100;-;-;0.5556446;0.20118165;11.424244;0.6300943;-0.022517545;-0.34030938;16.5;60.750004;-43.65;-;-;-;-;-;-;-;-;-
1531156398110;-;-;0.4023633;0.22513184;10.700948;0.69880384;-0.044355467;-0.4218021;16.5;60.750004;-43.65;-;-;-;-;-;-;-;-;-
1531156398120;-;-;0.2921924;0.3065625;9.877061;0.6934775;-0.025180707;-0.4713369;15.450001;58.95;-45.0;-;-;-;-;-;-;-;-;-
1531156398134;-;-;-0.05748047;0.4981641;9.196876;0.62210476;0.06483414;-0.48891377;15.450001;58.95;-45.0;-;-;-;-;-;-;-;-;-
1531156398142;-;-;-0.45505372;0.6466553;8.952583;0.49054462;0.17242585;-0.44736847;16.5;59.7;-44.100002;-;-;-;-;-;-;-;-;-
1531156398152;-;-;-0.7089258;0.6322852;9.067544;0.42449823;0.2145038;-0.42126948;16.5;59.7;-44.100002;-;-;-;-;-;-;-;-;-
1531156398162;-;-;-0.7807764;0.6610254;9.129815;0.33288547;0.25977752;-0.33445042;14.700001;58.350002;-43.350002;-;-;-;-;-;-;-;-;-
1531156398172;-;-;-0.852627;0.6658155;9.086704;0.27429593;0.28214806;-0.25881666;14.700001;58.350002;-43.350002;-;-;-;-;-;-;-;-;-
1531156398182;-;-;-0.67539555;0.41194338;9.048384;0.1661716;0.32316077;-0.17625867;15.150001;57.9;-42.9;-;-;-;-;-;-;-;-;-
1531156398193;-;-;-0.7664063;0.34967285;9.153765;0.10598416;0.3338134;-0.12299544;15.150001;57.9;-42.9;-;-;-;-;-;-;-;-;-
1531156398203;-;-;-0.41194338;0.23471193;9.129815;0.0074471952;0.35937974;-0.07399328;16.800001;60.000004;-45.75;-;-;-;-;-;-;-;-;-
1531156398213;-;-;-0.40715334;0.16765137;9.354947;-0.058599204;0.34659657;-0.05907958;16.800001;60.000004;-45.75;-;-;-;-;-;-;-;-;-
1531156398223;-;-;-0.40715334;0.20597169;9.70941;-0.10760137;0.3007902;-0.057481684;16.5;56.550003;-42.45;-;-;-;-;-;-;-;-;-
1531156398233;-;-;-0.6322852;0.19160157;9.80521;-0.12730876;0.27841964;-0.050557464;16.95;57.45;-45.15;-;-;-;-;-;-;-;-;-
1531156398244;-;-;-0.7424561;0.28740236;9.958491;-0.1560709;0.32955235;-0.0015552989;16.95;57.45;-45.15;-;-;-;-;-;-;-;-;-
1531156398254;-;-;-0.6322852;0.34009278;10.274634;-0.16033196;0.37376082;0.022945784;16.95;59.100002;-44.7;-;-;-;-;-;-;-;-;-
1531156398264;-;-;-0.57959473;0.46942386;10.619517;-0.1065361;0.33967236;0.088992186;16.95;59.100002;-44.7;-;-;-;-;-;-;-;-;-
1531156398274;-;-;-0.5508545;0.39278322;10.590776;-0.07564343;0.29386598;0.101775356;16.35;57.750004;-45.9;-;-;-;-;-;-;-;-;-
1531156398284;-;-;-0.43589357;0.46463382;10.346485;-0.061794996;0.14792477;0.12095012;16.35;57.750004;-45.9;-;-;-;-;-;-;-;-;-
1531156398294;-;-;-0.364043;0.35925296;9.905801;-0.07883922;0.03127831;0.1241459;18.300001;58.500004;-44.7;-;-;-;-;-;-;-;-;-
1531156398305;-;-;-0.3784131;0.32572266;9.302257;-0.16885407;-0.18124194;0.10124272;18.300001;58.500004;-44.7;-;-;-;-;-;-;-;-;-
1531156398315;-;-;-0.33530274;0.38320315;9.029224;-0.22424783;-0.25527784;0.086861655;18.150002;57.300003;-43.65;-;-;-;-;-;-;-;-;-
1531156398325;-;-;-0.09580079;0.38320315;8.976534;-0.2865658;-0.33623794;0.07674164;18.150002;57.300003;-43.65;-;-;-;-;-;-;-;-;-
1531156398335;-;-;-0.07185059;0.50774413;8.957374;-0.28922898;-0.34103164;0.08260059;16.650002;58.050003;-44.7;-;-;-;-;-;-;-;-;-
1531156398345;-;-;0.07185059;0.5508545;9.172925;-0.21359518;-0.32292214;0.049577393;16.650002;58.050003;-44.7;-;-;-;-;-;-;-;-;-
1531156398355;-;-;0.21076173;0.57001466;9.129815;-0.13902667;-0.29895368;0.011760507;17.1;58.95;-45.300003;-;-;-;-;-;-;-;-;-
1531156398366;-;-;0.19160157;0.6610254;8.813672;-0.0074665067;-0.2611368;-0.043633245;17.1;58.95;-45.300003;-;-;-;-;-;-;-;-;-
1531156398376;-;-;-0.019160157;0.7711963;8.454419;0.08095045;-0.24569045;-0.07878697;16.35;58.050003;-44.7;-;-;-;-;-;-;-;-;-
1531156398386;-;-;-0.32572266;0.9915381;8.013736;0.14539894;-0.22864622;-0.10648385;16.35;58.050003;-44.7;-;-;-;-;-;-;-;-;-
1531156398396;-;-;-0.44547364;1.0250684;7.6257424;0.15338843;-0.22118936;-0.09689646;16.050001;58.95;-45.75;-;-;-;-;-;-;-;-;-
1531156398406;-;-;-0.6706055;1.2549903;7.2521195;0.10012521;-0.18390511;-0.071330115;16.050001;58.95;-45.75;-;-;-;-;-;-;-;-;-
1531156398417;-;-;-0.76161623;1.3986914;7.2425394;0.02715459;-0.17431773;-0.031915337;16.650002;58.050003;-44.25;-;-;-;-;-;-;-;-;-
1531156398427;-;-;-0.7185059;1.3986914;7.3000197;-0.04847919;-0.19349249;0.005901552;16.650002;58.050003;-44.25;-;-;-;-;-;-;-;-;-
1531156398437;-;-;-0.6322852;1.4849122;7.3575;-0.1363635;-0.21746095;0.06076267;14.85;58.500004;-46.350002;-;-;-;-;-;-;-;-;-
1531156398447;-;-;-0.5508545;1.3699512;7.448511;-0.24395522;-0.26166943;0.115623794;14.85;58.500004;-46.350002;-;-;-;-;-;-;-;-;-
1531156398458;-;-;-0.34967285;1.4034815;7.534732;-0.355808;-0.3468906;0.14704908;16.5;58.95;-43.65;-;-;-;-;-;-;-;-;-
1531156398467;-;-;0.119750984;1.22625;8.071217;-0.55447984;-0.48058128;0.1768765;16.5;58.95;-43.65;-;-;-;-;-;-;-;-;-
1531156398478;-;-;0.5939649;1.1783496;8.50711;-0.6972253;-0.55142134;0.16462596;14.400001;58.350002;-45.0;-;-;-;-;-;-;-;-;-
1531156398488;-;-;0.7664063;0.89573735;9.139395;-0.782979;-0.58657503;0.10337325;14.400001;58.350002;-45.0;-;-;-;-;-;-;-;-;-
1531156398498;-;-;0.9196875;0.9053174;9.455538;-0.77765274;-0.5327792;0.0149563;16.95;58.500004;-45.9;-;-;-;-;-;-;-;-;-
1531156398508;-;-;1.0729688;0.8334668;9.69504;-0.70628;-0.4017517;-0.08997224;16.95;58.500004;-45.9;-;-;-;-;-;-;-;-;-
1531156398518;-;-;0.86220706;1.1064991;9.7621;-0.6002862;-0.18283984;-0.20448819;16.35;58.800003;-45.15;-;-;-;-;-;-;-;-;-
1531156398529;-;-;0.19160157;1.7483643;9.7621;-0.51080394;0.08294364;-0.2598819;16.35;58.800003;-45.15;-;-;-;-;-;-;-;-;-
1531156398539;-;-;-0.1101709;2.1411476;10.083033;-0.5326419;0.247527;-0.22526084;14.700001;59.7;-44.550003;-;-;-;-;-;-;-;-;-
1531156398549;-;-;-0.20118165;2.3806496;10.782378;-0.5745982;0.29871318;-0.13760105;14.700001;59.7;-44.550003;-;-;-;-;-;-;-;-;-
1531156398560;-;-;-0.25866213;2.572251;11.673326;-0.57885927;0.29764792;-0.06516306;14.400001;60.000004;-45.0;-;-;-;-;-;-;-;-;-
1531156398569;-;-;-0.09101075;2.3135889;12.703184;-0.4968339;0.25716788;0.030710738;14.400001;60.000004;-45.0;-;-;-;-;-;-;-;-;-
1531156398580;-;-;0.16286133;1.8106349;13.536651;-0.31946734;0.21722044;0.086637124;14.85;60.15;-44.7;-;-;-;-;-;-;-;-;-
1531156398590;-;-;0.34009278;1.2597803;13.867164;-0.009475392;0.19112146;0.079712905;14.85;60.15;-44.7;-;-;-;-;-;-;-;-;-
1531156398601;-;-;0.36883304;0.8861573;13.709092;0.21263225;0.110161364;0.013133875;16.5;60.000004;-44.550003;-;-;-;-;-;-;-;-;-
1531156398611;-;-;-0.023950197;0.8861573;13.234879;0.3457903;0.0025696554;-0.04971673;16.5;60.000004;-44.550003;-;-;-;-;-;-;-;-;-
1531156398620;-;-;-0.8861573;0.89573735;12.966637;0.3931946;-0.13751262;-0.043857776;15.6;61.2;-45.15;-;-;-;-;-;-;-;-;-
1531156398630;-;-;-1.3076807;1.1783496;12.818145;0.40118405;-0.23658222;0.022721253;15.6;61.2;-45.15;-;-;-;-;-;-;-;-;-
1531156398640;-;-;-1.1208692;1.22625;13.062437;0.4283483;-0.275997;0.073853955;17.550001;60.750004;-44.550003;-;-;-;-;-;-;-;-;-
1531156398651;-;-;-0.90052736;1.3076807;13.277988;0.5567127;-0.29783493;0.121790856;17.550001;60.750004;-44.550003;-;-;-;-;-;-;-;-;-
1531156398660;-;-;-0.74724615;1.1687696;13.35942;0.7804182;-0.27493173;0.14842246;15.750001;59.4;-44.100002;-;-;-;-;-;-;-;-;-
1531156398670;-;-;-0.6179151;1.1783496;12.961846;1.0648438;-0.24350643;0.17505407;15.750001;59.4;-44.100002;-;-;-;-;-;-;-;-;-
1531156398681;-;-;-0.52690434;1.2454102;12.027788;1.3769662;-0.17373161;0.1739888;15.150001;60.000004;-45.75;-;-;-;-;-;-;-;-;-
1531156398690;-;-;-1.0681788;1.1400293;10.289004;1.583095;-0.040573552;0.19263093;15.150001;60.000004;-45.75;-;-;-;-;-;-;-;-;-
1531156398700;-;-;-1.5807129;0.89573735;8.123906;1.5841602;0.28486472;0.2512205;16.650002;59.550003;-46.350002;-;-;-;-;-;-;-;-;-
1531156398711;-;-;-2.0453467;0.728086;6.5288234;1.3002672;0.8031159;0.4099449;16.650002;59.550003;-46.350002;-;-;-;-;-;-;-;-;-
1531156398720;-;-;-2.5291407;0.9963282;6.6773148;0.7905382;1.4007292;0.6831852;16.5;58.65;-46.5;-;-;-;-;-;-;-;-;-
1531156398730;-;-;-2.3998096;1.1160791;8.770562;0.2658955;1.8294982;0.98518765;16.5;58.65;-46.5;-;-;-;-;-;-;-;-;-
1531156398741;-;-;-1.9208057;0.8286768;11.773916;-0.03131331;1.9370898;1.1971754;15.750001;56.850002;-46.95;-;-;-;-;-;-;-;-;-
1531156398751;-;-;-1.8010547;-0.09101075;14.202466;-0.07285863;1.810856;1.3116913;15.750001;56.850002;-46.95;-;-;-;-;-;-;-;-;-
1531156398761;-;-;-1.5950831;-1.3507911;15.371236;0.06935418;1.3176385;1.3100934;18.6;55.2;-46.95;-;-;-;-;-;-;-;-;-
1531156398771;-;-;-1.3172607;-1.9926564;15.280225;0.16522798;0.8329433;1.2296659;18.6;55.2;-46.95;-;-;-;-;-;-;-;-;-
1531156398782;-;-;-0.27303225;-2.7015822;13.546231;0.21902384;-0.037910394;0.91061914;18.75;55.65;-45.9;-;-;-;-;-;-;-;-;-
1531156398792;-;-;0.1580713;-2.7686427;11.999048;0.1588364;-0.4363193;0.6688041;20.400002;54.750004;-47.550003;-;-;-;-;-;-;-;-;-
1531156398802;-;-;-0.19639161;-2.2752686;10.202784;-0.021193301;-0.7590944;0.372128;20.400002;54.750004;-47.550003;-;-;-;-;-;-;-;-;-
1531156398813;-;-;-0.56522465;-1.829795;9.551338;-0.12878501;-0.8325977;0.2847763;20.550001;54.9;-46.2;-;-;-;-;-;-;-;-;-
1531156398823;-;-;-0.79993653;-1.1064991;8.995694;-0.2741936;-0.76761657;0.23417625;20.550001;54.9;-46.2;-;-;-;-;-;-;-;-;-
1531156398833;-;-;-0.8095166;-0.9627979;8.938213;-0.3018905;-0.70157015;0.22458887;21.300001;55.500004;-45.75;-;-;-;-;-;-;-;-;-
1531156398843;-;-;-0.44547364;-0.5412744;8.727451;-0.31573892;-0.5055615;0.22245835;21.300001;55.500004;-45.75;-;-;-;-;-;-;-;-;-
1531156398854;-;-;-0.32572266;-0.5508545;8.669971;-0.30774945;-0.43898246;0.19955516;20.7;55.050003;-47.550003;-;-;-;-;-;-;-;-;-
1531156398864;-;-;-0.043110352;-0.29698244;8.0999565;-0.2907052;-0.39796978;0.13191086;20.7;55.050003;-47.550003;-;-;-;-;-;-;-;-;-
1531156398874;-;-;-0.086220704;-0.15328126;7.8604546;-0.29177046;-0.38305607;0.09036555;21.45;54.750004;-46.350002;-;-;-;-;-;-;-;-;-
1531156398885;-;-;-0.3065625;0.1341211;7.472461;-0.2757915;-0.4096877;-0.0023124595;21.45;54.750004;-46.350002;-;-;-;-;-;-;-;-;-
1531156398894;-;-;-0.30177248;0.34488282;6.8497562;-0.2693999;-0.42406875;-0.04279251;19.800001;56.100002;-46.800003;-;-;-;-;-;-;-;-;-
1531156398904;-;-;-0.6706055;0.82388675;6.1456203;-0.2805852;-0.38944766;-0.09285994;19.800001;56.100002;-46.800003;-;-;-;-;-;-;-;-;-
1531156398915;-;-;-0.6945557;1.092129;5.647456;-0.2986947;-0.33618444;-0.08114202;17.85;55.500004;-46.2;-;-;-;-;-;-;-;-;-
1531156398924;-;-;-0.19160157;1.7387843;5.5708156;-0.3652737;-0.041106187;-0.0017798273;17.85;55.500004;-46.2;-;-;-;-;-;-;-;-;-
1531156398935;-;-;0.244292;1.8202149;6.543194;-0.34396842;0.3173553;0.07918027;18.6;55.2;-48.15;-;-;-;-;-;-;-;-;-
1531156398945;-;-;0.3065625;1.5519727;7.879615;-0.175124;0.5975199;0.14682457;18.6;55.2;-48.15;-;-;-;-;-;-;-;-;-
1531156398954;-;-;0.38320315;1.1160791;8.5119;-0.012671187;0.68966526;0.17026038;18.150002;55.500004;-47.4;-;-;-;-;-;-;-;-;-
1531156398965;-;-;0.64186525;0.6610254;8.789722;0.19185959;0.68859994;0.09249608;18.150002;55.500004;-47.4;-;-;-;-;-;-;-;-;-
1531156398975;-;-;0.5987549;0.5125342;8.703502;0.23020911;0.6481199;0.03816759;18.75;56.100002;-47.550003;-;-;-;-;-;-;-;-;-
1531156398985;-;-;0.35925296;0.7424561;8.435259;0.17854379;0.3503785;-0.1567758;18.75;56.100002;-47.550003;-;-;-;-;-;-;-;-;-
1531156398994;-;-;0.13891114;0.98195803;8.51669;0.09065946;0.08299712;-0.21909377;19.800001;56.7;-45.9;-;-;-;-;-;-;-;-;-
1531156399004;-;-;0.14370118;1.0585986;8.617281;0.0267436;-0.15722;-0.23986644;19.800001;56.7;-45.9;-;-;-;-;-;-;-;-;-
1531156399014;-;-;-0.05748047;1.0777588;8.674761;-0.011605921;-0.34950024;-0.25211698;18.900002;55.500004;-46.2;-;-;-;-;-;-;-;-;-
1531156399025;-;-;-0.28740236;0.96758795;8.334668;-0.12771975;-0.6014353;-0.236138;18.900002;55.500004;-46.2;-;-;-;-;-;-;-;-;-
1531156399036;-;-;-0.33530274;1.0250684;8.349038;-0.14423135;-0.6259364;-0.22868115;19.2;56.250004;-47.4;-;-;-;-;-;-;-;-;-
1531156399045;-;-;-0.41194338;1.2454102;8.602911;-0.2523557;-0.64244795;-0.16902635;19.2;56.250004;-47.4;-;-;-;-;-;-;-;-;-
1531156399055;-;-;-0.31135255;1.3795313;8.746612;-0.28590587;-0.6419232;-0.1450736;19.5;57.300003;-48.15;-;-;-;-;-;-;-;-;-
1531156399066;-;-;-0.1101709;1.3891114;9.259146;-0.2811122;-0.5614957;-0.09766933;19.5;57.300003;-48.15;-;-;-;-;-;-;-;-;-
1531156399076;-;-;0.21076173;1.2406201;9.814791;-0.20547843;-0.43419665;-0.10459355;19.800001;55.65;-48.750004;-;-;-;-;-;-;-;-;-
1531156399086;-;-;0.43110353;1.0106983;10.399176;-0.023318207;-0.27014592;-0.18342312;19.800001;55.65;-48.750004;-;-;-;-;-;-;-;-;-
1531156399096;-;-;0.47900394;0.9388477;10.466236;0.013966049;-0.24724273;-0.21218526;19.5;56.550003;-48.15;-;-;-;-;-;-;-;-;-
1531156399107;-;-;0.22513184;0.90052736;10.332115;0.19932206;-0.102366775;-0.3517349;19.5;56.550003;-48.15;-;-;-;-;-;-;-;-;-
1531156399117;-;-;-0.0047900393;1.0250684;10.183623;0.2115726;-0.07999622;-0.4145855;18.6;57.300003;-46.95;-;-;-;-;-;-;-;-;-
1531156399128;-;-;-0.3784131;1.2166699;10.097403;0.17535362;-0.117280476;-0.42843395;18.6;57.300003;-46.95;-;-;-;-;-;-;-;-;-
1531156399138;-;-;-0.9244776;1.2406201;10.274634;0.07042506;-0.13166155;-0.41831392;17.7;56.7;-47.550003;-;-;-;-;-;-;-;-;-
1531156399148;-;-;-0.71371585;1.4801221;10.868599;-0.036634013;-0.14870578;-0.34268016;17.7;56.7;-47.550003;-;-;-;-;-;-;-;-;-
1531156399158;-;-;-0.62749517;1.5232325;11.064991;-0.045688763;-0.16202158;-0.340017;17.550001;56.250004;-47.7;-;-;-;-;-;-;-;-;-
1531156399169;-;-;0.038320314;0.98195803;11.850557;0.0214229;-0.23445956;-0.35439807;17.550001;56.250004;-47.7;-;-;-;-;-;-;-;-;-
1531156399178;-;-;0.23471193;0.5748047;11.831397;0.102382995;-0.1508363;-0.43855396;17.1;57.600002;-48.15;-;-;-;-;-;-;-;-;-
1531156399189;-;-;0.22513184;0.45026368;11.927197;0.15671149;-0.050701447;-0.49128455;17.1;57.600002;-48.15;-;-;-;-;-;-;-;-;-
1531156399199;-;-;0.12933107;0.488584;12.16191;0.21423577;0.12080613;-0.55892885;17.550001;55.95;-47.7;-;-;-;-;-;-;-;-;-
1531156399209;-;-;-0.09580079;0.74724615;12.837305;0.31490326;0.2193431;-0.6047352;17.550001;55.95;-47.7;-;-;-;-;-;-;-;-;-
1531156399220;-;-;-0.36883304;0.79035646;12.942686;0.3633728;0.1501009;-0.60686576;18.0;55.65;-48.750004;-;-;-;-;-;-;-;-;-
1531156399230;-;-;-0.41194338;0.86220706;12.784615;0.3947981;-0.18492477;-0.5866257;18.0;55.65;-48.750004;-;-;-;-;-;-;-;-;-
1531156399240;-;-;-0.3161426;0.728086;11.716436;0.37615597;-0.5817358;-0.58396256;18.0;56.4;-48.45;-;-;-;-;-;-;-;-;-
1531156399251;-;-;-0.3544629;0.57001466;10.7871685;0.33887172;-0.74685174;-0.58396256;18.0;56.4;-48.45;-;-;-;-;-;-;-;-;-
1531156399260;-;-;-0.4023633;0.5364844;10.4566555;0.31490326;-0.77667916;-0.59035414;17.25;56.4;-48.750004;-;-;-;-;-;-;-;-;-
1531156399271;-;-;-0.49337405;0.26345217;8.789722;0.07042506;-0.67228323;-0.5583962;16.35;57.45;-48.750004;-;-;-;-;-;-;-;-;-
1531156399281;-;-;-0.26345217;0.60354495;8.727451;-0.12718149;-0.28239647;-0.47956663;16.35;57.45;-48.750004;-;-;-;-;-;-;-;-;-
1531156399290;-;-;-0.1820215;0.68018556;8.866363;-0.17511839;-0.06881095;-0.44973925;16.35;57.45;-48.750004;-;-;-;-;-;-;-;-;-
1531156399300;-;-;-0.081430666;0.8382569;10.585987;-0.18364051;0.49950767;-0.30912432;15.750001;56.550003;-49.350002;-;-;-;-;-;-;-;-;-
1531156399311;-;-;-0.009580079;0.68976563;11.366763;-0.100549884;0.77221537;-0.19514103;15.750001;56.550003;-49.350002;-;-;-;-;-;-;-;-;-
1531156399321;-;-;0.07185059;0.42152345;11.615846;-0.049417187;0.8920576;-0.14241044;15.6;57.750004;-48.0;-;-;-;-;-;-;-;-;-
1531156399331;-;-;-0.24908204;0.20118165;11.548784;-0.069657214;0.9666261;-0.07370088;16.650002;57.15;-48.45;-;-;-;-;-;-;-;-;-
1531156399342;-;-;-0.7424561;0.07185059;11.745176;-0.21879424;0.9128303;0.02483608;16.650002;57.15;-48.45;-;-;-;-;-;-;-;-;-
1531156399352;-;-;-0.6993457;0.09101075;11.759546;-0.24329531;0.8925902;0.04454347;16.650002;57.15;-48.45;-;-;-;-;-;-;-;-;-
1531156399361;-;-;-0.33530274;-0.1820215;11.951148;-0.40628076;0.71309316;0.099404596;17.550001;57.300003;-47.7;-;-;-;-;-;-;-;-;-
1531156399372;-;-;-0.0047900393;-0.40715334;12.166699;-0.51493776;0.42014545;0.09194774;19.2;56.550003;-47.4;-;-;-;-;-;-;-;-;-
1531156399382;-;-;0.06227051;-0.45984375;12.19544;-0.5181336;0.30349898;0.07703404;19.2;56.550003;-47.4;-;-;-;-;-;-;-;-;-
1531156399393;-;-;0.3065625;-0.4406836;11.625425;-0.50641567;-0.017145617;0.01791186;18.300001;56.7;-49.65;-;-;-;-;-;-;-;-;-
1531156399402;-;-;0.24908204;-0.4023633;10.648257;-0.45528293;-0.3260723;-0.07423352;18.300001;56.7;-49.65;-;-;-;-;-;-;-;-;-
1531156399412;-;-;0.1341211;-0.28740236;10.365645;-0.43291238;-0.40969557;-0.10246302;18.6;57.9;-48.15;-;-;-;-;-;-;-;-;-
1531156399423;-;-;0.07185059;-0.26345217;10.178833;-0.42492288;-0.43739244;-0.114713565;18.6;57.9;-48.15;-;-;-;-;-;-;-;-;-
1531156399432;-;-;-0.7185059;0.119750984;8.780142;-0.32159224;-0.5311357;-0.13548622;18.75;57.750004;-48.0;-;-;-;-;-;-;-;-;-
1531156399442;-;-;-0.8430469;0.3305127;7.8891945;-0.30508065;-0.41821766;-0.06358087;18.75;57.750004;-48.0;-;-;-;-;-;-;-;-;-
1531156399453;-;-;-0.613125;0.34009278;7.553892;-0.330647;-0.30529964;-0.026296614;17.1;58.350002;-49.050003;-;-;-;-;-;-;-;-;-
1531156399463;-;-;-0.1341211;0.17244141;7.697593;-0.32319012;-0.0746699;0.008857112;17.1;58.350002;-49.050003;-;-;-;-;-;-;-;-;-
1531156399473;-;-;-0.043110352;0.038320314;7.8604546;-0.27525324;0.15595986;0.004063422;18.150002;59.4;-50.550003;-;-;-;-;-;-;-;-;-
1531156399484;-;-;0.21555176;-0.11496094;7.774234;-0.20920685;0.37061065;-0.015111338;18.150002;59.4;-50.550003;-;-;-;-;-;-;-;-;-
1531156399494;-;-;0.34488282;-0.06706055;7.941885;-0.15647626;0.5027034;-0.051862963;15.450001;58.65;-48.15;-;-;-;-;-;-;-;-;-
1531156399505;-;-;0.19639161;0.028740235;7.8365045;-0.11972464;0.5208129;-0.13335569;15.450001;58.65;-48.15;-;-;-;-;-;-;-;-;-
1531156399515;-;-;-0.18681154;0.1341211;7.434141;-0.14955205;0.43026546;-0.17436837;15.900001;60.15;-48.45;-;-;-;-;-;-;-;-;-
1531156399524;-;-;-0.07664063;0.46942386;7.33355;-0.23850162;0.3333264;-0.17862943;15.900001;60.15;-48.45;-;-;-;-;-;-;-;-;-
1531156399534;-;-;-0.17244141;0.7376661;7.783814;-0.3162659;0.2624863;-0.17277047;19.2;60.300003;-47.7;-;-;-;-;-;-;-;-;-
1531156399545;-;-;-0.4981641;0.7711963;8.487949;-0.2981564;0.1303935;-0.15785678;19.2;60.300003;-47.7;-;-;-;-;-;-;-;-;-
1531156399555;-;-;-0.7424561;0.7041358;8.8951025;-0.20121251;0.043035023;-0.13443452;19.050001;59.850002;-49.95;-;-;-;-;-;-;-;-;-
1531156399565;-;-;-0.8382569;0.74724615;9.057964;-0.09095764;-0.009162938;-0.10354185;19.050001;59.850002;-49.95;-;-;-;-;-;-;-;-;-
1531156399576;-;-;-0.68018556;0.76161623;9.110655;-0.027574409;-0.058165103;-0.09342184;19.2;60.750004;-49.050003;-;-;-;-;-;-;-;-;-
1531156399586;-;-;-0.728086;0.87178713;9.584868;0.05072253;-0.14764732;-0.1141945;19.2;60.750004;-49.050003;-;-;-;-;-;-;-;-;-
1531156399596;-;-;-0.7951465;0.91010743;9.79084;0.106648915;-0.23073795;-0.11525976;18.0;59.550003;-49.95;-;-;-;-;-;-;-;-;-
1531156399607;-;-;-0.6993457;0.96758795;9.522598;0.14127001;-0.35856968;-0.12165135;18.0;59.550003;-49.95;-;-;-;-;-;-;-;-;-
1531156399616;-;-;-0.68018556;1.1687696;9.244776;0.0965289;-0.50397825;-0.099813424;18.75;59.850002;-49.2;-;-;-;-;-;-;-;-;-
1531156399627;-;-;-0.63707525;1.3843213;9.129815;-0.026509143;-0.62967944;-0.047082838;18.75;59.850002;-49.2;-;-;-;-;-;-;-;-;-
1531156399637;-;-;-0.5125342;1.3891114;9.503438;-0.13037243;-0.71117216;0.007778284;18.150002;60.000004;-47.7;-;-;-;-;-;-;-;-;-
1531156399647;-;-;-0.5460645;1.3028907;10.394385;-0.16659142;-0.77029437;0.041866746;18.150002;60.000004;-47.7;-;-;-;-;-;-;-;-;-
1531156399658;-;-;-0.42152345;1.092129;10.839859;-0.13037243;-0.7777512;0.08607522;18.0;58.800003;-46.800003;-;-;-;-;-;-;-;-;-
1531156399668;-;-;0.047900394;0.8143067;11.093731;-0.06858709;-0.730347;0.09619523;18.0;58.800003;-46.800003;-;-;-;-;-;-;-;-;-
1531156399678;-;-;0.22992188;0.728086;11.170372;0.019297227;-0.6334079;0.0775531;17.85;60.750004;-50.250004;-;-;-;-;-;-;-;-;-
1531156399689;-;-;0.28740236;0.6610254;11.03625;0.10078996;-0.50557613;0.0477257;17.85;60.750004;-50.250004;-;-;-;-;-;-;-;-;-
1531156399700;-;-;0.45505372;0.3879932;10.686578;0.13807422;-0.3058391;0.015235135;16.800001;60.750004;-51.000004;-;-;-;-;-;-;-;-;-
1531156399710;-;-;0.5460645;0.16765137;10.844649;0.13274789;-0.16575682;-0.010331212;16.5;60.000004;-49.050003;-;-;-;-;-;-;-;-;-
1531156399720;-;-;0.6945557;0.10538086;11.6876955;0.1444658;-0.024076642;-0.11366186;16.5;60.000004;-49.050003;-;-;-;-;-;-;-;-;-
1531156399741;-;-;0.46463382;0.7424561;12.377461;0.28081965;-0.23127058;-0.3986201;15.750001;60.300003;-50.250004;-;-;-;-;-;-;-;-;-
1531156399731;-;-;0.8382569;0.086220704;12.228971;0.18547848;-0.041653503;-0.21166618;15.750001;60.300003;-50.250004;-;-;-;-;-;-;-;-;-
1531156399751;-;-;0.17723145;1.336421;11.874507;0.28348282;-0.28719696;-0.42099065;16.5;60.300003;-48.15;-;-;-;-;-;-;-;-;-
1531156399762;-;-;-0.6849756;2.078877;11.323653;0.22915432;-0.33779702;-0.3379;16.5;60.300003;-48.15;-;-;-;-;-;-;-;-;-
1531156399771;-;-;-1.8345851;2.1028273;11.06978;0.18547848;-0.13113573;-0.18077353;14.55;61.2;-52.050003;-;-;-;-;-;-;-;-;-
1531156399781;-;-;-3.2380664;1.331631;11.0123005;0.03261303;0.62520206;0.27196386;14.55;61.2;-52.050003;-;-;-;-;-;-;-;-;-
1531156399792;-;-;-3.2572267;0.68976563;12.296031;-0.065391295;1.1168215;0.56331366;14.250001;60.15;-50.850002;-;-;-;-;-;-;-;-;-
1531156399802;-;-;-2.3806496;-0.364043;14.743741;-0.02544388;1.5951253;0.882893;14.250001;60.15;-50.850002;-;-;-;-;-;-;-;-;-
1531156399812;-;-;-1.5998731;-1.1112891;15.95083;0.14712897;1.6409317;0.9563963;15.750001;60.750004;-49.050003;-;-;-;-;-;-;-;-;-
1531156399822;-;-;-1.1639795;-2.0980372;16.396305;0.33834395;1.3330703;0.91857934;15.750001;60.750004;-49.050003;-;-;-;-;-;-;-;-;-
1531156399833;-;-;-0.5987549;-2.7782228;16.037052;0.4496641;0.89790976;0.8168466;18.0;59.850002;-49.95;-;-;-;-;-;-;-;-;-
1531156399843;-;-;-0.10538086;-2.9650342;14.566509;0.5524621;-0.04804509;0.5553242;18.0;59.850002;-49.95;-;-;-;-;-;-;-;-;-
1531156399853;-;-;-0.23950197;-2.7446926;12.291241;0.5162431;-0.7479238;0.336945;18.900002;58.65;-49.800003;-;-;-;-;-;-;-;-;-
1531156399863;-;-;-0.9532178;-2.1507277;9.632769;0.34313765;-1.2539245;0.1782206;18.900002;58.65;-49.800003;-;-;-;-;-;-;-;-;-
1531156399874;-;-;-1.2693604;-1.7483643;7.965835;0.13541105;-1.3375478;0.17715535;19.050001;58.500004;-49.95;-;-;-;-;-;-;-;-;-
1531156399884;-;-;-1.2502003;-1.4178516;7.1419487;-0.08882712;-1.1617792;0.23308173;19.050001;58.500004;-49.95;-;-;-;-;-;-;-;-;-
1531156399894;-;-;-1.2549903;-1.1112891;7.165899;-0.20920199;-0.89865875;0.28155124;19.35;58.500004;-50.4;-;-;-;-;-;-;-;-;-
1531156399905;-;-;-0.81909674;-0.89573735;7.4916215;-0.275781;-0.31169805;0.39233875;19.35;58.500004;-50.4;-;-;-;-;-;-;-;-;-
1531156399915;-;-;-0.12454102;-0.98195803;8.210127;-0.21612622;0.112809844;0.42909038;18.150002;57.9;-51.000004;-;-;-;-;-;-;-;-;-
1531156399925;-;-;0.3544629;-1.0825489;8.598121;-0.09362081;0.37539753;0.3800882;18.150002;57.9;-51.000004;-;-;-;-;-;-;-;-;-
1531156399935;-;-;0.39757326;-1.0633887;8.258028;0.0043835253;0.4824566;0.29806286;18.150002;58.95;-51.9;-;-;-;-;-;-;-;-;-
1531156399946;-;-;0.119750984;-0.8813672;7.5970025;-0.007867016;0.383387;0.18514483;18.150002;58.95;-51.9;-;-;-;-;-;-;-;-;-
1531156399955;-;-;-0.33530274;-0.6179151;7.065308;-0.11386083;0.24064156;0.1601111;17.85;58.95;-51.45;-;-;-;-;-;-;-;-;-
1531156399965;-;-;-0.9196875;0.009580079;6.2605815;-0.39082956;-0.051773515;0.23787542;17.85;58.95;-51.45;-;-;-;-;-;-;-;-;-
1531156399976;-;-;-0.6658155;0.4406836;6.0258694;-0.6550152;-0.26535904;0.363044;17.85;58.350002;-51.45;-;-;-;-;-;-;-;-;-
1531156399986;-;-;0.033530276;0.5364844;6.1408305;-0.84782803;-0.3601676;0.46957043;17.85;58.350002;-51.45;-;-;-;-;-;-;-;-;-
1531156399996;-;-;0.42152345;0.28261232;6.6198344;-0.9394408;-0.35856968;0.53668207;17.7;58.050003;-52.050003;-;-;-;-;-;-;-;-;-
1531156400006;-;-;1.3028907;0.19639161;7.673643;-0.8723291;-0.24618429;0.53614944;17.7;58.050003;-52.050003;-;-;-;-;-;-;-;-;-
1531156400017;-;-;1.9303858;0.32093263;8.655601;-0.6693962;-0.09651462;0.46477675;19.2;57.300003;-51.000004;-;-;-;-;-;-;-;-;-
1531156400026;-;-;2.2465284;0.09580079;9.019644;-0.40467802;-0.07680723;0.36464188;19.2;57.300003;-51.000004;-;-;-;-;-;-;-;-;-
1531156400037;-;-;2.3327491;-0.20118165;8.808882;-0.20334305;-0.15297365;0.20698275;17.85;59.7;-51.9;-;-;-;-;-;-;-;-;-
1531156400047;-;-;2.2848487;-0.14370118;8.420889;-0.10374082;-0.2413906;0.010441445;17.85;59.7;-51.9;-;-;-;-;-;-;-;-;-
1531156400056;-;-;1.9591261;0.033530276;8.262817;-0.07870301;-0.2909311;-0.1237933;17.7;60.15;-52.050003;-;-;-;-;-;-;-;-;-
1531156400066;-;-;0.8334668;0.7185059;8.224498;-0.0669851;-0.3090406;-0.23671134;17.7;60.15;-52.050003;-;-;-;-;-;-;-;-;-
1531156400077;-;-;0.47900394;1.0011182;8.382568;-0.056332458;-0.23820053;-0.25002712;16.95;59.100002;-50.4;-;-;-;-;-;-;-;-;-
1531156400087;-;-;0.3161426;1.0777588;8.684341;-0.021711364;-0.07841086;-0.22765659;16.95;59.100002;-50.4;-;-;-;-;-;-;-;-;-
1531156400097;-;-;0.09101075;1.2022998;9.388477;0.08055402;0.20335159;-0.19676392;16.35;59.100002;-50.4;-;-;-;-;-;-;-;-;-
1531156400107;-;-;0.100590825;1.2310401;9.78605;0.1860152;0.3807181;-0.17758915;16.35;59.100002;-50.4;-;-;-;-;-;-;-;-;-
1531156400118;-;-;-0.2921924;1.2885206;10.260264;0.32236907;0.5266593;-0.14403333;18.150002;59.7;-51.000004;-;-;-;-;-;-;-;-;-
1531156400128;-;-;-0.6514453;1.2597803;10.475816;0.36391437;0.55968255;-0.09929222;18.150002;59.7;-51.000004;-;-;-;-;-;-;-;-;-
1531156400138;-;-;-0.6706055;1.336421;10.887759;0.37350175;0.45528662;-0.0263216;17.550001;57.9;-49.800003;-;-;-;-;-;-;-;-;-
1531156400149;-;-;-0.3544629;1.3507911;11.1176815;0.35965332;0.31467173;-0.019397382;18.150002;60.750004;-49.800003;-;-;-;-;-;-;-;-;-
1531156400159;-;-;-0.25387207;1.2358302;11.668535;0.39640495;0.03876823;-0.051887948;18.150002;60.750004;-49.800003;-;-;-;-;-;-;-;-;-
1531156400169;-;-;-0.34488282;1.21188;11.836187;0.4635166;-0.10291194;-0.0758564;18.150002;60.750004;-49.800003;-;-;-;-;-;-;-;-;-
1531156400180;-;-;0.23471193;1.2166699;11.524835;0.6723084;-0.25790793;-0.15734912;18.0;58.500004;-51.15;-;-;-;-;-;-;-;-;-
1531156400189;-;-;0.42152345;1.22146;11.405084;0.7340937;-0.27814794;-0.2031555;18.300001;59.100002;-50.4;-;-;-;-;-;-;-;-;-
1531156400199;-;-;0.31135255;1.1400293;10.97398;0.8470118;-0.25098372;-0.33311775;18.300001;59.100002;-50.4;-;-;-;-;-;-;-;-;-
1531156400210;-;-;0.09101075;1.1591895;10.7871685;0.8704476;-0.19026363;-0.40555573;18.0;57.45;-51.600002;-;-;-;-;-;-;-;-;-
1531156400220;-;-;-0.45984375;1.5040723;10.715318;0.8054665;-0.021951841;-0.44923156;18.0;57.45;-51.600002;-;-;-;-;-;-;-;-;-
1531156400231;-;-;-0.613125;1.6573536;10.748848;0.7378222;0.047290344;-0.4119473;19.050001;56.4;-51.15;-;-;-;-;-;-;-;-;-
1531156400250;-;-;0.3305127;0.9963282;13.000167;0.62490416;0.18630736;-0.21593867;16.650002;56.4;-52.050003;-;-;-;-;-;-;-;-;-
1531156400240;-;-;-0.244292;1.3603711;12.008629;0.6004031;0.21933056;-0.25854924;19.050001;56.4;-51.15;-;-;-;-;-;-;-;-;-
1531156400260;-;-;1.2070899;0.42152345;13.234879;0.76445377;-0.10770563;-0.2857135;16.650002;56.4;-52.050003;-;-;-;-;-;-;-;-;-
1531156400271;-;-;1.710044;0.3879932;11.984678;0.8123907;-0.4150344;-0.37732622;17.25;55.65;-52.800003;-;-;-;-;-;-;-;-;-
1531156400280;-;-;1.695674;0.18681154;10.5764065;0.7037337;-0.6680348;-0.4694716;17.25;55.65;-52.800003;-;-;-;-;-;-;-;-;-
1531156400290;-;-;1.4418018;0.047900394;9.513018;0.5316935;-0.7852138;-0.5307243;18.0;55.350002;-52.500004;-;-;-;-;-;-;-;-;-
1531156400300;-;-;0.7568262;0.14370118;9.235196;0.20678785;-0.82942235;-0.59783596;18.0;55.350002;-52.500004;-;-;-;-;-;-;-;-;-
1531156400310;-;-;0.26345217;0.25866213;9.144185;0.0070507764;-0.67975265;-0.555758;16.35;54.750004;-53.250004;-;-;-;-;-;-;-;-;-
1531156400321;-;-;-0.29698244;0.67539555;9.560919;-0.12291149;-0.35324907;-0.41088206;16.35;54.750004;-53.250004;-;-;-;-;-;-;-;-;-
1531156400331;-;-;0.038320314;0.7568262;10.312955;-0.1825663;0.06007352;-0.2132755;16.35;55.050003;-53.250004;-;-;-;-;-;-;-;-;-
1531156400341;-;-;0.60833496;0.19639161;11.395503;-0.18203367;0.567672;-0.038039513;16.35;55.050003;-53.250004;-;-;-;-;-;-;-;-;-
1531156400352;-;-;1.0250684;-0.07664063;11.898458;-0.15167363;0.7391796;0.006168965;16.95;55.050003;-52.800003;-;-;-;-;-;-;-;-;-
1531156400362;-;-;1.4801221;-0.4406836;12.679234;-0.05952825;0.9937778;0.026941622;16.95;55.050003;-52.800003;-;-;-;-;-;-;-;-;-
1531156400372;-;-;1.5423926;-0.728086;12.937896;0.03847608;0.9437104;-0.07532377;15.3;55.350002;-54.000004;-;-;-;-;-;-;-;-;-
1531156400383;-;-;1.465752;-0.96758795;12.4684725;0.06510769;0.69017744;-0.22499342;15.3;55.350002;-54.000004;-;-;-;-;-;-;-;-;-
1531156400393;-;-;0.9053174;-0.728086;11.553575;6.5918965E-4;0.33331385;-0.3799894;15.750001;54.15;-53.100002;-;-;-;-;-;-;-;-;-
1531156400403;-;-;-0.14849122;-0.19639161;10.897339;-0.113324106;0.010006092;-0.4263284;15.750001;54.15;-53.100002;-;-;-;-;-;-;-;-;-
1531156400413;-;-;-0.7089258;0.45505372;10.341695;-0.20493686;-0.19292678;-0.3735978;18.150002;55.95;-52.2;-;-;-;-;-;-;-;-;-
1531156400424;-;-;-1.0490186;0.60354495;9.6615095;-0.23582953;-0.27814794;-0.26227766;18.150002;55.95;-52.2;-;-;-;-;-;-;-;-;-
1531156400433;-;-;-1.1735597;0.4406836;8.847202;-0.23476426;-0.20943838;-0.124858566;17.550001;54.9;-53.100002;-;-;-;-;-;-;-;-;-
1531156400443;-;-;-0.9532178;0.16765137;8.032896;-0.25180846;-0.0049076113;-0.03324582;17.550001;54.9;-53.100002;-;-;-;-;-;-;-;-;-
1531156400454;-;-;-0.244292;0.0;7.7694435;-0.34235597;0.32798752;0.02374583;16.95;56.100002;-53.250004;-;-;-;-;-;-;-;-;-
1531156400464;-;-;0.29698244;-0.09580079;8.54543;-0.3881623;0.49470142;-7.552537E-4;16.95;56.100002;-53.250004;-;-;-;-;-;-;-;-;-
1531156400475;-;-;0.49337405;0.05748047;9.235196;-0.36046547;0.48032036;-0.04709426;16.050001;56.250004;-53.850002;-;-;-;-;-;-;-;-;-
1531156400485;-;-;0.60354495;0.23950197;9.685459;-0.20973055;0.29816014;-0.15788177;16.050001;56.250004;-53.850002;-;-;-;-;-;-;-;-;-
1531156400495;-;-;0.5125342;0.23950197;9.589659;-0.06432194;0.05048614;-0.26014712;17.85;55.95;-53.4;-;-;-;-;-;-;-;-;-
1531156400505;-;-;0.28261232;0.22992188;8.990904;0.06723822;-0.2493858;-0.35495567;17.85;55.95;-53.4;-;-;-;-;-;-;-;-;-
1531156400516;-;-;-0.086220704;0.4263135;7.7598634;0.14766568;-0.47841766;-0.4130126;18.900002;56.250004;-51.000004;-;-;-;-;-;-;-;-;-
1531156400526;-;-;-0.26345217;0.6514453;6.600674;0.14233935;-0.55351883;-0.4263284;18.900002;56.250004;-51.000004;-;-;-;-;-;-;-;-;-
1531156400536;-;-;-0.28740236;0.92926764;5.757627;0.081619285;-0.47309133;-0.39756626;18.150002;57.300003;-52.65;-;-;-;-;-;-;-;-;-
1531156400546;-;-;-0.244292;1.0825489;5.604346;0.034747653;-0.37242386;-0.38318518;18.150002;57.300003;-52.65;-;-;-;-;-;-;-;-;-
1531156400556;-;-;-0.22992188;1.1256592;5.6761966;0.018768687;-0.33087853;-0.37146726;17.550001;55.95;-53.4;-;-;-;-;-;-;-;-;-
1531156400567;-;-;-0.18681154;1.336421;6.198311;-0.0110606365;-0.010231247;-0.33897138;17.550001;55.95;-53.4;-;-;-;-;-;-;-;-;-
1531156400577;-;-;-0.14370118;1.465752;6.7635355;1.2464036E-4;0.19429952;-0.32885137;16.5;55.95;-53.4;-;-;-;-;-;-;-;-;-
1531156400587;-;-;-0.2921924;1.695674;7.1419487;0.01450571;0.27046594;-0.32086188;16.050001;56.250004;-53.100002;-;-;-;-;-;-;-;-;-
1531156400598;-;-;-0.5508545;1.8058448;7.702383;0.05285523;0.3706008;-0.26067445;16.050001;56.250004;-53.100002;-;-;-;-;-;-;-;-;-
1531156400608;-;-;-0.6466553;1.9255958;8.152647;0.06989946;0.4217335;-0.1940954;14.85;56.100002;-51.600002;-;-;-;-;-;-;-;-;-
1531156400619;-;-;-0.7711963;2.0213966;8.847202;0.07256263;0.3966998;-0.036436256;14.85;56.100002;-51.600002;-;-;-;-;-;-;-;-;-
1531156400629;-;-;-0.5987549;1.8729054;8.971744;0.037941527;0.3460997;0.029610137;16.650002;55.350002;-53.250004;-;-;-;-;-;-;-;-;-
1531156400639;-;-;-0.39757326;1.7148341;9.455538;-0.03289856;0.2731291;0.12548393;16.650002;55.350002;-53.250004;-;-;-;-;-;-;-;-;-
1531156400649;-;-;-0.34488282;1.6525636;10.049502;-0.06751965;0.20921323;0.16756187;16.800001;55.95;-52.65;-;-;-;-;-;-;-;-;-
1531156400660;-;-;-0.2921924;1.6765138;11.108101;-0.049410157;0.13144892;0.21869457;16.800001;55.95;-52.65;-;-;-;-;-;-;-;-;-
1531156400670;-;-;-0.15328126;1.6717237;11.730806;0.023560459;0.10215415;0.26609883;17.85;56.550003;-51.45;-;-;-;-;-;-;-;-;-
1531156400680;-;-;0.27303225;1.5136524;12.070899;0.14020692;0.095762566;0.2900673;17.85;56.550003;-51.45;-;-;-;-;-;-;-;-;-
1531156400691;-;-;0.23471193;1.3268409;12.26729;0.19719857;0.08244676;0.31243783;18.0;56.7;-50.850002;-;-;-;-;-;-;-;-;-
1531156400701;-;-;0.57959473;1.1352394;12.003839;0.21317753;0.06433726;0.31243783;18.0;56.7;-50.850002;-;-;-;-;-;-;-;-;-
1531156400711;-;-;0.71371585;0.9580079;11.898458;0.1860133;0.028118273;0.28633887;18.150002;55.95;-51.9;-;-;-;-;-;-;-;-;-
1531156400721;-;-;0.6849756;0.7424561;12.147539;0.13967429;-0.026742846;0.20697667;18.150002;55.95;-51.9;-;-;-;-;-;-;-;-;-
1531156400732;-;-;0.7568262;0.46942386;12.502003;0.15352273;-0.02514495;0.113233395;19.050001;55.65;-52.800003;-;-;-;-;-;-;-;-;-
1531156400742;-;-;0.6514453;0.2682422;12.995377;0.20465542;-0.007035454;0.0120332735;19.050001;55.65;-52.800003;-;-;-;-;-;-;-;-;-
1531156400753;-;-;0.4742139;0.20118165;13.51749;0.31917134;0.00841088;-0.12005952;17.7;56.4;-53.250004;-;-;-;-;-;-;-;-;-
1531156400762;-;-;0.31135255;0.34488282;13.752203;0.46777573;-0.019285996;-0.25801128;17.7;56.4;-53.250004;-;-;-;-;-;-;-;-;-
1531156400772;-;-;0.11496094;0.78556645;13.225299;0.6296959;-0.08426713;-0.3677335;17.85;54.45;-52.2;-;-;-;-;-;-;-;-;-
1531156400783;-;-;-0.41194338;1.0106983;12.14275;0.7303634;-0.11782296;-0.39809355;17.85;54.45;-52.2;-;-;-;-;-;-;-;-;-
1531156400793;-;-;-1.4370118;0.9148975;11.448194;0.7314287;-0.07627764;-0.36507034;18.300001;54.750004;-52.050003;-;-;-;-;-;-;-;-;-
1531156400803;-;-;-2.4812403;0.86220706;10.605147;0.6307612;0.05847831;-0.23191229;18.300001;54.750004;-52.050003;-;-;-;-;-;-;-;-;-
1531156400813;-;-;-3.0129347;1.0154883;10.169253;0.44327465;0.31520703;-0.023653086;17.1;53.550003;-52.65;-;-;-;-;-;-;-;-;-
1531156400823;-;-;-3.0704153;1.101709;10.3512745;0.18121961;0.5005631;0.21922721;17.1;53.550003;-52.65;-;-;-;-;-;-;-;-;-
1531156400834;-;-;-2.8357031;0.7376661;11.127261;-0.060062803;0.52293366;0.44772643;16.800001;53.100002;-52.65;-;-;-;-;-;-;-;-;-
1531156400844;-;-;-2.3566992;0.22513184;11.874507;-0.25074515;0.367405;0.5936677;16.800001;53.100002;-52.65;-;-;-;-;-;-;-;-;-
1531156400855;-;-;-1.6142433;-0.364043;12.554693;-0.34076;0.08617518;0.6325498;17.1;53.850002;-53.100002;-;-;-;-;-;-;-;-;-
1531156400865;-;-;-1.2933106;-0.64186525;12.25771;-0.32957473;-0.25683996;0.5670361;17.1;53.850002;-53.100002;-;-;-;-;-;-;-;-;-
1531156400876;-;-;-1.2022998;-0.7759864;10.859019;-0.27258307;-0.6121056;0.4322801;18.6;52.500004;-53.850002;-;-;-;-;-;-;-;-;-
