TimeStamp[ms];Prox[Cm];Lux[lux];AccX[m/s^2];AccY[m/s^2];AccZ[m/s^2];GyroX[rad/s];GyroY[rad/s];GyroZ[rad/s];MagnX[uT];MagnY[uT];MagnZ[uT];OrienYaw[degrees];OrienPitch[degrees];OrienRoll[degrees];Press[Pa];Temp[C°];Batt[%];Lat;Lng;Speed[m/s]
1531156453748;-;-;-0.8286768;0.21555176;10.015972;0.04309304;-0.077321894;0.12585695;-5.25;26.250002;-40.2;-;-;-;-;-;-;-;-;-
1531156453749;-;-;-0.8286768;0.21555176;10.015972;0.04309304;-0.077321894;0.12585695;-5.25;26.250002;-40.2;-;-;-;-;-;-;-;-;-
1531156453765;-;-;-0.6227051;0.20118165;10.193204;0.017526694;-0.11833458;0.16420648;-6.6000004;26.85;-41.100002;-;-;-;-;-;-;-;-;-
1531156453766;-;-;-0.49337405;0.28740236;10.154883;0.017526694;-0.11833458;0.16420648;-6.6000004;26.85;-41.100002;-;-;-;-;-;-;-;-;-
1531156453777;-;-;-0.25866213;0.3544629;10.044712;0.012200371;-0.08744191;0.16367385;-6.6000004;26.85;-41.100002;-;-;-;-;-;-;-;-;-
1531156453787;-;-;-0.17723145;0.35925296;9.948912;0.0026129913;-0.04003764;0.12798749;-6.4500003;27.45;-40.5;-;-;-;-;-;-;-;-;-
1531156453797;-;-;-0.13891114;0.364043;9.982442;-0.018159665;-6.228561E-4;0.091235854;-6.4500003;27.45;-40.5;-;-;-;-;-;-;-;-;-
1531156453807;-;-;-0.16286133;0.45026368;10.130933;-0.025083885;0.004170834;0.07419162;-5.8500004;26.400002;-39.600002;-;-;-;-;-;-;-;-;-
1531156453817;-;-;-0.047900394;0.4742139;10.183623;-5.0169852E-5;0.03879193;0.04809265;-5.8500004;26.400002;-39.600002;-;-;-;-;-;-;-;-;-
1531156453828;-;-;-0.100590825;0.50774413;10.178833;0.0052761524;0.059031952;0.021993669;-7.3500004;27.6;-40.2;-;-;-;-;-;-;-;-;-
1531156453838;-;-;-0.25866213;0.3784131;10.480606;0.029244602;0.03879193;1.5574694E-4;-7.3500004;27.6;-40.2;-;-;-;-;-;-;-;-;-
1531156453848;-;-;-0.2778223;0.33530274;10.5764065;0.0638657;0.043052986;0.018265242;-5.4;27.750002;-40.95;-;-;-;-;-;-;-;-;-
1531156453858;-;-;-0.32572266;0.35925296;10.274634;0.14908686;0.053705633;-0.0025074142;-5.4;27.750002;-40.95;-;-;-;-;-;-;-;-;-
1531156453869;-;-;-0.42152345;0.4167334;9.75252;0.14695634;0.059031952;-0.004105311;-6.7500005;28.800001;-40.050003;-;-;-;-;-;-;-;-;-
1531156453879;-;-;-0.4023633;0.38320315;9.388477;0.06972465;0.08885936;0.025722094;-6.7500005;28.800001;-40.050003;-;-;-;-;-;-;-;-;-
1531156453889;-;-;-0.19639161;0.46942386;9.364527;0.0052761524;0.116556235;0.025722094;-7.5000005;25.95;-41.7;-;-;-;-;-;-;-;-;-
1531156453899;-;-;-0.14849122;0.43110353;9.508228;-0.042128116;0.1160236;0.0022862758;-7.5000005;25.95;-41.7;-;-;-;-;-;-;-;-;-
1531156453909;-;-;-0.3065625;0.34488282;9.584868;-0.0634334;0.069684595;-0.033932716;-6.6000004;26.550001;-40.65;-;-;-;-;-;-;-;-;-
1531156453920;-;-;-0.31135255;0.23950197;9.75731;-0.079945005;0.032400344;-0.045650624;-6.6000004;26.550001;-40.65;-;-;-;-;-;-;-;-;-
1531156453929;-;-;-0.30177248;0.24908204;9.843531;-0.099652395;0.021215066;-0.053640105;-5.55;25.800001;-41.100002;-;-;-;-;-;-;-;-;-
1531156453939;-;-;-0.34967285;0.24908204;9.992022;-0.1129682;0.013758214;-0.06802118;-5.55;25.800001;-41.100002;-;-;-;-;-;-;-;-;-
1531156453949;-;-;-0.36883304;0.27303225;10.207574;-0.09539134;0.0073666275;-0.07015171;-6.0;26.550001;-41.100002;-;-;-;-;-;-;-;-;-
1531156453960;-;-;-0.31135255;0.1580713;10.475816;-0.04053022;0.005768731;-0.07228224;-6.0;26.550001;-41.100002;-;-;-;-;-;-;-;-;-
1531156453970;-;-;-0.34488282;0.15328126;10.380015;0.015396165;0.032400344;-0.098381214;-5.55;27.900002;-39.9;-;-;-;-;-;-;-;-;-
1531156453981;-;-;-0.60354495;0.1341211;10.116563;0.070257284;0.047846675;-0.10210964;-5.55;27.900002;-39.9;-;-;-;-;-;-;-;-;-
1531156453991;-;-;-0.76161623;0.12454102;9.7621;0.06706149;0.056901425;-0.07281487;-4.65;26.85;-40.2;-;-;-;-;-;-;-;-;-
1531156454001;-;-;-0.6945557;0.119750984;9.493857;0.03616882;0.059031952;-0.040856935;-4.65;26.85;-40.2;-;-;-;-;-;-;-;-;-
1531156454011;-;-;-0.6849756;0.20597169;9.426797;-0.002713331;0.016421376;-0.014225323;-6.7500005;26.400002;-41.7;-;-;-;-;-;-;-;-;-
1531156454022;-;-;-0.64186525;0.21555176;9.623189;-0.032008104;-0.022460777;-0.014225323;-6.7500005;26.400002;-41.7;-;-;-;-;-;-;-;-;-
1531156454032;-;-;-0.6562354;0.1820215;9.7621;-0.03147547;-0.0890398;-0.0030400464;-6.15;28.050001;-40.5;-;-;-;-;-;-;-;-;-
1531156454042;-;-;-0.488584;0.15328126;9.948912;-0.019757561;-0.11194299;-0.016888484;-6.15;28.050001;-40.5;-;-;-;-;-;-;-;-;-
1531156454051;-;-;-0.4406836;0.09580079;9.848321;-0.008572286;-0.11673668;-0.022214806;-7.05;26.85;-41.850002;-;-;-;-;-;-;-;-;-
1531156454061;-;-;-0.34009278;0.11496094;9.891431;-0.017094402;-0.103420876;-0.02061691;-7.05;26.85;-41.850002;-;-;-;-;-;-;-;-;-
1531156454071;-;-;-0.37362307;0.12454102;9.901011;-0.013365976;-0.06613662;-0.033932716;-6.15;26.7;-41.7;-;-;-;-;-;-;-;-;-
1531156454081;-;-;-0.5460645;0.119750984;9.905801;-0.016029136;-0.037907112;-0.030736921;-6.15;26.7;-41.7;-;-;-;-;-;-;-;-;-
1531156454091;-;-;-0.6322852;0.18681154;9.958491;-0.012833344;-0.029917628;-0.019019013;-6.7500005;26.7;-40.95;-;-;-;-;-;-;-;-;-
1531156454102;-;-;-0.6179151;0.16286133;9.85311;-0.028279677;-0.028319731;-0.0014421497;-6.7500005;26.7;-40.95;-;-;-;-;-;-;-;-;-
1531156454112;-;-;-0.56522465;0.16765137;9.901011;-0.032540735;-0.021395512;0.008677863;-6.15;27.45;-41.7;-;-;-;-;-;-;-;-;-
1531156454122;-;-;-0.46463382;0.07664063;9.891431;-0.052248128;-0.028852364;0.015602082;-6.15;27.45;-41.7;-;-;-;-;-;-;-;-;-
1531156454132;-;-;-0.41194338;0.13891114;9.733359;-0.055976555;-0.028319731;0.02731999;-6.15;24.6;-40.5;-;-;-;-;-;-;-;-;-
1531156454143;-;-;-0.4263135;0.23950197;9.685459;-0.07035762;-0.040570274;0.017199978;-6.15;24.6;-40.5;-;-;-;-;-;-;-;-;-
1531156454153;-;-;-0.44547364;0.19160157;9.953702;-0.08367343;-0.045363963;-0.004105311;-4.9500003;26.550001;-40.65;-;-;-;-;-;-;-;-;-
1531156454163;-;-;-0.4167334;0.16286133;10.011182;-0.06929236;-0.054951344;-0.0035726787;-4.9500003;26.550001;-40.65;-;-;-;-;-;-;-;-;-
1531156454173;-;-;-0.45026368;0.14849122;9.996812;-0.06395581;-0.07627096;-0.00999282;-6.6000004;27.150002;-41.850002;-;-;-;-;-;-;-;-;-
1531156454184;-;-;-0.50774413;0.23950197;10.025552;-0.04424842;-0.104500465;0.0065187784;-6.6000004;27.150002;-41.850002;-;-;-;-;-;-;-;-;-
1531156454194;-;-;-0.43110353;0.17723145;10.130933;-0.0373242;-0.14498052;1.2719189E-4;-6.3;26.250002;-40.65;-;-;-;-;-;-;-;-;-
1531156454204;-;-;-0.34967285;0.24908204;10.174044;-0.02027997;-0.14977421;-4.0544034E-4;-6.6000004;25.800001;-41.100002;-;-;-;-;-;-;-;-;-
1531156454215;-;-;-0.45505372;0.16286133;10.154883;-0.012290487;-0.11621837;-0.004666498;-6.6000004;25.800001;-41.100002;-;-;-;-;-;-;-;-;-
1531156454225;-;-;-0.5460645;0.23471193;10.442286;-0.010159958;-0.12633839;0.0022577208;-7.05;27.900002;-39.0;-;-;-;-;-;-;-;-;-
1531156454235;-;-;-0.5556446;0.12933107;10.523716;0.036179047;-0.12420786;0.03794408;-7.05;27.900002;-39.0;-;-;-;-;-;-;-;-;-
1531156454245;-;-;-0.5939649;0.25387207;10.514136;0.05588644;-0.11675101;0.031552494;-6.4500003;27.000002;-40.95;-;-;-;-;-;-;-;-;-
1531156454256;-;-;-0.5939649;0.2203418;10.365645;0.09636649;-0.09331519;0.056586206;-6.4500003;27.000002;-40.95;-;-;-;-;-;-;-;-;-
1531156454266;-;-;-0.4742139;0.21555176;10.245894;0.09849701;-0.07733622;0.05711884;-6.7500005;27.000002;-41.7;-;-;-;-;-;-;-;-;-
1531156454276;-;-;-0.22992188;0.2921924;9.963282;0.0867791;-0.034193013;0.065640956;-6.7500005;27.000002;-41.7;-;-;-;-;-;-;-;-;-
1531156454286;-;-;-0.2203418;0.23471193;9.934542;0.059614867;-0.0075614015;0.051792517;-6.6000004;25.800001;-39.0;-;-;-;-;-;-;-;-;-
1531156454296;-;-;-0.16765137;0.3879932;10.102193;0.04842959;0.029722854;0.034748286;-6.6000004;25.800001;-39.0;-;-;-;-;-;-;-;-;-
1531156454307;-;-;-0.30177248;0.33530274;9.996812;0.040972736;0.044103924;0.032085124;-6.6000004;26.85;-40.2;-;-;-;-;-;-;-;-;-
1531156454317;-;-;-0.3161426;0.31135255;9.929751;0.037244312;0.051560774;0.03847671;-6.6000004;26.85;-40.2;-;-;-;-;-;-;-;-;-
1531156454327;-;-;-0.3161426;0.3065625;9.896221;0.019134814;0.04516919;0.04007461;-7.2000003;26.400002;-40.050003;-;-;-;-;-;-;-;-;-
1531156454337;-;-;-0.3161426;0.44547364;9.6758795;-3.9945473E-5;0.03931023;0.032085124;-7.2000003;26.400002;-40.050003;-;-;-;-;-;-;-;-;-
1531156454348;-;-;-0.12933107;0.4406836;9.848321;-0.018149441;0.035049178;0.03315039;-6.3;26.250002;-41.100002;-;-;-;-;-;-;-;-;-
1531156454358;-;-;-0.20597169;0.364043;10.0063925;-0.01761681;0.05741973;0.005453514;-6.3;26.250002;-41.100002;-;-;-;-;-;-;-;-;-
1531156454368;-;-;-0.24908204;0.32093263;10.150093;-3.9945473E-5;0.048897613;0.008116675;-6.7500005;27.000002;-40.95;-;-;-;-;-;-;-;-;-
1531156454379;-;-;-0.2682422;0.27303225;10.116563;0.01806955;0.056354463;0.013975629;-6.7500005;27.000002;-40.95;-;-;-;-;-;-;-;-;-
1531156454389;-;-;-0.35925296;0.32093263;9.953702;0.029254826;0.047299717;0.0102472035;-5.55;26.250002;-39.0;-;-;-;-;-;-;-;-;-
1531156454399;-;-;-0.3305127;0.3065625;9.83874;0.028722195;0.017472312;0.017171424;-5.55;26.250002;-39.0;-;-;-;-;-;-;-;-;-
1531156454409;-;-;-0.28740236;0.25866213;9.800421;0.02020008;-1.0455027E-4;0.015573527;-7.05;25.500002;-41.100002;-;-;-;-;-;-;-;-;-
1531156454420;-;-;-0.26345217;0.28261232;9.877061;0.0036884802;0.015341784;0.021965114;-7.05;25.500002;-41.100002;-;-;-;-;-;-;-;-;-
1531156454430;-;-;-0.244292;0.25387207;9.8866415;-0.008562062;0.03185338;0.008116675;-6.4500003;27.750002;-42.45;-;-;-;-;-;-;-;-;-
1531156454440;-;-;-0.27303225;0.23471193;9.992022;-0.021345235;0.03824497;0.007584043;-6.4500003;27.750002;-42.45;-;-;-;-;-;-;-;-;-
1531156454450;-;-;-0.20118165;0.18681154;9.8866415;-0.023475764;0.059017625;0.010779836;-6.4500003;27.000002;-40.95;-;-;-;-;-;-;-;-;-
1531156454461;-;-;-0.21555176;0.19639161;9.843531;-0.03466104;0.07499659;-0.0057317624;-6.4500003;27.000002;-40.95;-;-;-;-;-;-;-;-;-
1531156454470;-;-;-0.27303225;0.1820215;9.929751;-0.045313682;0.07499659;-0.016917039;-7.05;26.550001;-41.100002;-;-;-;-;-;-;-;-;-
1531156454480;-;-;-0.34967285;0.23950197;9.901011;-0.054368433;0.07712712;-0.014786511;-7.05;26.550001;-41.100002;-;-;-;-;-;-;-;-;-
1531156454490;-;-;-0.4263135;0.17244141;9.948912;-0.045846317;0.056354463;-0.012123349;-5.1000004;27.000002;-39.300003;-;-;-;-;-;-;-;-;-
1531156454501;-;-;-0.5460645;0.16286133;10.011182;-0.04158526;0.018537577;1.2719189E-4;-5.1000004;27.000002;-39.300003;-;-;-;-;-;-;-;-;-
1531156454510;-;-;-0.38320315;0.18681154;10.063872;-0.0154862795;4.2808196E-4;0.0017250886;-6.3;26.250002;-40.2;-;-;-;-;-;-;-;-;-
1531156454520;-;-;-0.39757326;0.15328126;10.068663;-3.9945473E-5;-0.008094033;0.008649307;-6.3;26.250002;-40.2;-;-;-;-;-;-;-;-;-
1531156454530;-;-;-0.4167334;0.20597169;10.063872;0.014873756;-0.017148782;0.016638791;-6.4500003;27.45;-41.25;-;-;-;-;-;-;-;-;-
1531156454540;-;-;-0.45505372;0.19639161;9.944121;0.022330608;-0.033660382;0.03048723;-6.4500003;27.45;-41.25;-;-;-;-;-;-;-;-;-
1531156454551;-;-;-0.34009278;0.244292;9.934542;0.02073271;-0.032062486;0.032617755;-6.15;27.750002;-41.25;-;-;-;-;-;-;-;-;-
1531156454560;-;-;-0.25866213;0.2682422;9.814791;0.0100800665;-0.019811943;0.018236687;-6.15;27.750002;-41.25;-;-;-;-;-;-;-;-;-
1531156454570;-;-;-0.1820215;0.23471193;9.833951;-0.006431532;-0.0011698147;0.026758803;-7.2000003;25.650002;-40.5;-;-;-;-;-;-;-;-;-
1531156454580;-;-;-0.20118165;0.244292;9.881851;-0.030932615;0.029722854;-4.0544034E-4;-7.2000003;25.650002;-40.5;-;-;-;-;-;-;-;-;-
1531156454590;-;-;-0.20118165;0.39278322;9.843531;-0.051172636;0.03611444;-0.004666498;-6.3;26.550001;-40.65;-;-;-;-;-;-;-;-;-
1531156454601;-;-;-0.32093263;0.27303225;9.80521;-0.05649896;0.020668108;-0.013721246;-6.3;26.550001;-40.65;-;-;-;-;-;-;-;-;-
1531156454610;-;-;-0.31135255;0.28261232;9.833951;-0.059694752;-0.010757195;-0.019047568;-5.25;26.85;-39.9;-;-;-;-;-;-;-;-;-
1531156454620;-;-;-0.34488282;0.31135255;9.972861;-0.05170527;-0.040051967;-0.010525453;-5.25;26.85;-39.9;-;-;-;-;-;-;-;-;-
1531156454630;-;-;-0.24908204;0.35925296;9.996812;-0.04211789;-0.06828148;-0.004666498;-6.0;26.250002;-41.100002;-;-;-;-;-;-;-;-;-
1531156454640;-;-;-0.23471193;0.32572266;9.910591;-0.031997878;-0.08159728;-0.012123349;-6.0;26.250002;-41.100002;-;-;-;-;-;-;-;-;-
1531156454651;-;-;-0.22992188;0.3544629;10.092612;-0.031997878;-0.093847826;-0.015319143;-6.0;26.85;-39.45;-;-;-;-;-;-;-;-;-
1531156454661;-;-;-0.27303225;0.3784131;10.059082;-0.021877868;-0.082662545;-0.020112833;-6.0;26.85;-39.45;-;-;-;-;-;-;-;-;-
1531156454671;-;-;-0.19160157;0.28740236;10.015972;-0.024008395;-0.087456234;-0.022775993;-7.05;27.150002;-42.300003;-;-;-;-;-;-;-;-;-
1531156454681;-;-;-0.21555176;0.27303225;10.087823;-0.028265107;-0.07041809;-0.033973403;-7.05;27.150002;-42.300003;-;-;-;-;-;-;-;-;-
1531156454691;-;-;-0.1580713;0.24908204;10.169253;-0.021873523;-0.052841228;-0.034506038;-5.55;26.550001;-42.300003;-;-;-;-;-;-;-;-;-
1531156454702;-;-;-0.15328126;0.29698244;10.145303;-0.022938786;-0.011828548;-0.04249552;-5.55;26.550001;-42.300003;-;-;-;-;-;-;-;-;-
1531156454711;-;-;-0.14849122;0.25387207;10.087823;-0.013351406;0.017466225;-0.04409342;-6.3;26.85;-39.45;-;-;-;-;-;-;-;-;-
1531156454721;-;-;-0.22513184;0.25866213;10.035132;-0.010155613;0.055283114;-0.060605016;-6.3;26.85;-39.45;-;-;-;-;-;-;-;-;-
1531156454731;-;-;-0.2682422;0.31135255;9.81;-0.019742992;0.07179471;-0.051017635;-5.55;26.85;-40.2;-;-;-;-;-;-;-;-;-
1531156454742;-;-;-0.25866213;0.3161426;9.81;-0.043711443;0.05421785;-0.046223946;-5.55;26.85;-40.2;-;-;-;-;-;-;-;-;-
1531156454752;-;-;-0.086220704;0.31135255;9.78605;-0.04530934;0.033977825;-0.046223946;-5.8500004;27.000002;-40.5;-;-;-;-;-;-;-;-;-
1531156454762;-;-;-0.09580079;0.2921924;9.843531;-0.042113546;0.002552522;-0.04728921;-5.8500004;27.000002;-40.5;-;-;-;-;-;-;-;-;-
1531156454773;-;-;-0.038320314;0.3305127;9.857901;-0.059157778;-0.0075674905;-0.0701924;-7.2000003;25.35;-40.5;-;-;-;-;-;-;-;-;-
1531156454783;-;-;0.043110352;0.32572266;9.910591;-0.07087568;9.5462543E-4;-0.08084504;-7.9500003;27.6;-41.100002;-;-;-;-;-;-;-;-;-
1531156454793;-;-;-0.09580079;0.27303225;10.030342;-0.09058308;0.052087322;-0.11333561;-7.9500003;27.6;-41.100002;-;-;-;-;-;-;-;-;-
1531156454803;-;-;-0.11496094;0.27303225;10.130933;-0.10389888;0.068066284;-0.11227034;-6.6000004;25.800001;-41.100002;-;-;-;-;-;-;-;-;-
1531156454813;-;-;-0.32093263;0.27303225;10.298584;-0.07673464;0.11440529;-0.1016177;-6.6000004;25.800001;-41.100002;-;-;-;-;-;-;-;-;-
1531156454824;-;-;-0.41194338;0.28740236;10.312955;-0.05969041;0.11280739;-0.0851061;-6.7500005;27.000002;-40.5;-;-;-;-;-;-;-;-;-
1531156454834;-;-;-0.37362307;0.31135255;10.2315235;-0.034656696;0.08191472;-0.05421343;-6.7500005;27.000002;-40.5;-;-;-;-;-;-;-;-;-
1531156454844;-;-;-0.35925296;0.36883304;10.097403;-0.013351406;0.053685218;-0.031842876;-5.4;26.7;-39.600002;-;-;-;-;-;-;-;-;-
1531156454854;-;-;-0.11496094;0.35925296;9.910591;-0.004296658;0.038238883;-0.016396543;-5.4;26.7;-39.600002;-;-;-;-;-;-;-;-;-
1531156454865;-;-;-0.019160157;0.34967285;9.848321;-0.017079832;0.037173618;-0.019059705;-7.65;25.800001;-41.850002;-;-;-;-;-;-;-;-;-
1531156454875;-;-;-0.019160157;0.34488282;9.829161;-0.0314609;0.03770625;-0.03237551;-7.65;25.800001;-41.850002;-;-;-;-;-;-;-;-;-
1531156454885;-;-;-0.12454102;0.2682422;9.843531;-0.04051565;0.045163102;-0.034506038;-6.4500003;25.95;-40.050003;-;-;-;-;-;-;-;-;-
1531156454895;-;-;-0.22513184;0.3544629;9.968072;-0.046374604;0.046228364;-0.04409342;-6.4500003;25.95;-40.050003;-;-;-;-;-;-;-;-;-
1531156454906;-;-;-0.3161426;0.3065625;9.848321;-0.042113546;0.048891526;-0.031310245;-5.25;26.85;-41.100002;-;-;-;-;-;-;-;-;-
1531156454916;-;-;-0.45984375;0.3879932;9.891431;-0.046907235;0.058478907;-0.01586391;-5.25;26.85;-41.100002;-;-;-;-;-;-;-;-;-
1531156454926;-;-;-0.45505372;0.32572266;9.948912;-0.053831454;0.05475048;-9.502084E-4;-7.2000003;26.7;-42.45;-;-;-;-;-;-;-;-;-
1531156454936;-;-;-0.4981641;0.35925296;9.73815;-0.05223356;0.06273996;0.01822455;-7.2000003;26.7;-42.45;-;-;-;-;-;-;-;-;-
1531156454947;-;-;-0.45505372;0.3879932;9.685459;-0.05755988;0.07605577;0.035268784;-6.6000004;25.800001;-40.2;-;-;-;-;-;-;-;-;-
1531156454957;-;-;-0.42152345;0.47900394;9.460327;-0.08206096;0.08351262;0.029942458;-6.6000004;25.800001;-40.2;-;-;-;-;-;-;-;-;-
1531156454967;-;-;-0.4263135;0.488584;9.651929;-0.10815994;0.060076803;0.035801418;-5.1000004;27.45;-42.45;-;-;-;-;-;-;-;-;-
1531156454978;-;-;-0.56522465;0.51732427;9.80521;-0.1438463;0.043565206;0.017159287;-5.1000004;27.45;-42.45;-;-;-;-;-;-;-;-;-
1531156454988;-;-;-0.5748047;0.43110353;10.159674;-0.15130316;0.030249398;0.016094023;-6.0;26.85;-41.550003;-;-;-;-;-;-;-;-;-
1531156454998;-;-;-0.60354495;0.38320315;10.499766;-0.1353242;0.007346212;0.0437909;-6.0;26.85;-41.550003;-;-;-;-;-;-;-;-;-
1531156455008;-;-;-0.57001466;0.29698244;10.662627;-0.091115706;0.012139902;0.054976176;-5.55;27.150002;-40.2;-;-;-;-;-;-;-;-;-
1531156455018;-;-;-0.64186525;0.2921924;10.820699;-0.049570397;0.027053606;0.07894462;-5.55;27.150002;-40.2;-;-;-;-;-;-;-;-;-
1531156455029;-;-;-0.6227051;0.25866213;10.744058;-3.5600155E-5;0.062207334;0.111967824;-5.25;27.150002;-41.850002;-;-;-;-;-;-;-;-;-
1531156455039;-;-;-0.6179151;0.21555176;10.403965;0.031922333;0.09682842;0.14019734;-5.25;27.150002;-41.850002;-;-;-;-;-;-;-;-;-
1531156455049;-;-;-0.56522465;0.33530274;10.250684;0.051629726;0.11280739;0.16043736;-6.0;27.150002;-41.550003;-;-;-;-;-;-;-;-;-
1531156455059;-;-;-0.5460645;0.3065625;9.982442;0.05482552;0.10641581;0.16789421;-6.0;27.150002;-41.550003;-;-;-;-;-;-;-;-;-
1531156455070;-;-;-0.5604346;0.364043;9.718989;0.03831392;0.10002422;0.16363315;-6.6000004;27.900002;-41.550003;-;-;-;-;-;-;-;-;-
1531156455080;-;-;-0.488584;0.40715334;9.74773;0.0026275609;0.11174213;0.16842684;-6.6000004;27.900002;-41.550003;-;-;-;-;-;-;-;-;-
1531156455090;-;-;-0.5125342;0.3161426;9.862691;-0.0011008646;0.12346004;0.1742858;-5.8500004;27.45;-42.15;-;-;-;-;-;-;-;-;-
1531156455100;-;-;-0.57959473;0.39278322;9.948912;0.011682309;0.14476532;0.1726879;-5.8500004;27.45;-42.15;-;-;-;-;-;-;-;-;-
1531156455111;-;-;-0.8334668;0.43589357;9.972861;0.044172876;0.13038425;0.19239528;-4.9500003;25.800001;-41.550003;-;-;-;-;-;-;-;-;-
1531156455121;-;-;-0.90052736;0.4023633;9.80521;0.099034;0.11227476;0.22115743;-4.9500003;25.800001;-41.550003;-;-;-;-;-;-;-;-;-
1531156455131;-;-;-0.9915381;0.37362307;9.551338;0.1570909;0.06114207;0.2701596;-5.25;26.550001;-42.300003;-;-;-;-;-;-;-;-;-
1531156455141;-;-;-0.977168;0.488584;9.307046;0.16188459;0.0041504186;0.30105227;-5.25;26.550001;-42.300003;-;-;-;-;-;-;-;-;-
1531156455151;-;-;-0.71371585;0.5748047;9.034014;0.16667828;-0.09385391;0.33194494;-4.65;27.6;-42.300003;-;-;-;-;-;-;-;-;-
1531156455162;-;-;-0.4742139;0.64186525;9.0148535;0.15336248;-0.15031293;0.3298144;-5.4;27.750002;-40.95;-;-;-;-;-;-;-;-;-
1531156455172;-;-;-0.4406836;0.71371585;8.804092;0.09530557;-0.21156564;0.2935954;-5.4;27.750002;-40.95;-;-;-;-;-;-;-;-;-
1531156455182;-;-;-0.34488282;0.8382569;8.875943;0.042581115;-0.2227595;0.25895718;-5.55;26.250002;-41.850002;-;-;-;-;-;-;-;-;-
1531156455193;-;-;-0.488584;0.8047266;9.110655;-0.02985687;-0.2227595;0.22273819;-5.55;26.250002;-41.850002;-;-;-;-;-;-;-;-;-
1531156455202;-;-;-0.60354495;0.8143067;9.153765;-0.07193482;-0.22222687;0.2163466;-5.25;27.900002;-40.2;-;-;-;-;-;-;-;-;-
1531156455212;-;-;-0.56522465;0.85741705;9.263936;-0.12253488;-0.19666052;0.21368344;-5.25;27.900002;-40.2;-;-;-;-;-;-;-;-;-
1531156455222;-;-;-0.4742139;0.8861573;9.393267;-0.12839383;-0.19186683;0.21900977;-6.0;28.2;-41.550003;-;-;-;-;-;-;-;-;-
1531156455232;-;-;-0.40715334;0.9915381;9.441168;-0.13265489;-0.21477002;0.21261819;-6.0;28.2;-41.550003;-;-;-;-;-;-;-;-;-
1531156455242;-;-;-0.36883304;1.0394385;9.335787;-0.12040435;-0.24513005;0.22220556;-5.4;25.650002;-40.95;-;-;-;-;-;-;-;-;-
1531156455253;-;-;0.28740236;1.2070899;9.656719;-0.094838;-0.33780807;0.19344342;-5.4;25.650002;-40.95;-;-;-;-;-;-;-;-;-
1531156455263;-;-;0.68976563;1.3124708;9.79563;-0.06873902;-0.3681681;0.13698441;-7.05;28.2;-39.0;-;-;-;-;-;-;-;-;-
1531156455273;-;-;0.8382569;1.4130616;10.087823;-0.028791605;-0.35751545;-0.0030978704;-7.05;28.2;-39.0;-;-;-;-;-;-;-;-;-
1531156455283;-;-;0.78556645;1.2741505;9.953702;-0.016008431;-0.32875332;-0.07606849;-7.8;29.1;-42.45;-;-;-;-;-;-;-;-;-
1531156455293;-;-;0.41194338;1.1687696;9.704619;-0.079391666;-0.21583529;-0.17939913;-7.8;29.1;-42.45;-;-;-;-;-;-;-;-;-
1531156455303;-;-;0.22992188;1.1208692;9.72857;-0.13052437;-0.12582044;-0.20975918;-7.05;27.150002;-41.850002;-;-;-;-;-;-;-;-;-
1531156455314;-;-;-0.05269043;0.97237796;9.877061;-0.22906132;0.0014786618;-0.24917397;-7.05;27.150002;-41.850002;-;-;-;-;-;-;-;-;-
1531156455324;-;-;-0.23950197;0.89573735;10.212363;-0.26421505;0.029708171;-0.24544553;-7.8;26.7;-40.5;-;-;-;-;-;-;-;-;-
1531156455334;-;-;-0.30177248;0.8382569;10.566827;-0.2748677;0.071253486;-0.24917397;-7.8;26.7;-40.5;-;-;-;-;-;-;-;-;-
1531156455344;-;-;-0.32572266;0.78556645;10.729688;-0.26261717;0.055274516;-0.25023922;-6.7500005;27.000002;-41.7;-;-;-;-;-;-;-;-;-
1531156455354;-;-;-0.32093263;0.6706055;10.98356;-0.23278975;4.1339733E-4;-0.25343502;-6.7500005;27.000002;-41.7;-;-;-;-;-;-;-;-;-
1531156455365;-;-;-0.42152345;0.5939649;11.074571;-0.20775603;-0.03953402;-0.25130448;-6.6000004;28.2;-40.65;-;-;-;-;-;-;-;-;-
1531156455375;-;-;-0.43110353;0.5556446;11.208692;-0.13744858;-0.05604562;-0.23798868;-6.6000004;28.2;-40.65;-;-;-;-;-;-;-;-;-
1531156455385;-;-;-0.62749517;0.488584;11.247012;-0.10069696;-0.044860344;-0.21402024;-6.6000004;28.2;-41.850002;-;-;-;-;-;-;-;-;-
1531156455395;-;-;-0.732876;0.44547364;11.1176815;-0.03997688;-0.019293996;-0.1836602;-6.6000004;28.2;-41.850002;-;-;-;-;-;-;-;-;-
1531156455405;-;-;-0.79993653;0.4263135;11.074571;0.004231592;0.006272352;-0.15596332;-7.2000003;28.800001;-42.9;-;-;-;-;-;-;-;-;-
1531156455416;-;-;-0.5891748;0.45984375;10.763218;0.03938532;0.05367662;-0.111222215;-7.2000003;28.800001;-42.9;-;-;-;-;-;-;-;-;-
1531156455426;-;-;-0.1820215;0.5364844;10.705738;0.05110323;0.08723245;-0.10749379;-6.3;28.650002;-40.65;-;-;-;-;-;-;-;-;-
1531156455436;-;-;0.3784131;0.67539555;10.868599;0.100638025;0.10747247;-0.15330017;-6.3;28.650002;-40.65;-;-;-;-;-;-;-;-;-
1531156455446;-;-;0.7089258;0.81909674;11.02188;0.16774969;0.13250619;-0.22307499;-5.8500004;27.750002;-39.300003;-;-;-;-;-;-;-;-;-
1531156455456;-;-;0.6227051;0.8430469;11.060201;0.24764453;0.12877777;-0.3109593;-5.8500004;27.750002;-39.300003;-;-;-;-;-;-;-;-;-
1531156455467;-;-;0.019160157;0.87178713;10.729688;0.31954986;0.10321142;-0.38765833;-6.15;28.35;-41.25;-;-;-;-;-;-;-;-;-
1531156455476;-;-;-0.728086;0.89573735;10.4566555;0.3600299;0.019055525;-0.4068331;-6.15;28.35;-41.25;-;-;-;-;-;-;-;-;-
1531156455486;-;-;-1.1975098;0.85741705;10.154883;0.38240045;-0.06456774;-0.3690162;-6.4500003;28.35;-42.15;-;-;-;-;-;-;-;-;-
1531156455496;-;-;-1.4322218;0.86220706;9.83874;0.36216044;-0.113037266;-0.29018664;-6.4500003;28.35;-42.15;-;-;-;-;-;-;-;-;-
1531156455506;-;-;-1.4322218;0.9196875;9.685459;0.31422353;-0.13594045;-0.20283496;-7.05;27.6;-42.300003;-;-;-;-;-;-;-;-;-
1531156455517;-;-;-1.1543995;1.1735597;9.651929;0.25510135;-0.14446256;-0.12666854;-7.05;27.6;-42.300003;-;-;-;-;-;-;-;-;-
1531156455527;-;-;-0.76161623;1.331631;9.829161;0.20876236;-0.15138678;-0.05795899;-6.4500003;26.7;-41.7;-;-;-;-;-;-;-;-;-
1531156455537;-;-;-0.5508545;1.4465919;9.891431;0.20609921;-0.16150679;-0.045175813;-6.4500003;26.7;-41.7;-;-;-;-;-;-;-;-;-
1531156455548;-;-;-0.3544629;1.4130616;9.848321;0.21888238;-0.19239946;-0.054763198;-6.15;27.000002;-42.15;-;-;-;-;-;-;-;-;-
1531156455557;-;-;-0.18681154;1.5519727;9.718989;0.20290342;-0.2392711;-0.06701374;-6.15;27.000002;-42.15;-;-;-;-;-;-;-;-;-
1531156455567;-;-;0.009580079;1.4897022;9.704619;0.1911855;-0.23554267;-0.09790641;-5.8500004;27.750002;-40.050003;-;-;-;-;-;-;-;-;-
1531156455578;-;-;0.086220704;1.5184424;9.867481;0.12194332;-0.2014542;-0.1703444;-5.8500004;27.750002;-40.050003;-;-;-;-;-;-;-;-;-
1531156455587;-;-;-0.1341211;1.4944923;10.322535;0.09211591;-0.15618047;-0.21881393;-7.2000003;27.45;-42.9;-;-;-;-;-;-;-;-;-
1531156455597;-;-;-0.34488282;1.2933106;10.504556;0.095844336;-0.12635307;-0.23106447;-7.2000003;27.45;-42.9;-;-;-;-;-;-;-;-;-
1531156455607;-;-;-0.68018556;1.2645704;10.399176;0.10383382;-0.08161197;-0.23053183;-6.6000004;26.250002;-38.7;-;-;-;-;-;-;-;-;-
1531156455618;-;-;-0.7759864;1.1591895;10.303374;0.10330119;-0.0805467;-0.19644336;-6.6000004;26.250002;-38.7;-;-;-;-;-;-;-;-;-
1531156455628;-;-;-0.91010743;1.1783496;10.241104;0.09744223;-0.06989406;-0.18259494;-6.7500005;26.7;-40.5;-;-;-;-;-;-;-;-;-
1531156455638;-;-;-0.68976563;1.1064991;10.499766;0.11928015;-0.114102535;-0.10163484;-6.7500005;26.7;-40.5;-;-;-;-;-;-;-;-;-
1531156455648;-;-;-0.32093263;1.1591895;10.676997;0.18053286;-0.16416995;-0.0877864;-6.6000004;27.150002;-41.100002;-;-;-;-;-;-;-;-;-
1531156455660;-;-;-0.19160157;1.1591895;10.667418;0.2529708;-0.1913342;-0.10749379;-6.6000004;27.150002;-41.100002;-;-;-;-;-;-;-;-;-
1531156455670;-;-;-0.11496094;1.1304493;10.509346;0.3035709;-0.21423739;-0.119211696;-5.55;27.900002;-40.2;-;-;-;-;-;-;-;-;-
1531156455680;-;-;-0.244292;1.1064991;10.394385;0.34192848;-0.1929434;-0.13201736;-5.55;27.900002;-40.2;-;-;-;-;-;-;-;-;-
1531156455690;-;-;-0.30177248;1.1064991;10.121353;0.3616359;-0.15885493;-0.11603839;-7.8;27.000002;-40.050003;-;-;-;-;-;-;-;-;-
1531156455700;-;-;-0.29698244;1.0681788;9.982442;0.35897273;-0.111983284;-0.118701555;-6.4500003;25.35;-41.25;-;-;-;-;-;-;-;-;-
1531156455711;-;-;-0.2682422;1.0106983;9.901011;0.3472548;-0.098134845;-0.12828892;-6.4500003;25.35;-41.25;-;-;-;-;-;-;-;-;-
1531156455720;-;-;-0.34488282;0.9484278;9.666299;0.32808006;-0.1039938;-0.12083208;-6.4500003;25.35;-41.25;-;-;-;-;-;-;-;-;-
1531156455730;-;-;-0.4167334;0.81909674;9.594449;0.26043576;-0.10186327;-0.124560505;-6.6000004;26.250002;-38.7;-;-;-;-;-;-;-;-;-
1531156455740;-;-;-0.5125342;0.7568262;9.642349;0.20823778;-0.12157066;-0.11071207;-6.0;25.500002;-40.2;-;-;-;-;-;-;-;-;-
1531156455750;-;-;-0.488584;0.7807764;9.503438;0.11875558;-0.12689699;-0.0979289;-6.0;25.500002;-40.2;-;-;-;-;-;-;-;-;-
1531156455761;-;-;-0.25387207;0.6562354;9.627979;0.047915485;-0.12476646;-0.11017944;-6.6000004;24.45;-39.9;-;-;-;-;-;-;-;-;-
1531156455771;-;-;-0.023950197;0.62749517;10.083033;-0.10814575;-0.03901267;-0.14213736;-6.6000004;24.45;-39.9;-;-;-;-;-;-;-;-;-
1531156455781;-;-;-0.019160157;0.6562354;10.494976;-0.1534195;0.03022952;-0.1474637;-6.6000004;24.45;-39.9;-;-;-;-;-;-;-;-;-
1531156455792;-;-;-0.043110352;0.5939649;10.96919;-0.1518216;0.18416023;-0.15971424;-6.15;25.650002;-40.95;-;-;-;-;-;-;-;-;-
1531156455802;-;-;-0.22513184;0.5891748;11.0123005;-0.11240681;0.24967399;-0.16983424;-6.6000004;26.250002;-41.100002;-;-;-;-;-;-;-;-;-
1531156455812;-;-;-0.3305127;0.57001466;10.91171;-0.062339384;0.30666563;-0.16397528;-6.6000004;26.250002;-41.100002;-;-;-;-;-;-;-;-;-
1531156455823;-;-;-0.43110353;0.5460645;10.600357;-0.013337219;0.34821096;-0.15119211;-6.6000004;24.150002;-40.2;-;-;-;-;-;-;-;-;-
1531156455833;-;-;-0.5987549;0.45984375;10.289004;0.050046016;0.35939622;-0.09526573;-6.6000004;24.150002;-40.2;-;-;-;-;-;-;-;-;-
1531156455843;-;-;-0.60833496;0.5221143;10.226734;0.07188394;0.33702567;-0.07289518;-6.6000004;24.150002;-40.2;-;-;-;-;-;-;-;-;-
1531156455854;-;-;-0.3879932;0.47900394;10.068663;0.168823;0.16285494;0.002738597;-7.2000003;25.050001;-39.600002;-;-;-;-;-;-;-;-;-
1531156455864;-;-;-0.07185059;0.4263135;9.968072;0.19598724;0.05899166;0.009662816;-6.3;24.45;-40.2;-;-;-;-;-;-;-;-;-
1531156455874;-;-;0.16765137;0.42152345;9.958491;0.21462937;-0.0065221037;0.012325977;-6.3;24.45;-40.2;-;-;-;-;-;-;-;-;-
1531156455885;-;-;0.5125342;0.33530274;9.982442;0.22581464;-0.16364862;-0.010577208;-5.1000004;25.050001;-38.850002;-;-;-;-;-;-;-;-;-
1531156455895;-;-;0.8047266;0.25387207;9.992022;0.18480197;-0.28988245;-0.07289518;-5.1000004;25.050001;-38.850002;-;-;-;-;-;-;-;-;-
1531156455905;-;-;0.90052736;0.18681154;9.829161;0.1704209;-0.29414353;-0.0782215;-5.4;24.0;-41.25;-;-;-;-;-;-;-;-;-
1531156455916;-;-;1.0059083;0.14849122;10.212363;0.008500702;-0.25526136;-0.18048689;-5.4;24.0;-41.25;-;-;-;-;-;-;-;-;-
1531156455926;-;-;1.0106983;-0.0047900393;10.346485;-0.031446714;-0.18548654;-0.21830378;-6.0;22.35;-40.65;-;-;-;-;-;-;-;-;-
1531156455936;-;-;0.8334668;-0.07664063;10.600357;-0.05168674;-0.1205054;-0.24440275;-6.0;22.35;-40.65;-;-;-;-;-;-;-;-;-
1531156455947;-;-;0.6562354;-0.19160157;10.753638;-0.03464251;-0.040610567;-0.2518596;-5.1000004;25.650002;-39.300003;-;-;-;-;-;-;-;-;-
1531156455957;-;-;0.25387207;-0.25866213;10.624307;0.05164391;0.043545328;-0.21351008;-5.1000004;25.650002;-39.300003;-;-;-;-;-;-;-;-;-
1531156455967;-;-;0.244292;-0.17244141;10.451866;0.08786291;0.046208486;-0.20285745;-4.9500003;24.45;-41.550003;-;-;-;-;-;-;-;-;-
1531156455978;-;-;0.33530274;-0.100590825;9.948912;0.18320407;0.028098991;-0.15971424;-4.9500003;24.45;-41.550003;-;-;-;-;-;-;-;-;-
1531156455988;-;-;0.244292;-0.033530276;9.364527;0.2002483;-0.019305278;-0.13414788;-5.4;25.050001;-40.5;-;-;-;-;-;-;-;-;-
1531156455999;-;-;0.23471193;-0.014370117;9.259146;0.2103683;-0.02942529;-0.13894157;-5.4;25.050001;-40.5;-;-;-;-;-;-;-;-;-
1531156456010;-;-;0.35925296;0.119750984;9.129815;0.20237882;-0.06990534;-0.12029945;-5.55;25.500002;-38.7;-;-;-;-;-;-;-;-;-
1531156456019;-;-;0.36883304;0.2203418;9.153765;0.19066092;-0.0725685;-0.13787632;-5.55;25.500002;-38.7;-;-;-;-;-;-;-;-;-
1531156456029;-;-;0.28261232;0.22513184;9.1202345;0.2018462;-0.04646952;-0.13947421;-5.25;25.500002;-40.65;-;-;-;-;-;-;-;-;-
1531156456040;-;-;0.22992188;0.2921924;9.211246;0.21729253;-1.3051694E-4;-0.1293542;-5.25;25.500002;-40.65;-;-;-;-;-;-;-;-;-
1531156456050;-;-;0.086220704;0.35925296;9.158555;0.23220624;0.07656852;-0.10218995;-5.55;23.85;-41.100002;-;-;-;-;-;-;-;-;-
1531156456060;-;-;0.09580079;0.43110353;9.139395;0.25244626;0.08828644;-0.07023202;-5.4;22.650002;-39.300003;-;-;-;-;-;-;-;-;-
1531156456070;-;-;0.05269043;0.45984375;9.110655;0.24498941;0.10053697;-0.06756886;-5.4;22.650002;-39.300003;-;-;-;-;-;-;-;-;-
1531156456081;-;-;0.3065625;0.5843848;8.602911;0.24285887;0.088819064;-0.024958279;-5.4;23.25;-39.600002;-;-;-;-;-;-;-;-;-
1531156456091;-;-;0.5460645;0.7711963;8.190968;0.17894301;0.045143224;-0.035610925;-5.4;23.25;-39.600002;-;-;-;-;-;-;-;-;-
1531156456102;-;-;0.62749517;0.9244776;8.205338;0.122484;0.028098991;-0.063840434;-5.8500004;23.550001;-40.050003;-;-;-;-;-;-;-;-;-
1531156456112;-;-;0.74724615;0.9436377;8.47837;0.037262842;-0.010783162;-0.122429974;-5.8500004;23.550001;-40.050003;-;-;-;-;-;-;-;-;-
1531156456123;-;-;0.6562354;0.8669971;8.641231;0.00796807;-0.03634951;-0.17675847;-3.9;23.400002;-39.0;-;-;-;-;-;-;-;-;-
1531156456133;-;-;0.35925296;0.89573735;8.880733;-0.0229246;-0.05872006;-0.21830378;-3.9;23.400002;-39.0;-;-;-;-;-;-;-;-;-
1531156456143;-;-;0.26345217;0.85741705;8.943004;-0.03730567;-0.089080095;-0.21670589;-5.4;22.95;-39.300003;-;-;-;-;-;-;-;-;-
1531156456154;-;-;0.14849122;0.9148975;8.971744;-0.054882534;-0.091210626;-0.18421532;-5.4;22.95;-39.300003;-;-;-;-;-;-;-;-;-
1531156456163;-;-;0.18681154;0.8765772;8.995694;-0.07139413;-0.090678;-0.17462793;-4.9500003;22.35;-40.2;-;-;-;-;-;-;-;-;-
1531156456174;-;-;0.21076173;0.9627979;9.062755;-0.08843836;-0.09547169;-0.16930161;-4.9500003;22.35;-40.2;-;-;-;-;-;-;-;-;-
1531156456183;-;-;0.28740236;1.0202783;9.1202345;-0.09322579;-0.0912194;-0.17890649;-6.0;22.050001;-41.850002;-;-;-;-;-;-;-;-;-
1531156456193;-;-;0.119750984;1.0250684;9.096285;-0.11506371;-0.11199206;-0.18370017;-6.0;22.050001;-41.850002;-;-;-;-;-;-;-;-;-
1531156456204;-;-;0.12454102;1.0011182;9.081915;-0.15075007;-0.12264471;-0.19328755;-5.8500004;24.300001;-40.050003;-;-;-;-;-;-;-;-;-
1531156456214;-;-;0.009580079;1.0777588;9.182506;-0.18164274;-0.14448261;-0.18849386;-5.8500004;24.300001;-40.050003;-;-;-;-;-;-;-;-;-
1531156456224;-;-;0.028740235;1.1496094;9.441168;-0.19975223;-0.13862367;-0.17198227;-5.55;22.35;-40.65;-;-;-;-;-;-;-;-;-
1531156456235;-;-;-0.20118165;1.1256592;9.64714;-0.2093396;-0.11785102;-0.14748119;-5.55;22.35;-40.65;-;-;-;-;-;-;-;-;-
1531156456244;-;-;-0.12454102;1.1639795;9.7142;-0.20614381;-0.108263634;-0.11765377;-6.0;24.750002;-41.100002;-;-;-;-;-;-;-;-;-
1531156456254;-;-;0.023950197;1.1064991;9.81958;-0.19442591;-0.08802361;-0.094217956;-6.0;24.750002;-41.100002;-;-;-;-;-;-;-;-;-
1531156456264;-;-;0.16765137;1.1591895;10.0063925;-0.19176275;-0.08589308;-0.08196741;-5.4;23.550001;-40.95;-;-;-;-;-;-;-;-;-
1531156456275;-;-;0.2778223;1.2454102;10.178833;-0.17897958;-0.074707806;-0.08463058;-5.4;23.550001;-40.95;-;-;-;-;-;-;-;-;-
1531156456285;-;-;0.2778223;1.2741505;10.413546;-0.1614027;-0.07204464;-0.09634849;-6.3;24.150002;-40.2;-;-;-;-;-;-;-;-;-
1531156456295;-;-;0.11496094;1.2693604;10.5620365;-0.1214553;-0.08322992;-0.10060954;-6.3;24.150002;-40.2;-;-;-;-;-;-;-;-;-
1531156456305;-;-;-0.086220704;1.2022998;10.485396;-0.082573146;-0.0928173;-0.07291266;-5.55;23.85;-40.65;-;-;-;-;-;-;-;-;-
1531156456317;-;-;-0.15328126;1.2022998;10.509346;-0.06180049;-0.09761099;-0.036161046;-5.55;23.85;-40.65;-;-;-;-;-;-;-;-;-
1531156456327;-;-;0.0047900393;1.2597803;10.346485;-0.043690994;-0.08908887;5.794596E-5;-6.3;23.400002;-41.850002;-;-;-;-;-;-;-;-;-
1531156456339;-;-;0.12933107;1.2502003;10.375225;-0.05168048;-0.095480464;0.014971648;-6.3;23.400002;-41.850002;-;-;-;-;-;-;-;-;-
1531156456348;-;-;0.40715334;1.4034815;10.336905;-0.07138787;-0.096545726;0.014971648;-6.4500003;24.0;-41.25;-;-;-;-;-;-;-;-;-
1531156456358;-;-;0.4023633;1.3028907;10.451866;-0.09908475;-0.11305732;-4.7468627E-4;-6.4500003;24.0;-41.25;-;-;-;-;-;-;-;-;-
1531156456368;-;-;0.41194338;1.3076807;10.542876;-0.13210794;-0.11305732;-0.027106296;-6.0;23.400002;-39.9;-;-;-;-;-;-;-;-;-
1531156456379;-;-;0.39757326;1.2837305;10.571617;-0.14915217;-0.09761099;-0.036161046;-5.4;24.0;-40.95;-;-;-;-;-;-;-;-;-
1531156456389;-;-;0.22992188;1.22146;10.887759;-0.16566376;-0.066718325;-0.036161046;-5.4;24.0;-40.95;-;-;-;-;-;-;-;-;-
1531156456399;-;-;0.20597169;1.2789404;11.01709;-0.15341322;-0.018248787;-0.026041035;-6.4500003;24.300001;-40.050003;-;-;-;-;-;-;-;-;-
1531156456409;-;-;0.17244141;1.1975098;11.156001;-0.096421584;0.032883905;-0.02018208;-6.4500003;24.300001;-40.050003;-;-;-;-;-;-;-;-;-
1531156456420;-;-;0.023950197;1.1831397;11.203902;-0.053278375;0.0691029;5.905782E-4;-4.3500004;22.95;-40.5;-;-;-;-;-;-;-;-;-
1531156456430;-;-;0.028740235;1.1639795;11.045831;0.04632385;0.14793247;0.053321168;-4.3500004;22.95;-40.5;-;-;-;-;-;-;-;-;-
1531156456440;-;-;0.043110352;1.2454102;10.839859;0.0868039;0.17349882;0.08421384;-4.65;24.150002;-39.45;-;-;-;-;-;-;-;-;-
1531156456450;-;-;0.06706055;1.2837305;10.255474;0.16456822;0.21184835;0.12575914;-4.65;24.150002;-39.45;-;-;-;-;-;-;-;-;-
1531156456461;-;-;0.12454102;1.3507911;9.929751;0.19759141;0.21770729;0.13641179;-4.05;24.300001;-41.25;-;-;-;-;-;-;-;-;-
1531156456470;-;-;0.3784131;1.346001;9.369317;0.18214507;0.1830862;0.14440128;-4.05;24.300001;-41.25;-;-;-;-;-;-;-;-;-
1531156456480;-;-;0.53169435;1.2693604;9.096285;0.15071978;0.1532588;0.120965466;-5.55;23.400002;-40.65;-;-;-;-;-;-;-;-;-
1531156456490;-;-;0.7664063;1.1208692;9.005274;0.02182277;0.05312393;0.0735612;-5.55;23.400002;-40.65;-;-;-;-;-;-;-;-;-
1531156456500;-;-;0.6706055;0.9963282;9.206455;-0.06659418;-0.014520363;0.02775482;-5.55;23.400002;-41.550003;-;-;-;-;-;-;-;-;-
1531156456510;-;-;0.6610254;0.90052736;9.6615095;-0.18643643;-0.07577307;-0.019649446;-5.55;23.400002;-41.550003;-;-;-;-;-;-;-;-;-
1531156456520;-;-;0.62749517;0.79993653;10.030342;-0.2455586;-0.10879627;-0.05373791;-5.55;24.150002;-40.65;-;-;-;-;-;-;-;-;-
1531156456530;-;-;0.5939649;0.6610254;10.518927;-0.3611398;-0.11891628;-0.116055876;-5.55;24.150002;-40.65;-;-;-;-;-;-;-;-;-
1531156456541;-;-;0.51732427;0.4981641;10.724898;-0.44103462;-0.07683834;-0.14481802;-5.4;23.550001;-40.95;-;-;-;-;-;-;-;-;-
1531156456550;-;-;0.1101709;0.19639161;11.199112;-0.5859106;0.008915455;-0.17837386;-5.4;23.550001;-40.95;-;-;-;-;-;-;-;-;-
1531156456560;-;-;-0.2921924;0.086220704;11.596685;-0.65142435;0.09094082;-0.17730859;-5.55;24.150002;-40.2;-;-;-;-;-;-;-;-;-
1531156456571;-;-;-0.5843848;-0.30177248;12.367882;-0.6434349;0.25339365;-0.12404536;-5.55;24.150002;-40.2;-;-;-;-;-;-;-;-;-
1531156456580;-;-;-0.6706055;-0.40715334;12.569063;-0.5859106;0.33488637;-0.077173725;-4.8;24.300001;-40.95;-;-;-;-;-;-;-;-;-
1531156456590;-;-;-1.0154883;-0.4263135;12.540323;-0.42185986;0.4504676;0.01816744;-4.8;24.300001;-40.95;-;-;-;-;-;-;-;-;-
1531156456600;-;-;-1.1927198;-0.36883304;12.248131;-0.2998871;0.47177288;0.08314858;-5.25;24.750002;-41.100002;-;-;-;-;-;-;-;-;-
1531156456611;-;-;-1.4849122;-0.38320315;11.788286;-0.09801948;0.44514126;0.21151294;-5.25;24.750002;-41.100002;-;-;-;-;-;-;-;-;-
1531156456621;-;-;-1.4034815;-0.25866213;11.328443;0.07934705;0.37802958;0.3095173;-3.9;24.150002;-41.550003;-;-;-;-;-;-;-;-;-
1531156456631;-;-;-1.1975098;-0.2682422;10.581197;0.24819148;0.27949265;0.40698898;-3.9;24.150002;-41.550003;-;-;-;-;-;-;-;-;-
1531156456641;-;-;-0.7759864;-0.17723145;10.011182;0.3493916;0.13248613;0.46611115;-5.4;24.6;-43.350002;-;-;-;-;-;-;-;-;-
1531156456652;-;-;-0.1820215;0.07664063;9.110655;0.41170958;-0.058728836;0.46451327;-5.4;24.6;-43.350002;-;-;-;-;-;-;-;-;-
1531156456662;-;-;0.06706055;0.100590825;8.804092;0.3909369;-0.14448261;0.43628374;-4.65;25.500002;-41.100002;-;-;-;-;-;-;-;-;-
1531156456673;-;-;0.488584;0.26345217;8.56938;0.28973678;-0.23289958;0.32443097;-4.65;25.500002;-41.100002;-;-;-;-;-;-;-;-;-
1531156456683;-;-;0.7376661;0.29698244;8.732242;0.21091041;-0.23450196;0.2525167;-5.55;25.2;-40.65;-;-;-;-;-;-;-;-;-
1531156456693;-;-;0.86220706;0.23950197;9.163345;0.08733973;-0.14395447;0.112434424;-5.55;25.2;-40.65;-;-;-;-;-;-;-;-;-
1531156456704;-;-;0.57001466;0.07185059;9.388477;0.005314366;-0.02890591;-0.005809932;-5.25;24.750002;-41.850002;-;-;-;-;-;-;-;-;-
1531156456713;-;-;0.21076173;-0.119750984;9.436378;-0.030371994;0.030748898;-0.056942627;-5.25;24.750002;-41.850002;-;-;-;-;-;-;-;-;-
1531156456723;-;-;-0.10538086;-0.29698244;9.503438;-0.08629838;0.07602264;-0.0862374;-4.9500003;23.1;-42.300003;-;-;-;-;-;-;-;-;-
1531156456734;-;-;-0.41194338;-0.39757326;9.522598;-0.12837632;0.080283694;-0.083574235;-4.9500003;23.1;-42.300003;-;-;-;-;-;-;-;-;-
1531156456744;-;-;-0.5843848;-0.44547364;9.857901;-0.15341003;0.03767312;-0.057475258;-4.2000003;23.400002;-42.75;-;-;-;-;-;-;-;-;-
1531156456754;-;-;-0.47900394;-0.43110353;10.106983;-0.1443553;-0.010263782;-0.037235234;-4.2000003;23.400002;-42.75;-;-;-;-;-;-;-;-;-
1531156456765;-;-;-0.34967285;-0.52690434;10.370435;-0.12518053;-0.03689539;-0.03137628;-6.15;24.0;-43.65;-;-;-;-;-;-;-;-;-
1531156456775;-;-;-0.25866213;-0.4742139;10.375225;-0.07244994;-0.055004887;-0.040431026;-6.15;24.0;-43.65;-;-;-;-;-;-;-;-;-
1531156456786;-;-;-0.30177248;-0.5508545;10.317744;-0.044220433;-0.056602784;-0.054812096;-5.25;25.500002;-42.300003;-;-;-;-;-;-;-;-;-
1531156456796;-;-;-0.36883304;-0.5987549;10.289004;-0.03196989;-0.011861678;-0.062801585;-5.25;25.500002;-42.300003;-;-;-;-;-;-;-;-;-
1531156456806;-;-;-0.46942386;-0.6322852;10.169253;-0.013327762;0.045129973;-0.06067105;-4.8;24.6;-42.15;-;-;-;-;-;-;-;-;-
1531156456817;-;-;-0.6706055;-0.5891748;10.0063925;-0.011197233;0.077620536;-0.04628998;-4.8;24.6;-42.15;-;-;-;-;-;-;-;-;-
1531156456827;-;-;-0.7951465;-0.68018556;9.79563;-0.0053382786;0.10904583;-0.009538357;-4.9500003;24.150002;-41.100002;-;-;-;-;-;-;-;-;-
1531156456838;-;-;-0.7424561;-0.63707525;9.77168;-0.012262497;0.11064373;0.0112343;-3.7500002;24.6;-42.15;-;-;-;-;-;-;-;-;-
1531156456847;-;-;-0.6610254;-0.71371585;9.75252;0.0026512048;0.0935995;0.065562785;-3.7500002;24.6;-42.15;-;-;-;-;-;-;-;-;-
1531156456857;-;-;-0.613125;-0.6658155;9.81958;0.009042792;0.05684788;0.08313965;-3.15;24.150002;-42.75;-;-;-;-;-;-;-;-;-
1531156456868;-;-;-0.45984375;-0.64186525;9.7621;0.039935462;-0.017188;0.10923863;-3.15;24.150002;-42.75;-;-;-;-;-;-;-;-;-
1531156456878;-;-;-0.44547364;-0.6466553;9.637559;0.06124075;-0.03636276;0.118293375;-3.7500002;24.300001;-43.350002;-;-;-;-;-;-;-;-;-
1531156456889;-;-;-0.43110353;-0.57001466;9.498648;0.07721972;-0.04168908;0.13214181;-3.7500002;24.300001;-43.350002;-;-;-;-;-;-;-;-;-
1531156456899;-;-;-0.43110353;-0.4981641;9.311836;0.08254604;-0.025177484;0.14545761;-6.15;25.050001;-41.7;-;-;-;-;-;-;-;-;-
1531156456910;-;-;-0.36883304;-0.39757326;9.163345;0.08148077;0.005182553;0.16250184;-6.15;25.050001;-41.7;-;-;-;-;-;-;-;-;-
1531156456920;-;-;-0.44547364;-0.3784131;8.957374;0.07562182;-6.764012E-4;0.18220924;-4.05;24.6;-41.25;-;-;-;-;-;-;-;-;-
1531156456930;-;-;-0.34488282;-0.14849122;8.875943;0.042598624;0.0041172886;0.20617768;-4.05;24.6;-41.25;-;-;-;-;-;-;-;-;-
1531156456941;-;-;-0.28261232;-0.14849122;8.732242;0.024489127;-0.0017416656;0.21896087;-4.8;24.0;-42.15;-;-;-;-;-;-;-;-;-
1531156456951;-;-;-0.14849122;0.21076173;8.703502;-0.027708832;-0.035830125;0.2360051;-4.8;24.0;-42.15;-;-;-;-;-;-;-;-;-
1531156456962;-;-;-0.0047900393;0.23950197;8.847202;-0.055405706;-0.06086384;0.23653772;-5.4;24.0;-42.45;-;-;-;-;-;-;-;-;-
1531156456972;-;-;0.081430666;0.28261232;9.067544;-0.08097205;-0.10240916;0.22535245;-5.4;24.0;-42.45;-;-;-;-;-;-;-;-;-
1531156456982;-;-;0.100590825;0.42152345;9.3453665;-0.07777626;-0.12584497;0.21416718;-4.2000003;24.45;-42.75;-;-;-;-;-;-;-;-;-
1531156456992;-;-;0.2203418;0.43110353;9.402847;-0.047416225;-0.15141132;0.20724295;-4.2000003;24.45;-42.75;-;-;-;-;-;-;-;-;-
1531156457002;-;-;0.37362307;0.4406836;9.522598;-0.043155167;-0.17537977;0.18380713;-5.1000004;25.050001;-41.25;-;-;-;-;-;-;-;-;-
1531156457012;-;-;0.5029541;0.6562354;9.369317;-0.036230948;-0.17484714;0.15983868;-5.1000004;25.050001;-41.25;-;-;-;-;-;-;-;-;-
1531156457022;-;-;0.6658155;0.60833496;9.508228;-0.044753063;-0.16312923;0.13906603;-4.9500003;24.150002;-41.550003;-;-;-;-;-;-;-;-;-
1531156457033;-;-;0.5939649;0.60354495;9.651929;-0.07564573;-0.12531234;0.09112913;-4.9500003;24.150002;-41.550003;-;-;-;-;-;-;-;-;-
1531156457043;-;-;0.6179151;0.6993457;9.690249;-0.08736364;-0.06619017;0.05437751;-4.65;23.400002;-43.95;-;-;-;-;-;-;-;-;-
1531156457053;-;-;0.3784131;0.7089258;9.72378;-0.09908155;-0.03156907;0.012299564;-4.65;23.400002;-43.95;-;-;-;-;-;-;-;-;-
1531156457063;-;-;0.39757326;0.728086;9.68067;-0.12091947;-0.037428025;-0.0036794029;-6.15;24.6;-41.25;-;-;-;-;-;-;-;-;-
1531156457073;-;-;0.4167334;0.68018556;9.867481;-0.12944159;-0.06725543;-0.018593105;-6.15;24.6;-41.25;-;-;-;-;-;-;-;-;-
1531156457084;-;-;0.41194338;0.8669971;9.972861;-0.13050686;-0.07844071;-0.045224715;-4.9500003;25.800001;-42.75;-;-;-;-;-;-;-;-;-
1531156457094;-;-;0.4167334;0.8430469;10.039923;-0.11239736;-0.0667228;-0.07132369;-4.9500003;25.800001;-42.75;-;-;-;-;-;-;-;-;-
1531156457104;-;-;0.3161426;0.7951465;10.130933;-0.10440787;-0.069918595;-0.07451949;-5.4;23.550001;-42.9;-;-;-;-;-;-;-;-;-
1531156457114;-;-;0.24908204;0.87178713;10.126143;-0.0900268;-0.049145933;-0.088367924;-5.4;23.550001;-42.9;-;-;-;-;-;-;-;-;-
1531156457125;-;-;0.2203418;0.8286768;10.102193;-0.06499309;9.214955E-4;-0.09103109;-5.8500004;24.0;-40.95;-;-;-;-;-;-;-;-;-
1531156457135;-;-;0.18681154;0.86220706;10.015972;-0.059134133;0.0067804493;-0.10487953;-5.8500004;24.0;-40.95;-;-;-;-;-;-;-;-;-
1531156457146;-;-;0.10538086;0.852627;9.948912;-0.05274255;0.013172036;-0.099553205;-5.55;24.150002;-41.550003;-;-;-;-;-;-;-;-;-
1531156457155;-;-;-0.014370117;0.9053174;9.77647;-0.05647097;0.0030520244;-0.09795531;-5.55;24.150002;-41.550003;-;-;-;-;-;-;-;-;-
1531156457165;-;-;-0.009580079;0.9148975;9.78605;-0.069254145;-0.00280693;-0.07238896;-5.4;25.35;-42.9;-;-;-;-;-;-;-;-;-
1531156457176;-;-;0.06227051;0.8909473;9.848321;-0.076711;-0.022514323;-0.07718265;-5.4;25.35;-42.9;-;-;-;-;-;-;-;-;-
1531156457186;-;-;0.07664063;0.92926764;9.910591;-0.078308895;-0.0336996;-0.07132369;-4.9500003;23.85;-41.850002;-;-;-;-;-;-;-;-;-
1531156457196;-;-;0.07664063;0.92926764;9.910591;-0.078308895;-0.0336996;-0.07132369;-4.9500003;23.85;-41.850002;-;-;-;-;-;-;-;-;-
1531156457207;-;-;0.10538086;0.9867481;10.073453;-0.061672967;-0.0688036;-0.080077834;-4.9500003;24.750002;-42.75;-;-;-;-;-;-;-;-;-
1531156457216;-;-;0.014370117;1.0681788;9.924961;-0.061672967;-0.07572782;-0.097122066;-4.9500003;24.750002;-42.75;-;-;-;-;-;-;-;-;-
1531156457226;-;-;0.009580079;1.1064991;10.063872;-0.047291897;-0.094902575;-0.08753469;-4.8;25.35;-44.550003;-;-;-;-;-;-;-;-;-
1531156457236;-;-;0.19160157;1.1591895;10.116563;-0.044628736;-0.10289206;-0.09978522;-5.8500004;25.35;-42.45;-;-;-;-;-;-;-;-;-
1531156457247;-;-;0.23950197;1.2837305;10.097403;-0.037171885;-0.12526262;-0.12055788;-5.8500004;25.35;-42.45;-;-;-;-;-;-;-;-;-
1531156457257;-;-;0.2778223;1.2933106;10.102193;-0.045161366;-0.12899104;-0.13653685;-5.1000004;26.7;-43.350002;-;-;-;-;-;-;-;-;-
1531156457267;-;-;0.20597169;1.1448194;10.260264;-0.07978246;-0.116740495;-0.18127796;-5.1000004;26.7;-43.350002;-;-;-;-;-;-;-;-;-
1531156457277;-;-;0.20118165;1.0873389;10.360855;-0.08723931;-0.10129417;-0.19778955;-4.8;24.6;-42.45;-;-;-;-;-;-;-;-;-
1531156457288;-;-;0.009580079;0.89573735;10.748848;-0.0755214;-0.10289206;-0.19992009;-4.8;24.6;-42.45;-;-;-;-;-;-;-;-;-
1531156457298;-;-;-0.16765137;0.8382569;10.897339;-0.048889793;-0.10555522;-0.1951264;-4.05;25.050001;-44.100002;-;-;-;-;-;-;-;-;-
1531156457308;-;-;-0.35925296;0.6993457;10.997931;0.019819764;-0.08318467;-0.1471895;-4.05;25.050001;-44.100002;-;-;-;-;-;-;-;-;-
1531156457319;-;-;-0.34967285;0.60833496;10.897339;0.057636652;-0.07839098;-0.12109052;-5.1000004;24.300001;-43.350002;-;-;-;-;-;-;-;-;-
1531156457329;-;-;-0.3065625;0.5748047;10.581197;0.10397565;-0.0853152;-0.082208365;-5.1000004;24.300001;-43.350002;-;-;-;-;-;-;-;-;-
1531156457339;-;-;-0.20597169;0.5748047;10.336905;0.1162262;-0.09543521;-0.07155572;-4.05;24.300001;-44.100002;-;-;-;-;-;-;-;-;-
1531156457350;-;-;0.0047900393;0.6179151;10.135723;0.0981167;-0.11194681;-0.073153615;-4.05;24.300001;-44.100002;-;-;-;-;-;-;-;-;-
1531156457360;-;-;0.1341211;0.5508545;9.968072;0.070419826;-0.118871026;-0.08540416;-5.1000004;24.300001;-43.65;-;-;-;-;-;-;-;-;-
1531156457371;-;-;0.29698244;0.39757326;9.896221;0.0027755322;-0.13271947;-0.12801473;-5.1000004;24.300001;-43.65;-;-;-;-;-;-;-;-;-
1531156457381;-;-;0.34009278;0.29698244;9.992022;-0.04995506;-0.13218683;-0.15251581;-4.9500003;25.800001;-41.850002;-;-;-;-;-;-;-;-;-
1531156457391;-;-;0.48379397;0.22513184;10.087823;-0.13890465;-0.12046892;-0.20311588;-4.9500003;25.800001;-41.850002;-;-;-;-;-;-;-;-;-
1531156457402;-;-;0.5939649;0.11496094;10.356065;-0.19163524;-0.07253202;-0.25265068;-5.1000004;25.050001;-43.350002;-;-;-;-;-;-;-;-;-
1531156457412;-;-;0.6610254;0.047900394;10.633887;-0.25661635;9.7122137E-4;-0.33307815;-5.1000004;25.050001;-43.350002;-;-;-;-;-;-;-;-;-
1531156457422;-;-;0.44547364;0.023950197;10.772799;-0.28910694;0.06861552;-0.37994978;-5.55;24.750002;-43.5;-;-;-;-;-;-;-;-;-
1531156457433;-;-;0.06227051;-0.19160157;10.8925495;-0.30987957;0.12028084;-0.3937982;-5.55;24.750002;-43.5;-;-;-;-;-;-;-;-;-
1531156457443;-;-;-0.29698244;-0.2921924;10.849439;-0.28857428;0.14851035;-0.36397082;-4.3500004;24.6;-43.350002;-;-;-;-;-;-;-;-;-
1531156457454;-;-;-0.64186525;-0.30177248;10.9644;-0.2576816;0.15863036;-0.30964231;-4.3500004;24.6;-43.350002;-;-;-;-;-;-;-;-;-
1531156457463;-;-;-0.8430469;-0.25387207;10.897339;-0.20708157;0.16022825;-0.24945489;-4.9500003;25.2;-43.5;-;-;-;-;-;-;-;-;-
1531156457473;-;-;-0.8095166;-0.19160157;10.720108;-0.11972988;0.12560716;-0.15251581;-4.9500003;25.2;-43.5;-;-;-;-;-;-;-;-;-
1531156457484;-;-;-0.8095166;-0.21076173;10.471025;-0.06699929;0.07287657;-0.08167573;-4.2000003;24.150002;-42.300003;-;-;-;-;-;-;-;-;-
1531156457494;-;-;-0.8669971;-0.14370118;10.217154;-0.017997123;0.034527052;-0.011368278;-4.2000003;24.150002;-42.300003;-;-;-;-;-;-;-;-;-
1531156457505;-;-;-0.45026368;-0.086220704;10.059082;0.032070305;-0.021399332;0.078113936;-4.65;24.45;-43.050003;-;-;-;-;-;-;-;-;-
1531156457515;-;-;-0.1820215;-0.1341211;10.202784;0.05710402;-0.057085693;0.094092906;-4.65;24.45;-43.050003;-;-;-;-;-;-;-;-;-
1531156457525;-;-;0.30177248;-0.12454102;10.116563;0.09864933;-0.1183384;0.11646346;-4.3500004;25.050001;-43.65;-;-;-;-;-;-;-;-;-
1531156457535;-;-;0.5221143;-0.2203418;10.265054;0.12474831;-0.15668792;0.11326766;-4.9500003;23.1;-43.95;-;-;-;-;-;-;-;-;-
1531156457545;-;-;0.79993653;-0.244292;10.169253;0.1545757;-0.18811321;0.087168686;-4.9500003;23.1;-43.95;-;-;-;-;-;-;-;-;-
1531156457556;-;-;0.9436377;-0.28261232;10.121353;0.16842414;-0.19184165;0.062134966;-3.7500002;25.050001;-44.550003;-;-;-;-;-;-;-;-;-
1531156457566;-;-;1.2885206;-0.25387207;9.915381;0.16149993;-0.18012373;0.020057024;-3.7500002;25.050001;-44.550003;-;-;-;-;-;-;-;-;-
1531156457576;-;-;1.4465919;-0.2682422;9.968072;0.13540095;-0.1332521;-0.025749348;-5.1000004;24.300001;-43.65;-;-;-;-;-;-;-;-;-
1531156457587;-;-;1.575923;-0.20118165;9.958491;0.079474576;-0.01394248;-0.13014527;-5.1000004;24.300001;-43.65;-;-;-;-;-;-;-;-;-
1531156457597;-;-;1.4130616;-0.23950197;10.059082;0.041657686;0.033461787;-0.17968006;-4.2000003;24.150002;-43.5;-;-;-;-;-;-;-;-;-
1531156457607;-;-;1.1687696;-0.39757326;10.212363;0.025146086;0.09950819;-0.25424856;-4.2000003;24.150002;-43.5;-;-;-;-;-;-;-;-;-
1531156457618;-;-;0.847837;-0.4167334;10.130933;0.02141766;0.11016083;-0.25424856;-4.2000003;23.85;-43.050003;-;-;-;-;-;-;-;-;-
1531156457628;-;-;0.47900394;-0.4263135;10.197993;0.036863998;0.12720506;-0.2712928;-4.2000003;23.85;-43.050003;-;-;-;-;-;-;-;-;-
1531156457639;-;-;0.33530274;-0.57959473;10.193204;0.059767183;0.12667243;-0.23986751;-4.3500004;24.300001;-42.45;-;-;-;-;-;-;-;-;-
1531156457649;-;-;0.07664063;-0.51732427;10.054293;0.09279038;0.1112261;-0.18234323;-4.3500004;24.300001;-42.45;-;-;-;-;-;-;-;-;-
1531156457660;-;-;0.0;-0.46942386;9.963282;0.10983461;0.106965035;-0.15304846;-4.8;24.0;-42.45;-;-;-;-;-;-;-;-;-
1531156457670;-;-;0.1101709;-0.39757326;9.766891;0.13327043;0.06595235;-0.08167573;-4.8;24.0;-42.45;-;-;-;-;-;-;-;-;-
1531156457680;-;-;0.25866213;-0.24908204;9.608819;0.1476515;0.015352292;-0.03799989;-3.15;24.150002;-45.15;-;-;-;-;-;-;-;-;-
1531156457690;-;-;0.46942386;-0.21555176;9.77647;0.14659071;-0.047504578;-0.02576184;-3.15;24.150002;-45.15;-;-;-;-;-;-;-;-;-
1531156457701;-;-;0.613125;-0.14849122;9.891431;0.15511283;-0.090647794;-0.019370254;-4.3500004;24.0;-43.65;-;-;-;-;-;-;-;-;-
1531156457711;-;-;0.7089258;-0.16765137;9.944121;0.16842863;-0.0890499;-0.026827104;-4.3500004;24.0;-43.65;-;-;-;-;-;-;-;-;-
1531156457722;-;-;0.7807764;0.0047900393;9.77168;0.18280971;-0.08638673;-0.033751324;-4.65;23.1;-42.300003;-;-;-;-;-;-;-;-;-
1531156457731;-;-;0.81909674;0.038320314;9.536968;0.17908128;-0.06401618;-0.04387134;-4.65;23.1;-42.300003;-;-;-;-;-;-;-;-;-
1531156457742;-;-;0.7424561;0.12454102;9.273516;0.15351494;-0.04324352;-0.06251346;-3.3000002;24.0;-42.9;-;-;-;-;-;-;-;-;-
1531156457751;-;-;0.78556645;0.19160157;9.244776;0.11623067;-0.024601392;-0.07050295;-3.3000002;24.0;-42.9;-;-;-;-;-;-;-;-;-
1531156457761;-;-;0.8669971;0.15328126;9.144185;0.061902184;0.0148133915;-0.08914508;-4.65;24.150002;-43.95;-;-;-;-;-;-;-;-;-
1531156457771;-;-;1.0011182;0.20597169;8.986114;0.007041063;0.03345552;-0.12216827;-4.65;24.150002;-43.95;-;-;-;-;-;-;-;-;-
1531156457782;-;-;0.977168;0.32093263;8.799302;-0.050483216;0.053162914;-0.16744201;-3.3000002;22.95;-41.25;-;-;-;-;-;-;-;-;-
1531156457792;-;-;0.8286768;0.3065625;8.732242;-0.12025804;0.053695545;-0.21218312;-3.3000002;22.95;-41.25;-;-;-;-;-;-;-;-;-
1531156457802;-;-;0.4981641;0.19639161;8.756192;-0.19962023;0.056358706;-0.23348841;-3.7500002;23.25;-43.65;-;-;-;-;-;-;-;-;-
1531156457812;-;-;0.37362307;0.14370118;8.981323;-0.26726452;0.051032383;-0.2318905;-3.7500002;23.25;-43.65;-;-;-;-;-;-;-;-;-
1531156457823;-;-;0.119750984;0.09101075;9.316627;-0.30241826;0.06807661;-0.2020631;-3.6000001;21.75;-43.5;-;-;-;-;-;-;-;-;-
1531156457833;-;-;0.11496094;0.12454102;9.374106;-0.30614668;0.075533465;-0.16744201;-3.6000001;21.75;-43.5;-;-;-;-;-;-;-;-;-
1531156457843;-;-;0.13891114;0.19160157;9.489068;-0.30348352;0.056358706;-0.12589669;-2.5500002;24.150002;-42.75;-;-;-;-;-;-;-;-;-
1531156457854;-;-;0.28261232;0.2203418;9.431587;-0.2997551;0.049967118;-0.097667195;-2.5500002;24.150002;-42.75;-;-;-;-;-;-;-;-;-
1531156457863;-;-;0.3784131;0.30177248;9.584868;-0.26726452;0.013215495;-0.08115559;-1.6500001;22.95;-42.9;-;-;-;-;-;-;-;-;-
1531156457873;-;-;0.43110353;0.34967285;9.632769;-0.24755713;-0.01661191;-0.06411136;-1.6500001;22.95;-42.9;-;-;-;-;-;-;-;-;-
1531156457883;-;-;0.5843848;0.44547364;9.704619;-0.18310864;-0.02886245;-0.06411136;-3.3000002;22.650002;-42.45;-;-;-;-;-;-;-;-;-
1531156457894;-;-;0.5891748;0.5029541;9.532178;-0.15061808;-0.04058036;-0.060382936;-3.3000002;22.650002;-42.45;-;-;-;-;-;-;-;-;-
1531156457904;-;-;0.56522465;0.5843848;9.532178;-0.0930938;-0.068809874;-0.059850305;-3.9;23.1;-43.5;-;-;-;-;-;-;-;-;-
1531156457914;-;-;0.45026368;0.56522465;9.407638;-0.065929554;-0.07839725;-0.0614482;-3.0;24.6;-44.100002;-;-;-;-;-;-;-;-;-
1531156457925;-;-;0.2682422;0.60354495;9.350157;-0.04941795;-0.09544148;-0.04440397;-3.0;24.6;-44.100002;-;-;-;-;-;-;-;-;-
1531156457935;-;-;0.22513184;0.67539555;9.278306;-0.057940066;-0.1023657;-0.015641829;-2.8500001;24.45;-43.050003;-;-;-;-;-;-;-;-;-
1531156457945;-;-;0.1580713;0.6849756;9.417217;-0.06646219;-0.09810464;0.034958232;-2.8500001;24.45;-43.050003;-;-;-;-;-;-;-;-;-
1531156457956;-;-;0.17723145;0.75203615;9.580078;-0.061135862;-0.091713056;0.06105721;-3.0;23.550001;-42.9;-;-;-;-;-;-;-;-;-
1531156457966;-;-;0.25387207;0.85741705;9.699829;-0.018525284;-0.096506745;0.10206989;-3.0;23.550001;-42.9;-;-;-;-;-;-;-;-;-
1531156457976;-;-;0.4263135;0.9148975;9.80521;0.011834754;-0.105561495;0.12657098;-2.5500002;24.150002;-45.15;-;-;-;-;-;-;-;-;-
1531156457987;-;-;0.5891748;1.1591895;9.75252;0.05338007;-0.1534984;0.12710361;-2.5500002;24.150002;-45.15;-;-;-;-;-;-;-;-;-
1531156457997;-;-;0.82388675;1.2070899;9.75252;0.08107694;-0.2099574;0.0972762;-2.7;24.0;-43.65;-;-;-;-;-;-;-;-;-
1531156458007;-;-;0.96758795;1.3220508;9.833951;0.092262216;-0.2578943;0.063720375;-2.7;24.0;-43.65;-;-;-;-;-;-;-;-;-
1531156458017;-;-;1.096919;1.3507911;9.80521;0.092262216;-0.2610901;0.03975192;-3.6000001;23.1;-43.050003;-;-;-;-;-;-;-;-;-
1531156458028;-;-;1.0250684;1.5232325;9.833951;0.047521114;-0.22327322;-0.061980832;-3.6000001;23.1;-43.050003;-;-;-;-;-;-;-;-;-
1531156458038;-;-;0.79035646;1.5280225;9.996812;-0.0131989615;-0.17427105;-0.11311353;-4.05;21.900002;-42.9;-;-;-;-;-;-;-;-;-
1531156458048;-;-;0.5556446;1.3747413;10.427916;-0.04249373;-0.107692026;-0.12376617;-4.05;21.900002;-42.9;-;-;-;-;-;-;-;-;-
1531156458059;-;-;0.46463382;1.2837305;10.672208;-0.040895835;-0.06614671;-0.10725457;-4.65;24.750002;-43.5;-;-;-;-;-;-;-;-;-
1531156458068;-;-;0.22992188;1.3651612;10.91171;-0.002546317;-0.013416117;-0.06624189;-4.65;24.750002;-43.5;-;-;-;-;-;-;-;-;-
1531156458079;-;-;0.16765137;1.3124708;10.93087;0.038999;0.0073565408;-0.038012385;-2.8500001;23.400002;-44.25;-;-;-;-;-;-;-;-;-
1531156458090;-;-;0.19639161;1.2166699;10.849439;0.07415272;-0.012350852;-0.011380771;-2.8500001;23.400002;-44.25;-;-;-;-;-;-;-;-;-
1531156458100;-;-;0.29698244;1.1256592;10.653048;0.057108495;-0.068809874;0.025370853;-4.3500004;22.95;-42.45;-;-;-;-;-;-;-;-;-
1531156458110;-;-;0.42152345;1.22625;10.633887;0.021954766;-0.10289834;0.028034015;-4.3500004;22.95;-42.45;-;-;-;-;-;-;-;-;-
1531156458121;-;-;0.6658155;1.2358302;10.882969;-0.011068433;-0.068809874;0.015783474;-3.0;24.0;-42.9;-;-;-;-;-;-;-;-;-
1531156458131;-;-;0.6466553;1.2406201;10.9644;-0.040363204;-0.005426633;-0.00392392;-3.0;24.0;-42.9;-;-;-;-;-;-;-;-;-
1531156458142;-;-;0.5556446;1.1927198;11.02667;-0.066994816;0.049967118;-0.01617446;-3.6000001;23.1;-44.25;-;-;-;-;-;-;-;-;-
1531156458152;-;-;0.5364844;1.0585986;11.247012;-0.089898005;0.051032383;-0.01617446;-3.6000001;23.1;-44.25;-;-;-;-;-;-;-;-;-
1531156458162;-;-;0.68976563;0.76161623;11.429033;-0.10694224;0.036651313;-0.021500783;-4.3500004;22.650002;-43.350002;-;-;-;-;-;-;-;-;-
1531156458173;-;-;0.7664063;0.50774413;11.726016;-0.1245191;0.0014975858;-0.04174081;-4.3500004;22.650002;-43.350002;-;-;-;-;-;-;-;-;-
1531156458183;-;-;0.74724615;0.25387207;12.343931;-0.098952755;-0.07307093;-0.07050295;-2.8500001;22.800001;-43.050003;-;-;-;-;-;-;-;-;-
1531156458194;-;-;0.5939649;0.086220704;13.067227;-0.023846237;-0.18493122;-0.10407377;-2.5500002;23.85;-43.5;-;-;-;-;-;-;-;-;-
1531156458203;-;-;0.38320315;-0.22992188;13.522281;0.1023876;-0.3164914;-0.12005274;-2.5500002;23.85;-43.5;-;-;-;-;-;-;-;-;-
1531156458213;-;-;0.364043;-0.4263135;13.713882;0.18547823;-0.36868933;-0.09448639;-2.5500002;23.85;-43.5;-;-;-;-;-;-;-;-;-
1531156458223;-;-;0.2778223;-0.613125;13.637241;0.35485527;-0.34525353;-0.03696211;-2.7;24.6;-43.350002;-;-;-;-;-;-;-;-;-
1531156458234;-;-;0.24908204;-0.7376661;13.42169;0.47682807;-0.2935882;0.002985308;-3.6000001;23.1;-43.95;-;-;-;-;-;-;-;-;-
1531156458244;-;-;0.30177248;-0.6514453;12.554693;0.6701735;-0.2126281;0.051987473;-3.6000001;23.1;-43.95;-;-;-;-;-;-;-;-;-
1531156458254;-;-;0.40715334;-0.613125;11.740386;0.7436768;-0.19345334;0.07968435;-4.05;22.95;-42.15;-;-;-;-;-;-;-;-;-
1531156458265;-;-;0.6227051;-0.28261232;10.001602;0.770841;-0.17001753;0.052520104;-4.05;22.95;-42.15;-;-;-;-;-;-;-;-;-
1531156458275;-;-;0.732876;-0.16286133;9.3453665;0.70692515;-0.1646912;0.015768481;-5.4;22.650002;-42.45;-;-;-;-;-;-;-;-;-
1531156458286;-;-;0.6945557;-0.100590825;8.646021;0.54873335;-0.14551644;-0.032701053;-5.4;22.650002;-42.45;-;-;-;-;-;-;-;-;-
1531156458295;-;-;0.63707525;-0.033530276;8.4448395;0.42569536;-0.14711434;-0.066789515;-4.8;22.650002;-42.9;-;-;-;-;-;-;-;-;-
1531156458305;-;-;0.5843848;-0.1341211;8.713081;0.23714356;-0.13859221;-0.10673693;-4.8;22.650002;-42.9;-;-;-;-;-;-;-;-;-
1531156458316;-;-;0.5029541;-0.2921924;9.0148535;0.13487817;-0.10343848;-0.12750958;-4.2000003;22.35;-42.300003;-;-;-;-;-;-;-;-;-
1531156458326;-;-;0.36883304;-0.36883304;9.287886;-0.016389387;0.008946915;-0.15573908;-4.2000003;22.35;-42.300003;-;-;-;-;-;-;-;-;-
1531156458336;-;-;0.244292;-0.488584;9.383687;-0.15114534;0.1245281;-0.15360856;-4.3500004;20.550001;-42.9;-;-;-;-;-;-;-;-;-
1531156458347;-;-;-0.17244141;-0.5604346;9.474698;-0.28536865;0.21773875;-0.1227159;-4.3500004;20.550001;-42.9;-;-;-;-;-;-;-;-;-
1531156458356;-;-;-0.4406836;-0.5604346;9.766891;-0.3668614;0.29816622;-0.07850742;-3.0;19.800001;-43.65;-;-;-;-;-;-;-;-;-
1531156458366;-;-;-0.7376661;-0.6322852;10.523716;-0.41373304;0.3935074;0.015768481;-3.0;19.800001;-43.65;-;-;-;-;-;-;-;-;-
1531156458377;-;-;-0.9915381;-0.6466553;10.811119;-0.3487519;0.4568906;0.1169686;-3.0;22.2;-43.350002;-;-;-;-;-;-;-;-;-
1531156458387;-;-;-1.101709;-0.6322852;10.882969;-0.17724432;0.4430422;0.25651824;-3.0;22.2;-43.350002;-;-;-;-;-;-;-;-;-
1531156458397;-;-;-1.0442286;-0.68976563;10.720108;-0.042488366;0.3988337;0.34173942;-3.6000001;22.35;-41.850002;-;-;-;-;-;-;-;-;-
1531156458407;-;-;-1.0106983;-0.50774413;10.255474;0.16044451;0.28005672;0.4541248;-3.6000001;22.35;-41.850002;-;-;-;-;-;-;-;-;-
1531156458418;-;-;-0.9484278;-0.4406836;9.901011;0.25738358;0.19430292;0.51484483;-4.9500003;21.75;-44.25;-;-;-;-;-;-;-;-;-
1531156458428;-;-;-0.6993457;-0.34967285;9.211246;0.33940893;0.03824169;0.5931418;-4.9500003;21.75;-44.25;-;-;-;-;-;-;-;-;-
1531156458438;-;-;-0.5460645;-0.20118165;8.981323;0.35432264;-0.036326822;0.6357524;-1.8000001;21.45;-41.850002;-;-;-;-;-;-;-;-;-
1531156458448;-;-;-0.38320315;-0.16286133;8.909473;0.3468658;-0.06562159;0.6655798;-1.8000001;21.45;-41.850002;-;-;-;-;-;-;-;-;-
1531156458459;-;-;-0.1341211;-0.1341211;8.847202;0.33035418;-0.08799215;0.6842219;-4.65;22.050001;-44.25;-;-;-;-;-;-;-;-;-
1531156458469;-;-;0.019160157;-0.14849122;8.851993;0.29520047;-0.10237322;0.7012661;-4.65;22.050001;-44.25;-;-;-;-;-;-;-;-;-
1531156458480;-;-;0.19160157;-0.05748047;8.617281;0.25898147;-0.08639425;0.7012661;-3.3000002;21.6;-42.9;-;-;-;-;-;-;-;-;-
1531156458490;-;-;0.46942386;-0.038320314;8.49753;0.19133718;-0.059230007;0.68209136;-3.3000002;21.6;-42.9;-;-;-;-;-;-;-;-;-
1531156458500;-;-;0.7424561;-0.05748047;8.487949;0.12795395;-0.021945752;0.6511987;-4.65;21.75;-43.5;-;-;-;-;-;-;-;-;-
1531156458510;-;-;0.852627;0.009580079;8.48316;0.06989703;0.02173009;0.5974029;-4.65;21.75;-43.5;-;-;-;-;-;-;-;-;-
1531156458521;-;-;1.0825489;0.047900394;8.454419;0.020362237;0.06966699;0.52443224;-4.8;20.550001;-42.9;-;-;-;-;-;-;-;-;-
