TimeStamp[ms];Prox[Cm];Lux[lux];AccX[m/s^2];AccY[m/s^2];AccZ[m/s^2];GyroX[rad/s];GyroY[rad/s];GyroZ[rad/s];MagnX[uT];MagnY[uT];MagnZ[uT];OrienYaw[degrees];OrienPitch[degrees];OrienRoll[degrees];Press[Pa];Temp[C°];Batt[%];Lat;Lng;Speed[m/s]
1531156538412;-;-;-0.5939649;0.26345217;9.7812605;-0.06661323;0.15115494;-0.04036892;14.250001;60.9;-43.050003;-;-;-;-;-;-;-;-;-
1531156538430;-;-;-1.0825489;0.15328126;10.289004;-0.08791851;-0.11143274;0.017687993;14.250001;60.15;-41.550003;-;-;-;-;-;-;-;-;-
1531156538431;-;-;-1.1160791;0.086220704;10.284214;-0.07353745;-0.13007487;0.032601696;14.250001;60.15;-41.550003;-;-;-;-;-;-;-;-;-
1531156538441;-;-;-0.977168;0.100590825;10.346485;-0.035720557;-0.19079494;0.0789407;14.250001;60.15;-41.550003;-;-;-;-;-;-;-;-;-
1531156538452;-;-;-0.7089258;0.19639161;10.2315235;0.02499952;-0.23020974;0.12581232;14.250001;59.850002;-41.550003;-;-;-;-;-;-;-;-;-
1531156538462;-;-;-0.49337405;0.3305127;10.255474;0.055892188;-0.20251286;0.13806286;14.250001;59.850002;-41.550003;-;-;-;-;-;-;-;-;-
1531156538472;-;-;-0.21555176;0.42152345;10.130933;0.086784855;-0.17055492;0.13539971;13.950001;60.15;-41.550003;-;-;-;-;-;-;-;-;-
1531156538482;-;-;-0.09580079;0.40715334;10.073453;0.08465433;-0.1652286;0.12155128;13.950001;60.15;-41.550003;-;-;-;-;-;-;-;-;-
1531156538493;-;-;0.05269043;0.43110353;10.169253;0.07932801;-0.15723912;0.08533229;15.150001;59.4;-43.65;-;-;-;-;-;-;-;-;-
1531156538503;-;-;0.07185059;0.41194338;10.217154;0.09264381;-0.14072752;0.0789407;14.1;59.4;-40.5;-;-;-;-;-;-;-;-;-
1531156538513;-;-;-0.119750984;0.33530274;10.317744;0.13046071;-0.14339069;0.058168042;14.1;59.4;-40.5;-;-;-;-;-;-;-;-;-
1531156538523;-;-;-0.24908204;0.27303225;10.178833;0.15070073;-0.15297806;0.051776458;13.35;58.95;-41.7;-;-;-;-;-;-;-;-;-
1531156538534;-;-;-0.21555176;0.4023633;9.800421;0.18052813;-0.14232542;0.0773428;13.35;58.95;-41.7;-;-;-;-;-;-;-;-;-
1531156538544;-;-;-0.15328126;0.4023633;9.570498;0.1634839;-0.11622643;0.05497225;14.250001;61.2;-41.550003;-;-;-;-;-;-;-;-;-
1531156538554;-;-;-0.047900394;0.488584;9.484278;0.076132216;-0.09012745;0.03313433;14.250001;61.2;-41.550003;-;-;-;-;-;-;-;-;-
1531156538564;-;-;-0.014370117;0.4406836;9.671089;0.04417428;-0.06882216;0.01928589;14.400001;58.65;-42.9;-;-;-;-;-;-;-;-;-
1531156538575;-;-;-0.081430666;0.43589357;9.83874;0.038847957;-0.0054389313;0.01715536;14.400001;58.65;-42.9;-;-;-;-;-;-;-;-;-
1531156538585;-;-;-0.023950197;0.34488282;9.891431;0.035652164;0.012137933;0.018753257;13.950001;59.550003;-42.75;-;-;-;-;-;-;-;-;-
1531156538596;-;-;-0.023950197;0.4263135;9.972861;0.05908798;0.04995482;1.111296E-4;13.950001;59.550003;-42.75;-;-;-;-;-;-;-;-;-
1531156538605;-;-;-0.07185059;0.52690434;10.039923;0.06547957;0.037704278;-0.0046825605;13.650001;59.7;-44.100002;-;-;-;-;-;-;-;-;-
1531156538615;-;-;0.009580079;0.56522465;9.901011;0.0841217;0.037704278;-0.04090155;13.650001;59.7;-44.100002;-;-;-;-;-;-;-;-;-
1531156538625;-;-;-0.07185059;0.4981641;9.733359;0.086784855;0.04995482;-0.074457385;13.950001;57.750004;-41.850002;-;-;-;-;-;-;-;-;-
1531156538636;-;-;-0.20118165;0.5460645;9.460327;0.06654483;0.03291059;-0.0797837;13.950001;57.750004;-41.850002;-;-;-;-;-;-;-;-;-
1531156538646;-;-;-0.2778223;0.50774413;9.244776;0.020205831;0.023323208;-0.09363214;14.250001;58.800003;-43.95;-;-;-;-;-;-;-;-;-
1531156538656;-;-;-0.3544629;0.5364844;9.249566;-0.0777985;-0.00756946;-0.095230035;14.250001;58.800003;-43.95;-;-;-;-;-;-;-;-;-
1531156538666;-;-;-0.33530274;0.4263135;9.297466;-0.13532278;-0.017689472;-0.08564266;15.150001;58.95;-42.45;-;-;-;-;-;-;-;-;-
1531156538676;-;-;-0.35925296;0.38320315;9.73815;-0.20403233;-0.032070544;-0.08777319;15.150001;58.95;-42.45;-;-;-;-;-;-;-;-;-
1531156538686;-;-;-0.29698244;0.37362307;10.059082;-0.20563023;-0.04165792;-0.08191423;13.200001;58.800003;-43.050003;-;-;-;-;-;-;-;-;-
1531156538697;-;-;-0.2203418;0.3305127;10.365645;-0.18592283;-0.015558943;-0.07712054;13.200001;58.800003;-43.050003;-;-;-;-;-;-;-;-;-
1531156538707;-;-;-0.17723145;0.32572266;10.384805;-0.14704068;-0.0065041957;-0.08084897;12.0;58.95;-43.65;-;-;-;-;-;-;-;-;-
1531156538717;-;-;-0.21555176;0.34009278;10.370435;-0.08898378;0.015866358;-0.07019632;12.0;58.95;-43.65;-;-;-;-;-;-;-;-;-
1531156538728;-;-;-0.25866213;0.32093263;10.317744;-0.04211214;0.012670564;-0.07072896;12.450001;59.100002;-42.75;-;-;-;-;-;-;-;-;-
1531156538738;-;-;-0.32572266;0.28261232;10.341695;-0.012817368;-0.0128957825;-0.07179422;12.450001;59.100002;-42.75;-;-;-;-;-;-;-;-;-
1531156538748;-;-;-0.4742139;0.3065625;10.197993;0.02233636;-0.066159;-0.055282623;13.950001;60.15;-41.850002;-;-;-;-;-;-;-;-;-
1531156538758;-;-;-0.5412744;0.2203418;10.030342;0.04151112;-0.07574638;-0.032912068;13.950001;60.15;-41.850002;-;-;-;-;-;-;-;-;-
1531156538768;-;-;-0.45026368;0.31135255;9.996812;0.047370072;-0.08586639;-0.003617296;13.200001;60.600002;-42.300003;-;-;-;-;-;-;-;-;-
1531156538778;-;-;-0.29698244;0.3065625;9.915381;0.02233636;-0.07574638;0.0049048197;13.200001;60.600002;-42.300003;-;-;-;-;-;-;-;-;-
1531156538789;-;-;-0.2682422;0.32093263;9.829161;-0.012284735;-0.03366844;1.111296E-4;13.500001;59.850002;-42.300003;-;-;-;-;-;-;-;-;-
1531156538799;-;-;-0.28261232;0.26345217;9.81;-0.0463732;0.016931623;-0.010541515;13.500001;59.850002;-42.300003;-;-;-;-;-;-;-;-;-
1531156538809;-;-;-0.28261232;0.32572266;9.814791;-0.06075427;0.025453739;-4.2150263E-4;12.450001;59.850002;-43.050003;-;-;-;-;-;-;-;-;-
1531156538820;-;-;-0.34488282;0.28740236;10.020762;-0.07513534;0.007344242;1.111296E-4;12.450001;59.850002;-43.050003;-;-;-;-;-;-;-;-;-
1531156538829;-;-;-0.20597169;0.34488282;10.207574;-0.07353745;0.014801092;6.437618E-4;13.200001;59.100002;-41.550003;-;-;-;-;-;-;-;-;-
1531156538839;-;-;-0.2778223;0.3161426;10.226734;-0.021872116;0.01852952;-0.0030846638;13.200001;59.100002;-41.550003;-;-;-;-;-;-;-;-;-
1531156538849;-;-;-0.3784131;0.25387207;10.380015;0.021271095;-0.0027757701;0.010231141;12.150001;59.100002;-41.850002;-;-;-;-;-;-;-;-;-
1531156538860;-;-;-0.34488282;0.34488282;10.284214;0.0510985;-0.023015795;0.032069065;12.150001;59.100002;-41.850002;-;-;-;-;-;-;-;-;-
1531156538869;-;-;-0.37362307;0.29698244;10.044712;0.08039327;-0.049114775;0.04112381;13.950001;59.550003;-41.850002;-;-;-;-;-;-;-;-;-
1531156538880;-;-;-0.22513184;0.3544629;9.690249;0.09051878;-0.06989513;0.055489533;13.950001;59.550003;-41.850002;-;-;-;-;-;-;-;-;-
1531156538890;-;-;-0.24908204;0.42152345;9.484278;0.06548507;-0.07575408;0.042706363;12.3;59.7;-42.15;-;-;-;-;-;-;-;-;-
1531156538900;-;-;-0.22513184;0.39278322;9.469908;-0.0101487115;-0.059775118;0.043238994;12.3;59.7;-42.15;-;-;-;-;-;-;-;-;-
1531156538910;-;-;-0.019160157;0.4263135;9.699829;-0.076195106;-0.03846983;0.025129495;12.6;59.4;-41.7;-;-;-;-;-;-;-;-;-
1531156538921;-;-;0.047900394;0.46463382;9.80521;-0.095902495;-0.0113055855;0.011813691;12.6;59.4;-41.7;-;-;-;-;-;-;-;-;-
1531156538931;-;-;-0.1580713;0.43589357;9.929751;-0.11347936;0.009467071;-0.008426335;14.250001;58.050003;-39.0;-;-;-;-;-;-;-;-;-
1531156538941;-;-;-0.28261232;0.4023633;10.135723;-0.10655514;0.0062712776;0.007020001;14.250001;58.050003;-39.0;-;-;-;-;-;-;-;-;-
1531156538952;-;-;-0.26345217;0.38320315;10.169253;-0.08471722;-0.013436114;0.012878954;13.05;58.350002;-42.9;-;-;-;-;-;-;-;-;-
1531156538961;-;-;-0.34009278;0.34009278;10.154883;-0.045302436;-0.035274036;0.020335807;13.05;58.350002;-42.9;-;-;-;-;-;-;-;-;-
1531156538971;-;-;-0.25387207;0.4023633;10.279425;-0.016007666;-0.06989513;0.0384453;15.150001;58.65;-40.95;-;-;-;-;-;-;-;-;-
1531156538981;-;-;-0.27303225;0.38320315;10.164463;-0.003224492;-0.06510144;0.04963058;15.150001;58.65;-40.95;-;-;-;-;-;-;-;-;-
1531156538991;-;-;-0.12933107;0.3784131;9.996812;0.0031670947;-0.08054777;0.049097948;13.05;61.350002;-42.15;-;-;-;-;-;-;-;-;-
1531156539002;-;-;-0.043110352;0.46463382;9.944121;0.003699727;-0.05817722;0.032586347;13.200001;60.600002;-41.850002;-;-;-;-;-;-;-;-;-
1531156539012;-;-;0.019160157;0.44547364;9.987232;-0.009616079;-0.04166562;0.022998966;13.200001;60.600002;-41.850002;-;-;-;-;-;-;-;-;-
1531156539022;-;-;0.0;0.364043;9.963282;-0.042106643;-0.0011855739;-0.0089589665;14.85;60.9;-41.550003;-;-;-;-;-;-;-;-;-
1531156539032;-;-;-0.081430666;0.3544629;9.992022;-0.07086878;0.014793392;-0.011089496;14.85;60.9;-41.550003;-;-;-;-;-;-;-;-;-
1531156539042;-;-;-0.14370118;0.3784131;9.915381;-0.06021614;0.019587083;-0.011622127;14.85;60.9;-41.550003;-;-;-;-;-;-;-;-;-
1531156539053;-;-;-0.20597169;0.34488282;10.197993;-0.056487713;0.010532335;-0.013752656;12.6;60.000004;-41.25;-;-;-;-;-;-;-;-;-
1531156539063;-;-;-0.1820215;0.3544629;10.212363;-0.042639274;0.005206013;-0.011089496;12.450001;59.850002;-43.5;-;-;-;-;-;-;-;-;-
1531156539073;-;-;-0.17723145;0.34009278;10.183623;-0.012811873;0.0115976;-4.3685082E-4;12.450001;59.850002;-43.5;-;-;-;-;-;-;-;-;-
1531156539083;-;-;-0.14849122;0.3065625;10.068663;-0.0048223888;0.022250244;0.008085264;12.450001;60.9;-43.95;-;-;-;-;-;-;-;-;-
1531156539094;-;-;-0.06227051;0.33530274;9.905801;-0.016007666;0.02118498;0.003824207;12.450001;60.9;-43.95;-;-;-;-;-;-;-;-;-
1531156539103;-;-;-0.06227051;0.3544629;9.915381;-0.013344504;0.041425005;-0.0015021153;12.6;60.300003;-42.9;-;-;-;-;-;-;-;-;-
1531156539113;-;-;-0.100590825;0.32093263;9.992022;-0.035182424;0.041957635;9.5781405E-5;12.6;60.300003;-42.9;-;-;-;-;-;-;-;-;-
1531156539123;-;-;-0.14849122;0.3784131;10.083033;-0.02612768;0.033968154;-0.0041652764;13.35;59.4;-42.45;-;-;-;-;-;-;-;-;-
1531156539134;-;-;-0.27303225;0.3305127;10.164463;-0.025595047;0.036631316;-0.005230541;13.35;59.4;-42.45;-;-;-;-;-;-;-;-;-
1531156539144;-;-;-0.2203418;0.26345217;10.154883;-0.0069529177;0.033968154;0.004356839;13.35;59.4;-42.45;-;-;-;-;-;-;-;-;-
1531156539154;-;-;-0.19639161;0.33530274;9.992022;0.011156578;0.005738645;0.0107484255;13.500001;60.9;-42.300003;-;-;-;-;-;-;-;-;-
1531156539164;-;-;-0.15328126;0.33530274;9.987232;0.022341855;-0.0011855739;0.017672645;13.650001;60.000004;-43.350002;-;-;-;-;-;-;-;-;-
1531156539175;-;-;-0.1820215;0.30177248;9.877061;0.020211326;-0.020892967;0.02140107;13.650001;60.000004;-43.350002;-;-;-;-;-;-;-;-;-
1531156539185;-;-;-0.19160157;0.2921924;9.78605;0.021809222;-0.033143505;0.027260024;13.05;60.000004;-43.350002;-;-;-;-;-;-;-;-;-
1531156539195;-;-;-0.100590825;0.3161426;9.814791;-0.008018183;-0.02888245;0.018737908;13.05;60.000004;-43.350002;-;-;-;-;-;-;-;-;-
1531156539205;-;-;-0.16286133;0.32572266;9.848321;-0.009616079;-0.023023495;0.020868437;13.05;60.000004;-43.350002;-;-;-;-;-;-;-;-;-
1531156539216;-;-;-0.07185059;0.32093263;10.0063925;-0.011746608;-0.011838218;0.02619476;11.700001;60.300003;-42.45;-;-;-;-;-;-;-;-;-
1531156539226;-;-;-0.100590825;0.34967285;9.905801;-0.018670827;-0.0070445286;0.027792657;13.05;60.000004;-42.45;-;-;-;-;-;-;-;-;-
1531156539236;-;-;-0.12933107;0.33530274;9.963282;-0.013877137;-0.011838218;0.019803174;13.05;60.000004;-42.45;-;-;-;-;-;-;-;-;-
1531156539246;-;-;0.009580079;0.3879932;9.977652;-0.023464518;-0.0022508383;0.012346322;12.0;59.4;-42.15;-;-;-;-;-;-;-;-;-
1531156539257;-;-;-0.009580079;0.31135255;9.987232;-0.02666031;4.123228E-4;-0.013220025;12.0;59.4;-42.15;-;-;-;-;-;-;-;-;-
1531156539267;-;-;-0.06227051;0.32093263;9.953702;-0.029856104;-0.012903483;-0.013220025;14.1;59.4;-44.100002;-;-;-;-;-;-;-;-;-
1531156539277;-;-;-0.09101075;0.37362307;10.126143;-0.025062414;-0.012903483;-0.03878637;14.1;59.4;-44.100002;-;-;-;-;-;-;-;-;-
1531156539287;-;-;-0.23471193;0.2682422;10.092612;-0.013344504;-0.01929507;-0.027601095;12.450001;60.9;-41.850002;-;-;-;-;-;-;-;-;-
1531156539297;-;-;-0.25866213;0.3065625;10.116563;-0.0016265954;-0.023023495;-0.020144245;12.450001;60.9;-41.850002;-;-;-;-;-;-;-;-;-
1531156539307;-;-;-0.23950197;0.29698244;9.968072;-0.0010939632;-0.037404567;-0.007893702;13.05;59.4;-41.7;-;-;-;-;-;-;-;-;-
1531156539317;-;-;-0.21555176;0.244292;10.039923;-0.008018183;-0.023556128;-0.016415818;13.05;59.4;-41.7;-;-;-;-;-;-;-;-;-
1531156539328;-;-;-0.24908204;0.22513184;9.963282;-0.021333989;-0.009175057;-0.010556864;13.950001;58.500004;-41.550003;-;-;-;-;-;-;-;-;-
1531156539338;-;-;-0.2682422;0.3161426;10.140513;-0.016540298;0.003075484;-0.0025673797;13.950001;58.500004;-41.550003;-;-;-;-;-;-;-;-;-
1531156539348;-;-;-0.22992188;0.2203418;10.265054;-0.008550815;0.005738645;0.011813691;14.400001;59.4;-42.45;-;-;-;-;-;-;-;-;-
1531156539358;-;-;-0.27303225;0.19160157;10.188414;0.012754474;0.013195496;0.0107484255;14.400001;59.4;-42.45;-;-;-;-;-;-;-;-;-
1531156539368;-;-;-0.29698244;0.2203418;10.212363;0.028733442;-0.0017182061;0.025662128;12.450001;60.9;-41.550003;-;-;-;-;-;-;-;-;-
1531156539378;-;-;-0.1580713;0.32093263;10.044712;0.042052824;-0.017702186;0.02884793;12.450001;60.9;-41.550003;-;-;-;-;-;-;-;-;-
1531156539389;-;-;-0.10538086;0.23950197;9.963282;0.03353071;-0.011843232;0.033641618;14.1;59.4;-40.050003;-;-;-;-;-;-;-;-;-
1531156539398;-;-;-0.033530276;0.3544629;9.862691;0.019682271;-0.019832715;0.020325813;14.1;59.4;-40.050003;-;-;-;-;-;-;-;-;-
1531156539408;-;-;-0.033530276;0.364043;9.915381;0.0154212145;-0.019300085;0.01286896;13.35;60.000004;-42.15;-;-;-;-;-;-;-;-;-
1531156539418;-;-;-0.023950197;0.31135255;9.862691;0.0015727766;0.0062662633;-0.004175271;13.35;60.000004;-42.15;-;-;-;-;-;-;-;-;-
1531156539428;-;-;-0.09580079;0.25866213;9.881851;-0.011743029;0.03875683;-0.0089689605;13.950001;59.550003;-42.75;-;-;-;-;-;-;-;-;-
1531156539438;-;-;-0.20118165;0.23471193;9.82437;-0.032515686;0.057398956;-0.008436329;13.950001;59.550003;-42.75;-;-;-;-;-;-;-;-;-
1531156539448;-;-;-0.2203418;0.23471193;9.814791;-0.036776744;0.050474737;-0.0020447418;14.1;58.95;-41.7;-;-;-;-;-;-;-;-;-
1531156539459;-;-;-0.22992188;0.3305127;9.848321;-0.027721997;0.021712597;0.021391077;14.1;58.95;-41.7;-;-;-;-;-;-;-;-;-
1531156539469;-;-;-0.1341211;0.32093263;9.8866415;-0.012808294;0.0030704697;0.011803696;14.400001;60.000004;-43.65;-;-;-;-;-;-;-;-;-
1531156539479;-;-;-0.009580079;0.30177248;9.843531;0.005301202;-0.03740958;0.012336328;14.400001;60.000004;-43.65;-;-;-;-;-;-;-;-;-
1531156539489;-;-;-0.038320314;0.33530274;10.054293;0.019149639;-0.07788963;0.002216316;13.500001;60.15;-41.850002;-;-;-;-;-;-;-;-;-
1531156539499;-;-;-0.1580713;0.25866213;10.087823;0.029802283;-0.079487525;-0.0047079027;13.500001;60.15;-41.850002;-;-;-;-;-;-;-;-;-
1531156539509;-;-;-0.086220704;0.19160157;10.145303;0.037259135;-0.04699696;-0.0036426384;15.3;60.9;-42.300003;-;-;-;-;-;-;-;-;-
1531156539519;-;-;-0.038320314;0.20118165;10.183623;0.029802283;-0.028354831;-0.009501593;15.3;60.9;-42.300003;-;-;-;-;-;-;-;-;-
1531156539530;-;-;-0.09580079;0.27303225;10.001602;0.0021054088;0.025441024;-0.024415296;13.950001;60.15;-41.550003;-;-;-;-;-;-;-;-;-
1531156539540;-;-;-0.12933107;0.28740236;9.872271;-0.0037535457;0.059529487;-0.024415296;13.950001;60.15;-41.550003;-;-;-;-;-;-;-;-;-
1531156539550;-;-;-0.15328126;0.2203418;9.829161;-0.03730938;0.0861611;-0.03080688;13.950001;60.15;-42.300003;-;-;-;-;-;-;-;-;-
1531156539560;-;-;-0.32572266;0.20118165;9.953702;-0.049027286;0.069649495;-0.021219501;13.35;59.4;-42.45;-;-;-;-;-;-;-;-;-
1531156539570;-;-;-0.32093263;0.20118165;10.073453;-0.03358095;0.024908392;0.0043468447;13.35;59.4;-42.45;-;-;-;-;-;-;-;-;-
1531156539581;-;-;-0.3305127;0.16765137;10.126143;-0.019199882;0.006798895;0.0064773737;13.950001;60.9;-42.300003;-;-;-;-;-;-;-;-;-
1531156539591;-;-;-0.18681154;0.20118165;10.011182;0.012758053;-0.0113106;0.014466857;13.950001;60.9;-42.300003;-;-;-;-;-;-;-;-;-
1531156539601;-;-;-0.1341211;0.18681154;9.972861;0.011160157;0.006798895;0.009673167;13.05;60.300003;-42.15;-;-;-;-;-;-;-;-;-
1531156539611;-;-;-0.11496094;0.25387207;9.905801;-0.010145132;0.02224523;0.0070100063;13.05;60.300003;-42.15;-;-;-;-;-;-;-;-;-
1531156539621;-;-;0.014370117;0.34488282;10.020762;-0.018134616;0.035561036;-0.0063058;12.900001;60.15;-40.65;-;-;-;-;-;-;-;-;-
1531156539632;-;-;-0.043110352;0.2682422;10.020762;-0.022395674;0.03928946;-0.0073710643;12.900001;60.15;-40.65;-;-;-;-;-;-;-;-;-
1531156539642;-;-;-0.1101709;0.28261232;10.073453;-0.009079868;0.032365244;-0.023882663;14.400001;61.800003;-42.45;-;-;-;-;-;-;-;-;-
1531156539652;-;-;-0.09101075;0.2682422;10.039923;0.0042359377;0.025441024;-0.01855634;14.400001;61.800003;-42.45;-;-;-;-;-;-;-;-;-
1531156539662;-;-;-0.23950197;0.25866213;10.116563;0.020747535;0.03129998;-0.020154238;13.950001;60.9;-42.300003;-;-;-;-;-;-;-;-;-
1531156539673;-;-;-0.22513184;0.27303225;10.011182;0.027139124;0.019049436;0.0032815805;13.950001;60.9;-42.300003;-;-;-;-;-;-;-;-;-
1531156539683;-;-;-0.19639161;0.28740236;10.025552;0.027671754;-0.0011905881;0.019260548;12.0;58.95;-42.45;-;-;-;-;-;-;-;-;-
1531156539694;-;-;-0.047900394;0.25387207;10.174044;0.0532381;-0.014506394;6.184194E-4;12.0;58.95;-42.45;-;-;-;-;-;-;-;-;-
1531156539704;-;-;-0.038320314;0.27303225;10.078242;0.059097055;0.00786416;0.0016836838;12.150001;60.600002;-40.2;-;-;-;-;-;-;-;-;-
1531156539714;-;-;-0.028740235;0.36883304;9.929751;0.04578125;0.04141999;-0.0052405354;12.150001;60.600002;-40.2;-;-;-;-;-;-;-;-;-
1531156539724;-;-;-0.11496094;0.22992188;9.81958;0.0154212145;0.05580106;-0.0047079027;13.650001;59.7;-42.9;-;-;-;-;-;-;-;-;-
1531156539735;-;-;-0.1580713;0.28261232;9.8866415;0.007431731;0.054203164;-0.012164754;13.650001;59.7;-42.9;-;-;-;-;-;-;-;-;-
1531156539744;-;-;-0.14849122;0.35925296;9.915381;0.0031706733;0.03928946;-0.0031100062;13.05;60.300003;-41.7;-;-;-;-;-;-;-;-;-
1531156539754;-;-;-0.16765137;0.2921924;9.896221;0.010627524;0.039822094;-0.0063058;13.05;60.300003;-41.7;-;-;-;-;-;-;-;-;-
1531156539764;-;-;-0.14370118;0.34009278;9.7621;0.0031706733;0.023843126;0.011803696;13.650001;60.750004;-41.25;-;-;-;-;-;-;-;-;-
1531156539775;-;-;-0.081430666;0.3161426;9.929751;-0.006416707;-0.007049543;0.0032815805;13.650001;60.750004;-41.25;-;-;-;-;-;-;-;-;-
1531156539784;-;-;0.12454102;0.32093263;9.968072;-0.012275661;-0.012908497;-0.011632122;12.900001;61.500004;-41.850002;-;-;-;-;-;-;-;-;-
1531156539794;-;-;0.07664063;0.364043;9.833951;-0.025058836;0.03396314;-0.02814372;12.900001;61.500004;-41.850002;-;-;-;-;-;-;-;-;-
1531156539805;-;-;0.009580079;0.3305127;9.982442;-0.03145042;0.0531379;-0.03719847;12.6;60.300003;-40.95;-;-;-;-;-;-;-;-;-
1531156539814;-;-;0.07185059;0.364043;10.174044;-0.049027286;0.07817161;-0.050514273;12.6;60.300003;-40.95;-;-;-;-;-;-;-;-;-
1531156539824;-;-;0.06706055;0.3065625;10.140513;-0.039439905;0.12877168;-0.06755851;14.55;59.100002;-42.300003;-;-;-;-;-;-;-;-;-
1531156539834;-;-;0.0;0.2682422;10.212363;-0.026124101;0.1506096;-0.07501536;14.55;59.100002;-42.300003;-;-;-;-;-;-;-;-;-
1531156539845;-;-;-0.1101709;0.3065625;10.068663;-0.012275661;0.17244752;-0.08300484;13.35;59.7;-42.15;-;-;-;-;-;-;-;-;-
1531156539854;-;-;-0.28261232;0.2682422;9.766891;-0.02346094;0.18682858;-0.056905862;13.35;59.7;-42.15;-;-;-;-;-;-;-;-;-
1531156539864;-;-;-0.17244141;0.3305127;9.74294;-0.045831494;0.1522075;-0.040926892;13.650001;60.000004;-41.7;-;-;-;-;-;-;-;-;-
1531156539874;-;-;-0.20118165;0.3544629;9.929751;-0.0591473;0.08935689;-0.040926892;13.650001;60.000004;-41.7;-;-;-;-;-;-;-;-;-
1531156539885;-;-;-0.14849122;0.32093263;10.059082;-0.037835233;0.045671556;-0.039880548;13.950001;60.600002;-41.850002;-;-;-;-;-;-;-;-;-
1531156539895;-;-;-0.23950197;0.3161426;10.015972;0.016493252;-0.014515885;-0.06438163;13.950001;60.600002;-41.850002;-;-;-;-;-;-;-;-;-
1531156539905;-;-;-0.27303225;0.3305127;10.059082;0.020221679;-0.038484335;-0.059055306;13.35;60.000004;-42.45;-;-;-;-;-;-;-;-;-
1531156539915;-;-;-0.22992188;0.244292;9.81958;0.030874323;-0.03688644;-0.048935294;13.35;60.000004;-42.45;-;-;-;-;-;-;-;-;-
1531156539926;-;-;-0.2921924;0.29698244;9.74294;0.021286942;-0.019309577;-0.04360897;13.35;60.750004;-42.9;-;-;-;-;-;-;-;-;-
1531156539936;-;-;-0.10538086;0.31135255;9.85311;-0.0074751973;-0.03688644;-0.038815282;13.35;60.750004;-42.9;-;-;-;-;-;-;-;-;-
1531156539946;-;-;-0.07664063;0.2921924;9.910591;-0.02931312;-0.015048517;-0.044674236;14.700001;60.300003;-42.15;-;-;-;-;-;-;-;-;-
1531156539957;-;-;-0.34009278;0.27303225;9.934542;-0.043161556;-0.011320091;-0.039880548;14.700001;60.300003;-42.15;-;-;-;-;-;-;-;-;-
1531156539967;-;-;-0.51732427;0.26345217;9.80521;-0.0389005;-0.037951704;-0.01644473;12.6;60.300003;-42.45;-;-;-;-;-;-;-;-;-
1531156539977;-;-;-0.45984375;0.2682422;9.733359;-0.0389005;-0.040614866;-0.010585776;12.6;60.300003;-42.45;-;-;-;-;-;-;-;-;-
1531156539988;-;-;-0.5412744;0.23471193;9.7621;-0.045292083;-0.08855177;0.026165849;15.3;60.15;-42.75;-;-;-;-;-;-;-;-;-
1531156539998;-;-;-0.45505372;0.14370118;9.81958;-0.04262892;-0.13062972;0.035220597;15.3;60.15;-42.75;-;-;-;-;-;-;-;-;-
1531156540008;-;-;-0.1820215;0.22513184;10.035132;-0.037302602;-0.14980447;0.02669848;12.6;60.750004;-41.7;-;-;-;-;-;-;-;-;-
1531156540019;-;-;0.09580079;0.244292;10.207574;-0.025052061;-0.12104233;0.010186881;13.650001;60.000004;-41.7;-;-;-;-;-;-;-;-;-
1531156540029;-;-;0.1341211;0.25866213;10.298584;-0.01546468;-0.054995935;-0.03402159;13.650001;60.000004;-41.7;-;-;-;-;-;-;-;-;-
1531156540039;-;-;-0.047900394;0.2682422;10.312955;0.0042427112;-0.0012000793;-0.05053319;13.35;60.300003;-42.45;-;-;-;-;-;-;-;-;-
1531156540050;-;-;-0.42152345;0.22513184;10.102193;-0.0016162433;0.040877867;-0.04787003;13.35;60.300003;-42.45;-;-;-;-;-;-;-;-;-
1531156540060;-;-;-0.45505372;0.18681154;10.001602;-0.0042794044;0.06431369;-0.028695272;14.400001;62.4;-40.5;-;-;-;-;-;-;-;-;-
1531156540070;-;-;-0.45505372;0.23950197;9.81;-0.02931312;0.026496796;0.0016647661;14.400001;62.4;-40.5;-;-;-;-;-;-;-;-;-
1531156540081;-;-;-0.43589357;0.31135255;9.7621;-0.041031025;0.007322036;0.013382675;14.1;60.000004;-42.9;-;-;-;-;-;-;-;-;-
1531156540091;-;-;-0.28740236;0.28740236;9.915381;-0.036237337;-0.015048517;0.025633216;14.1;60.000004;-42.9;-;-;-;-;-;-;-;-;-
1531156540101;-;-;-0.15328126;0.2682422;9.987232;-0.028780486;-0.017711679;0.02882901;13.500001;61.500004;-43.050003;-;-;-;-;-;-;-;-;-
1531156540112;-;-;-0.1341211;0.32572266;10.049502;-0.0069425656;-0.010787459;0.018176364;13.500001;61.500004;-43.050003;-;-;-;-;-;-;-;-;-
1531156540122;-;-;-0.14849122;0.28740236;10.130933;0.0010469179;-0.0012000793;0.0016647661;12.3;61.050003;-43.350002;-;-;-;-;-;-;-;-;-
1531156540132;-;-;-0.23471193;0.3305127;10.164463;0.005840608;0.012115727;-0.00952051;12.3;61.050003;-43.350002;-;-;-;-;-;-;-;-;-
1531156540142;-;-;-0.2921924;0.28740236;10.202784;0.016493252;0.008919933;6.686943E-5;14.1;61.050003;-41.7;-;-;-;-;-;-;-;-;-
1531156540152;-;-;-0.27303225;0.27303225;10.169253;0.033537485;0.026496796;-0.005792085;14.1;61.050003;-41.7;-;-;-;-;-;-;-;-;-
1531156540163;-;-;-0.22992188;0.30177248;9.920172;0.03407012;0.050465245;0.006458456;13.05;60.750004;-42.9;-;-;-;-;-;-;-;-;-
1531156540172;-;-;-0.34488282;0.28740236;9.79563;0.028211161;0.032888383;0.010186881;13.05;60.750004;-42.9;-;-;-;-;-;-;-;-;-
1531156540182;-;-;-0.37362307;0.3065625;9.72378;0.0047753435;-0.0065264017;0.0171111;13.950001;60.15;-42.300003;-;-;-;-;-;-;-;-;-
1531156540192;-;-;-0.25866213;0.34967285;9.632769;-0.019193107;-0.017711679;0.0171111;13.950001;60.15;-42.300003;-;-;-;-;-;-;-;-;-
1531156540202;-;-;-0.19160157;0.28740236;9.73815;-0.022921532;-0.024635898;0.02403532;12.6;61.800003;-43.65;-;-;-;-;-;-;-;-;-
1531156540212;-;-;-0.19639161;0.28261232;9.8866415;-0.048487876;-0.03901697;0.014447939;12.6;61.800003;-43.65;-;-;-;-;-;-;-;-;-
1531156540223;-;-;-0.21076173;0.32572266;10.020762;-0.037302602;-0.052332774;0.01924163;13.950001;59.550003;-41.550003;-;-;-;-;-;-;-;-;-
1531156540233;-;-;-0.17244141;0.34967285;10.097403;-0.0223889;-0.06298542;0.014447939;13.950001;59.550003;-41.550003;-;-;-;-;-;-;-;-;-
1531156540243;-;-;-0.033530276;0.3305127;10.130933;-0.0021488755;-0.06884437;0.009121617;13.950001;60.600002;-41.850002;-;-;-;-;-;-;-;-;-
1531156540253;-;-;-0.09101075;0.34009278;10.011182;0.0031774468;-0.055528566;0.0048605595;13.950001;60.600002;-41.850002;-;-;-;-;-;-;-;-;-
1531156540263;-;-;-0.07664063;0.35925296;9.901011;-0.005877301;-0.026233794;-0.0025962917;13.200001;61.500004;-42.300003;-;-;-;-;-;-;-;-;-
1531156540274;-;-;-0.05748047;0.3161426;10.001602;-0.020791003;-0.016113782;-0.007922614;13.200001;61.500004;-42.300003;-;-;-;-;-;-;-;-;-
1531156540284;-;-;-0.14849122;0.31135255;10.049502;-0.027715223;0.016376784;-0.0127163045;13.05;60.300003;-42.45;-;-;-;-;-;-;-;-;-
1531156540294;-;-;-0.20118165;0.2778223;9.872271;-0.026117327;0.039279968;-0.007922614;13.05;60.300003;-42.45;-;-;-;-;-;-;-;-;-
1531156540305;-;-;-0.21555176;0.34967285;9.704619;-0.04209629;0.05898736;6.686943E-5;14.400001;60.300003;-42.45;-;-;-;-;-;-;-;-;-
1531156540315;-;-;-0.29698244;0.32093263;9.651929;-0.079913184;0.033421014;0.024567952;14.400001;60.300003;-42.45;-;-;-;-;-;-;-;-;-
1531156540325;-;-;-0.28740236;0.3544629;9.800421;-0.09535952;-0.0059937695;0.039481655;13.200001;60.15;-43.050003;-;-;-;-;-;-;-;-;-
1531156540336;-;-;-0.17723145;0.3305127;10.121353;-0.080978446;-0.02996222;0.059721682;13.200001;60.15;-43.050003;-;-;-;-;-;-;-;-;-
1531156540346;-;-;0.0047900393;0.34488282;10.236314;-0.054346833;-0.04700645;0.058123782;12.6;59.4;-42.45;-;-;-;-;-;-;-;-;-
1531156540357;-;-;0.27303225;0.46463382;10.523716;-0.014932049;-0.057659097;0.036818493;12.6;59.4;-42.45;-;-;-;-;-;-;-;-;-
1531156540366;-;-;0.4263135;0.45984375;10.480606;0.03460275;-0.017179046;-0.013781568;14.55;60.600002;-41.550003;-;-;-;-;-;-;-;-;-
1531156540376;-;-;0.3544629;0.4742139;10.269844;0.0734849;0.062183157;-0.06757743;14.55;60.600002;-41.550003;-;-;-;-;-;-;-;-;-
1531156540387;-;-;0.086220704;0.45984375;9.833951;0.040469497;0.1260881;-0.11819926;14.1;61.050003;-40.95;-;-;-;-;-;-;-;-;-
1531156540397;-;-;-0.17723145;0.4263135;9.613608;-0.005869505;0.15005656;-0.112872936;14.1;61.050003;-40.95;-;-;-;-;-;-;-;-;-
1531156540407;-;-;-0.46942386;0.33530274;9.508228;-0.0868296;0.13780601;-0.07878447;14.1;60.300003;-42.9;-;-;-;-;-;-;-;-;-
1531156540418;-;-;-0.57001466;0.35925296;9.651929;-0.11718964;0.101054385;-0.053218126;13.500001;61.2;-41.100002;-;-;-;-;-;-;-;-;-
1531156540427;-;-;-0.3544629;0.3879932;10.059082;-0.11718964;0.013702699;-0.0015528004;13.500001;61.2;-41.100002;-;-;-;-;-;-;-;-;-
1531156540437;-;-;-0.23471193;0.39278322;10.236314;-0.08256854;-0.026244717;0.0059040505;13.500001;61.2;-41.100002;-;-;-;-;-;-;-;-;-
1531156540447;-;-;-0.05748047;0.4263135;10.427916;-0.017054781;-0.04062579;-0.0063464902;13.950001;60.600002;-41.550003;-;-;-;-;-;-;-;-;-
1531156540457;-;-;-0.043110352;0.39757326;10.341695;0.0239579;-0.04115842;-0.018597031;13.950001;60.9;-41.850002;-;-;-;-;-;-;-;-;-
1531156540468;-;-;0.023950197;0.42152345;10.0063925;0.04366529;-0.039560523;-0.023390722;13.950001;60.9;-41.850002;-;-;-;-;-;-;-;-;-
1531156540477;-;-;-0.019160157;0.34488282;10.068663;0.033545278;-0.028907878;-0.043098114;13.950001;60.9;-41.850002;-;-;-;-;-;-;-;-;-
1531156540488;-;-;-0.12454102;0.43589357;9.814791;0.0026526107;-0.0022762679;-0.060142346;14.250001;59.850002;-41.850002;-;-;-;-;-;-;-;-;-
1531156540498;-;-;-0.26345217;0.30177248;9.82437;-0.020250574;0.016365862;-0.05960971;14.400001;61.350002;-42.9;-;-;-;-;-;-;-;-;-
1531156540508;-;-;-0.32572266;0.37362307;9.996812;-0.048480082;0.027018506;-0.03510863;14.400001;61.350002;-42.9;-;-;-;-;-;-;-;-;-
1531156540519;-;-;-0.28740236;0.27303225;10.039923;-0.043153763;0.027018506;-0.018597031;13.05;60.000004;-41.25;-;-;-;-;-;-;-;-;-
1531156540528;-;-;-0.3161426;0.36883304;9.929751;-0.035696913;0.013170066;0.0064366832;13.05;60.000004;-41.25;-;-;-;-;-;-;-;-;-
1531156540538;-;-;-0.30177248;0.3784131;9.958491;-0.03356638;-0.0065373257;0.012295637;14.55;60.15;-42.300003;-;-;-;-;-;-;-;-;-
1531156540548;-;-;-0.25866213;0.34009278;10.049502;-0.0048042405;-0.08430163;0.044786204;14.55;60.15;-42.300003;-;-;-;-;-;-;-;-;-
1531156540560;-;-;-0.20597169;0.34488282;10.274634;0.016501049;-0.13330379;0.054906216;13.35;60.300003;-41.7;-;-;-;-;-;-;-;-;-
1531156540570;-;-;-0.12454102;0.35925296;10.466236;0.08361271;-0.16579436;0.057569377;13.35;60.300003;-41.7;-;-;-;-;-;-;-;-;-
1531156540581;-;-;-0.014370117;0.3784131;10.356065;0.13048434;-0.14928277;0.044786204;12.6;61.350002;-43.350002;-;-;-;-;-;-;-;-;-
1531156540591;-;-;-0.009580079;0.4167334;10.154883;0.15232226;-0.10507429;0.04691673;12.6;61.350002;-43.350002;-;-;-;-;-;-;-;-;-
1531156540601;-;-;-0.1101709;0.45026368;9.7812605;0.1464633;-0.061931077;0.049579892;12.150001;61.500004;-41.100002;-;-;-;-;-;-;-;-;-
1531156540612;-;-;-0.09101075;0.52690434;9.527389;0.08947167;-0.039027892;0.06396096;12.150001;61.500004;-41.100002;-;-;-;-;-;-;-;-;-
1531156540621;-;-;-0.1101709;0.60833496;9.455538;0.04632845;-0.04062579;0.07567887;12.3;62.100002;-40.95;-;-;-;-;-;-;-;-;-
1531156540631;-;-;0.12933107;0.57001466;9.613608;0.0042505073;-0.044886846;0.07461361;12.3;62.100002;-40.95;-;-;-;-;-;-;-;-;-
1531156540641;-;-;0.16765137;0.60833496;9.78605;-0.0106631955;-0.054474227;0.061297804;12.6;60.750004;-42.45;-;-;-;-;-;-;-;-;-
1531156540652;-;-;0.19160157;0.5412744;9.968072;-0.0016084472;-0.07737741;0.050112527;12.6;60.750004;-42.45;-;-;-;-;-;-;-;-;-
1531156540661;-;-;0.18681154;0.5556446;9.968072;0.00957683;-0.09761743;0.042123042;12.450001;60.15;-41.850002;-;-;-;-;-;-;-;-;-
1531156540671;-;-;0.27303225;0.5939649;9.944121;0.03194738;-0.075246885;0.02241565;12.450001;60.15;-41.850002;-;-;-;-;-;-;-;-;-
1531156540681;-;-;0.21076173;0.5556446;9.85311;0.020762106;-0.05873528;0.01282827;13.05;61.800003;-42.45;-;-;-;-;-;-;-;-;-
1531156540692;-;-;0.06706055;0.5556446;9.690249;-1.055043E-5;-0.026244717;4.509627E-5;13.05;61.800003;-42.45;-;-;-;-;-;-;-;-;-
1531156540702;-;-;0.15328126;0.5556446;9.73815;-0.03356638;0.0057132156;-0.009009652;12.450001;60.600002;-41.550003;-;-;-;-;-;-;-;-;-
1531156540712;-;-;0.081430666;0.56522465;9.862691;-0.0719159;0.045128003;-0.010074915;12.450001;60.600002;-41.550003;-;-;-;-;-;-;-;-;-
1531156540723;-;-;0.028740235;0.5508545;9.939331;-0.080970645;0.074955404;-0.018064398;12.900001;60.9;-42.75;-;-;-;-;-;-;-;-;-
1531156540733;-;-;-0.05748047;0.6227051;9.929751;-0.0554043;0.084010154;0.0027082574;12.900001;60.9;-42.75;-;-;-;-;-;-;-;-;-
1531156540743;-;-;0.038320314;0.5987549;9.800421;-0.028240057;0.0616396;-0.0058138585;13.500001;60.600002;-41.850002;-;-;-;-;-;-;-;-;-
1531156540754;-;-;-0.033530276;0.6658155;9.580078;-0.015989516;0.038203783;0.006969316;13.500001;60.600002;-41.850002;-;-;-;-;-;-;-;-;-
1531156540764;-;-;0.047900394;0.6849756;9.354947;-0.023978999;0.012104803;-0.0036833293;13.200001;61.2;-42.75;-;-;-;-;-;-;-;-;-
1531156540774;-;-;0.043110352;0.62749517;9.383687;-0.043686394;-0.030505775;-0.0063464902;13.200001;61.2;-42.75;-;-;-;-;-;-;-;-;-
1531156540785;-;-;0.10538086;0.6706055;9.508228;-0.06126326;-0.07151846;-0.030314941;13.200001;60.9;-42.75;-;-;-;-;-;-;-;-;-
1531156540795;-;-;0.20597169;0.613125;9.74294;-0.06232852;-0.10667218;-0.05960971;13.200001;60.9;-42.75;-;-;-;-;-;-;-;-;-
1531156540805;-;-;0.12454102;0.68018556;10.049502;-0.06392641;-0.13596696;-0.07452342;14.250001;60.15;-43.5;-;-;-;-;-;-;-;-;-
1531156540816;-;-;0.086220704;0.60354495;10.001602;-0.05220851;-0.16899015;-0.10168766;14.250001;60.15;-43.5;-;-;-;-;-;-;-;-;-
1531156540826;-;-;-0.07664063;0.488584;9.867481;-0.066056944;-0.1647291;-0.0974266;13.500001;60.15;-42.75;-;-;-;-;-;-;-;-;-
1531156540836;-;-;-0.14370118;0.5364844;10.068663;-0.07990538;-0.15088066;-0.0841108;13.500001;60.15;-42.75;-;-;-;-;-;-;-;-;-
1531156540847;-;-;-0.15328126;0.51732427;10.2315235;-0.092155926;-0.10720482;-0.04895707;13.950001;60.600002;-43.5;-;-;-;-;-;-;-;-;-
1531156540857;-;-;-0.1580713;0.53169435;10.274634;-0.08256854;-0.08163847;-0.0494897;13.200001;61.95;-41.550003;-;-;-;-;-;-;-;-;-
1531156540867;-;-;-0.19160157;0.64186525;10.432706;-0.05966536;-0.054474227;-0.026053883;13.200001;61.95;-41.550003;-;-;-;-;-;-;-;-;-
1531156540878;-;-;-0.2778223;0.6322852;10.528506;-0.024511632;-0.051811066;-0.0063464902;13.05;60.750004;-41.7;-;-;-;-;-;-;-;-;-
1531156540888;-;-;-0.1580713;0.6227051;10.284214;0.044732217;-0.025181782;0.01974785;13.05;60.750004;-41.7;-;-;-;-;-;-;-;-;-
1531156540898;-;-;-0.1580713;0.6322852;10.063872;0.06657014;-0.03157337;0.038922608;11.85;60.9;-41.100002;-;-;-;-;-;-;-;-;-
1531156540910;-;-;-0.12933107;0.74724615;9.68067;0.076157525;-0.02944284;0.04158577;11.85;60.9;-41.100002;-;-;-;-;-;-;-;-;-
1531156540920;-;-;-0.12933107;0.6945557;9.594449;0.06390698;-0.034769163;0.043716297;13.650001;61.350002;-41.25;-;-;-;-;-;-;-;-;-
1531156540931;-;-;-0.033530276;0.7376661;9.426797;0.026622724;-0.052878655;0.06182579;13.650001;61.350002;-41.25;-;-;-;-;-;-;-;-;-
1531156540940;-;-;0.07185059;0.7807764;9.560919;-0.0037373146;-0.06566183;0.050640516;13.35;60.300003;-42.15;-;-;-;-;-;-;-;-;-
1531156540950;-;-;0.1341211;0.7424561;9.77647;-0.04741316;-0.02944284;0.0272047;13.35;60.300003;-42.15;-;-;-;-;-;-;-;-;-
1531156540961;-;-;0.13891114;0.732876;9.934542;-0.06392475;-0.014529138;0.012290997;12.6;60.750004;-41.7;-;-;-;-;-;-;-;-;-
1531156540970;-;-;-0.12454102;0.67539555;10.207574;-0.06605528;-0.008670183;0.016019424;12.6;60.750004;-41.7;-;-;-;-;-;-;-;-;-
1531156540981;-;-;-0.3065625;0.52690434;10.265054;-0.034629986;0.017428797;0.047444724;13.35;61.050003;-42.45;-;-;-;-;-;-;-;-;-
1531156540992;-;-;-0.3879932;0.49337405;10.289004;0.0037195366;0.024353016;0.08792477;13.35;61.050003;-42.45;-;-;-;-;-;-;-;-;-
1531156541002;-;-;-0.43589357;0.56522465;10.121353;0.06017855;0.017428797;0.1262743;12.150001;60.15;-43.5;-;-;-;-;-;-;-;-;-
1531156541011;-;-;-0.23950197;0.57959473;9.910591;0.11237651;0.0035803588;0.15130801;12.150001;60.15;-43.5;-;-;-;-;-;-;-;-;-
1531156541022;-;-;-0.1101709;0.6945557;9.455538;0.12089863;-0.026247045;0.15290591;11.85;60.600002;-42.75;-;-;-;-;-;-;-;-;-
1531156541032;-;-;-0.10538086;0.6993457;9.292676;0.07775542;-0.08590186;0.141188;11.85;60.600002;-42.75;-;-;-;-;-;-;-;-;-
1531156541042;-;-;0.014370117;0.7568262;9.249566;0.025024826;-0.15301351;0.12361113;12.6;61.800003;-43.350002;-;-;-;-;-;-;-;-;-
1531156541052;-;-;0.13891114;0.75203615;9.465117;-0.03569525;-0.19296093;0.09964268;12.6;61.800003;-43.350002;-;-;-;-;-;-;-;-;-
1531156541062;-;-;0.19639161;0.71371585;9.948912;-0.06818581;-0.1892325;0.07088054;14.250001;60.9;-42.300003;-;-;-;-;-;-;-;-;-
1531156541072;-;-;0.32572266;0.5987549;10.447076;-0.091088995;-0.14555666;0.044781562;14.250001;60.9;-42.300003;-;-;-;-;-;-;-;-;-
1531156541083;-;-;0.2682422;0.6610254;10.494976;-0.084164776;-0.113598734;0.03519418;12.3;60.300003;-42.45;-;-;-;-;-;-;-;-;-
1531156541093;-;-;0.21555176;0.5604346;10.523716;-0.07031634;-0.07205342;0.0074973074;12.3;60.300003;-42.45;-;-;-;-;-;-;-;-;-
1531156541103;-;-;0.22513184;0.60833496;10.394385;-0.06285949;-0.0667271;0.0048341462;13.05;59.7;-42.45;-;-;-;-;-;-;-;-;-
1531156541113;-;-;0.20118165;0.57959473;10.274634;-0.05540264;-0.086967126;0.009095205;13.05;59.7;-42.45;-;-;-;-;-;-;-;-;-
1531156541123;-;-;0.21076173;0.51732427;10.384805;-0.037825778;-0.13437138;0.011758365;12.450001;59.850002;-41.100002;-;-;-;-;-;-;-;-;-
1531156541133;-;-;0.2778223;0.60833496;10.485396;-0.007998372;-0.18656935;0.012290997;12.450001;59.850002;-41.100002;-;-;-;-;-;-;-;-;-
1531156541144;-;-;0.32093263;0.6849756;10.557246;0.039938528;-0.19296093;-0.0015574405;12.900001;59.850002;-43.95;-;-;-;-;-;-;-;-;-
1531156541154;-;-;0.48379397;0.71371585;10.284214;0.08361437;-0.16206826;-0.017536407;12.900001;59.850002;-43.95;-;-;-;-;-;-;-;-;-
1531156541164;-;-;0.5412744;0.78556645;9.939331;0.09053859;-0.11626189;-0.045765918;12.450001;61.2;-41.850002;-;-;-;-;-;-;-;-;-
1531156541174;-;-;0.46463382;0.8047266;9.460327;0.05485223;-0.047552336;-0.07719122;12.450001;61.2;-41.850002;-;-;-;-;-;-;-;-;-
1531156541185;-;-;0.34488282;0.90052736;9.287886;-0.026640499;0.035005663;-0.11287758;13.200001;61.500004;-43.050003;-;-;-;-;-;-;-;-;-
1531156541195;-;-;0.34488282;0.852627;9.3309965;-0.074044764;0.07974676;-0.114475474;13.200001;61.500004;-43.050003;-;-;-;-;-;-;-;-;-
1531156541205;-;-;0.043110352;1.0059083;9.465117;-0.092154264;0.104247846;-0.1315197;11.85;60.600002;-43.050003;-;-;-;-;-;-;-;-;-
1531156541215;-;-;-0.13891114;1.0394385;9.359736;-0.07990372;0.06856149;-0.1315197;11.85;60.600002;-43.050003;-;-;-;-;-;-;-;-;-
1531156541225;-;-;-0.2921924;1.1400293;9.268726;-0.051674217;-0.015594401;-0.11021442;10.8;61.2;-42.300003;-;-;-;-;-;-;-;-;-
1531156541235;-;-;-0.2682422;1.1687696;9.211246;-0.03409735;-0.08217343;-0.09636598;10.8;61.2;-42.300003;-;-;-;-;-;-;-;-;-
1531156541245;-;-;-0.244292;1.2406201;9.024434;-0.04528263;-0.1908304;-0.08997439;12.3;60.300003;-42.45;-;-;-;-;-;-;-;-;-
1531156541256;-;-;-0.043110352;1.2789404;9.048384;-0.071381606;-0.23663677;-0.101692304;10.8;60.9;-43.95;-;-;-;-;-;-;-;-;-
1531156541266;-;-;0.16765137;1.3124708;9.201666;-0.14381959;-0.26060525;-0.1299218;10.8;60.9;-43.95;-;-;-;-;-;-;-;-;-
1531156541276;-;-;0.14849122;1.3076807;9.388477;-0.20081124;-0.23237571;-0.15495552;14.250001;60.600002;-43.5;-;-;-;-;-;-;-;-;-
1531156541286;-;-;0.100590825;1.336421;9.910591;-0.27537975;-0.21107042;-0.1778587;14.250001;60.600002;-43.5;-;-;-;-;-;-;-;-;-
1531156541296;-;-;0.100590825;1.1831397;10.130933;-0.29881558;-0.17165564;-0.19703346;10.950001;61.800003;-42.9;-;-;-;-;-;-;-;-;-
1531156541307;-;-;-0.043110352;1.1304493;10.475816;-0.30414188;-0.101880826;-0.21887138;10.950001;61.800003;-42.9;-;-;-;-;-;-;-;-;-
1531156541317;-;-;-0.21076173;1.1591895;10.471025;-0.29082608;-0.082706064;-0.21833876;10.950001;61.350002;-43.350002;-;-;-;-;-;-;-;-;-
1531156541327;-;-;-0.47900394;1.2310401;10.509346;-0.2695208;-0.09602187;-0.18904398;10.950001;61.350002;-43.350002;-;-;-;-;-;-;-;-;-
1531156541337;-;-;-0.46463382;1.2070899;10.542876;-0.24129128;-0.10614188;-0.16720606;12.6;62.100002;-43.350002;-;-;-;-;-;-;-;-;-
1531156541347;-;-;-0.24908204;1.3076807;10.691368;-0.17364699;-0.1775146;-0.11074705;12.6;62.100002;-43.350002;-;-;-;-;-;-;-;-;-
1531156541357;-;-;-0.038320314;1.4130616;10.729688;-0.12571009;-0.18337356;-0.09956177;9.75;60.9;-41.850002;-;-;-;-;-;-;-;-;-
1531156541367;-;-;0.16286133;1.4753321;10.676997;-0.052739482;-0.14236087;-0.10595336;9.75;60.9;-41.850002;-;-;-;-;-;-;-;-;-
1531156541378;-;-;0.14370118;1.6477735;10.365645;-0.01971628;-0.106674515;-0.1182039;11.400001;61.2;-43.5;-;-;-;-;-;-;-;-;-
1531156541388;-;-;0.06227051;1.7148341;9.915381;0.008107734;-0.066148676;-0.12590063;11.400001;61.2;-43.5;-;-;-;-;-;-;-;-;-
1531156541398;-;-;0.100590825;1.6860938;9.68067;0.002248779;-0.01661388;-0.14454275;11.1;63.000004;-43.050003;-;-;-;-;-;-;-;-;-
1531156541408;-;-;0.0;1.7627344;9.278306;-0.06539551;0.037181973;-0.15892382;11.1;63.000004;-43.050003;-;-;-;-;-;-;-;-;-
1531156541418;-;-;-0.13891114;1.7914747;9.350157;-0.11386505;0.03132302;-0.17809859;11.1;62.550003;-42.300003;-;-;-;-;-;-;-;-;-
1531156541428;-;-;-0.26345217;1.8154249;9.513018;-0.12984401;0.0014956158;-0.17437015;11.1;62.550003;-42.300003;-;-;-;-;-;-;-;-;-
1531156541438;-;-;-0.364043;1.7339942;9.81;-0.12185453;-0.02620126;-0.16265225;11.700001;62.7;-42.9;-;-;-;-;-;-;-;-;-
1531156541449;-;-;-0.39757326;1.839375;10.183623;-0.07551552;-0.09224766;-0.14827119;11.700001;62.7;-42.9;-;-;-;-;-;-;-;-;-
1531156541459;-;-;-0.28740236;1.8968556;10.322535;-0.034502845;-0.1060961;-0.13282485;10.950001;61.800003;-42.9;-;-;-;-;-;-;-;-;-
1531156541469;-;-;0.10538086;1.8776954;10.327325;0.020890906;-0.09224766;-0.15146698;10.950001;61.800003;-42.9;-;-;-;-;-;-;-;-;-
1531156541479;-;-;0.14370118;1.8920655;10.336905;0.032076184;-0.06295288;-0.17223963;9.900001;62.7;-42.45;-;-;-;-;-;-;-;-;-
1531156541489;-;-;0.1341211;1.9016455;10.538086;0.028880391;-0.029929686;-0.2063281;9.900001;62.7;-42.45;-;-;-;-;-;-;-;-;-
1531156541499;-;-;0.014370117;1.8154249;10.777588;0.042196196;-0.0080917645;-0.21857864;9.900001;62.100002;-41.25;-;-;-;-;-;-;-;-;-
1531156541510;-;-;-0.14849122;1.695674;10.94045;0.0901331;0.018539846;-0.21378495;9.900001;62.100002;-41.25;-;-;-;-;-;-;-;-;-
1531156541520;-;-;-0.3065625;1.5040723;11.223062;0.14659211;0.03824724;-0.17863122;8.85;62.7;-41.7;-;-;-;-;-;-;-;-;-
1531156541530;-;-;-0.30177248;1.4465919;11.342813;0.22435641;0.059019897;-0.1338901;8.85;62.7;-41.7;-;-;-;-;-;-;-;-;-
1531156541540;-;-;-0.2921924;1.2789404;11.486514;0.31703442;0.07180307;-0.08808374;10.950001;61.050003;-43.350002;-;-;-;-;-;-;-;-;-
1531156541550;-;-;-0.20118165;1.1735597;11.342813;0.41344085;0.036649343;-0.053462643;10.950001;61.050003;-43.350002;-;-;-;-;-;-;-;-;-
1531156541560;-;-;-0.023950197;1.0394385;11.184742;0.49067253;0.024931435;-0.017243652;11.1;62.250004;-43.5;-;-;-;-;-;-;-;-;-
1531156541571;-;-;0.20597169;0.93405765;11.1176815;0.53168523;0.0057566734;0.0035290052;11.1;62.250004;-43.5;-;-;-;-;-;-;-;-;-
1531156541581;-;-;0.30177248;0.7232959;11.280542;0.55086;-0.020874938;0.010453223;9.6;60.750004;-42.15;-;-;-;-;-;-;-;-;-
1531156541591;-;-;0.28261232;0.56522465;11.543995;0.59719896;0.0153440535;0.020040605;9.6;60.750004;-42.15;-;-;-;-;-;-;-;-;-
1531156541602;-;-;0.009580079;0.4981641;11.682906;0.6723001;0.1186747;0.06371645;9.75;61.2;-42.300003;-;-;-;-;-;-;-;-;-
1531156541612;-;-;-0.14370118;0.5125342;11.716436;0.81770873;0.24437591;0.13455653;9.75;61.2;-42.300003;-;-;-;-;-;-;-;-;-
1531156541622;-;-;-0.3784131;0.57001466;11.534414;0.9828247;0.3647508;0.20805977;11.85;61.95;-43.5;-;-;-;-;-;-;-;-;-
1531156541632;-;-;-0.5604346;0.44547364;11.122471;1.1255702;0.38339293;0.2959441;11.85;61.95;-43.5;-;-;-;-;-;-;-;-;-
1531156541643;-;-;-0.39757326;0.2921924;10.322535;1.2139871;0.3295971;0.3673168;10.650001;59.7;-44.100002;-;-;-;-;-;-;-;-;-
1531156541653;-;-;-0.26345217;0.3784131;9.637559;1.2081281;0.20549376;0.43868953;10.650001;59.7;-44.100002;-;-;-;-;-;-;-;-;-
1531156541664;-;-;0.23950197;0.64186525;9.053174;1.0499364;0.039312504;0.47703907;11.85;58.800003;-43.95;-;-;-;-;-;-;-;-;-
1531156541674;-;-;0.8430469;0.78556645;8.938213;0.91944146;-0.095976084;0.45573378;11.85;58.800003;-43.95;-;-;-;-;-;-;-;-;-
1531156541684;-;-;2.572251;0.90052736;8.847202;0.5977316;-0.38998905;0.25706196;11.1;59.100002;-45.15;-;-;-;-;-;-;-;-;-
1531156541695;-;-;3.6164796;1.1208692;9.024434;0.31064284;-0.6025093;0.012583752;12.3;57.600002;-45.75;-;-;-;-;-;-;-;-;-
1531156541705;-;-;4.3397756;1.1975098;9.79563;-0.26939365;-0.78999585;-0.5621264;12.3;57.600002;-45.75;-;-;-;-;-;-;-;-;-
1531156541715;-;-;4.0427933;0.9244776;10.542876;-0.5692656;-0.72927576;-0.8934237;11.700001;56.850002;-45.300003;-;-;-;-;-;-;-;-;-
1531156541726;-;-;2.5051906;-0.26345217;12.334352;-0.959685;-0.40277222;-1.3717275;11.700001;56.850002;-45.300003;-;-;-;-;-;-;-;-;-
1531156541736;-;-;1.22625;-0.91010743;13.028907;-1.016144;-0.23872152;-1.4755907;11.25;56.250004;-47.4;-;-;-;-;-;-;-;-;-
1531156541746;-;-;-0.49337405;-1.6429834;13.51749;-0.9160092;0.082988344;-1.3951632;11.25;56.250004;-47.4;-;-;-;-;-;-;-;-;-
1531156541756;-;-;-1.3843213;-1.8441651;13.37379;-0.8355817;0.19484112;-1.2886368;10.05;58.500004;-44.7;-;-;-;-;-;-;-;-;-
1531156541767;-;-;-2.064507;-1.9734962;12.894786;-0.5314487;0.3929803;-0.80713725;10.05;58.500004;-44.7;-;-;-;-;-;-;-;-;-
1531156541776;-;-;-2.0213966;-1.7914747;12.506792;-0.38284433;0.39564347;-0.562659;8.55;57.9;-44.100002;-;-;-;-;-;-;-;-;-
1531156541786;-;-;-1.6813037;-1.4897022;12.022999;-0.14582299;0.32586867;-0.27130923;8.55;57.9;-44.100002;-;-;-;-;-;-;-;-;-
1531156541797;-;-;-1.5136524;-1.3986914;11.730806;0.007575101;0.2917802;-0.11737851;11.1;59.550003;-45.15;-;-;-;-;-;-;-;-;-
1531156541807;-;-;-0.7759864;-1.1879297;11.280542;0.30957758;0.23212537;0.106859654;11.1;59.550003;-45.15;-;-;-;-;-;-;-;-;-
1531156541817;-;-;-0.09101075;-0.87178713;10.413546;0.56311053;0.186319;0.23202823;9.900001;59.7;-44.550003;-;-;-;-;-;-;-;-;-
1531156541828;-;-;0.47900394;-0.43110353;8.966953;0.7495318;0.15436107;0.2762367;9.900001;59.7;-44.550003;-;-;-;-;-;-;-;-;-
1531156541838;-;-;0.6658155;-0.25866213;8.061636;0.8193066;0.08991256;0.25013772;9.900001;60.750004;-43.65;-;-;-;-;-;-;-;-;-
1531156541847;-;-;0.96758795;-0.086220704;7.1132083;0.7846855;0.044106193;0.19314608;9.900001;60.750004;-43.65;-;-;-;-;-;-;-;-;-
1531156541858;-;-;1.0585986;0.07664063;6.447393;0.63501585;-0.03099495;0.11857756;9.450001;59.550003;-46.350002;-;-;-;-;-;-;-;-;-
1531156541867;-;-;0.9867481;0.19160157;6.0833497;0.4326156;-0.07467079;0.03335641;9.450001;59.550003;-46.350002;-;-;-;-;-;-;-;-;-
1531156541877;-;-;0.86220706;0.29698244;6.1935205;0.21263851;-0.102900304;-0.041744735;9.0;58.050003;-44.7;-;-;-;-;-;-;-;-;-
1531156541888;-;-;0.6466553;0.17244141;6.9790874;-0.0041368008;-0.10077819;-0.10727527;9.0;58.050003;-44.7;-;-;-;-;-;-;-;-;-
1531156541899;-;-;0.52690434;0.019160157;7.6017923;-0.08722743;-0.07414658;-0.12378687;11.25;57.600002;-45.300003;-;-;-;-;-;-;-;-;-
1531156541909;-;-;0.3161426;0.1341211;8.200547;-0.15913278;-0.06349394;-0.12858057;11.25;57.600002;-45.300003;-;-;-;-;-;-;-;-;-
1531156541919;-;-;0.20597169;0.15328126;8.684341;-0.15007803;-0.042721275;-0.10514474;9.3;57.300003;-45.75;-;-;-;-;-;-;-;-;-
1531156541930;-;-;0.14849122;0.12933107;8.952583;-0.10586956;-0.023013884;-0.065197326;9.3;57.300003;-45.75;-;-;-;-;-;-;-;-;-
1531156541940;-;-;0.34009278;0.06227051;9.019644;-0.03716;-0.040058114;-0.016195163;9.3;57.9;-45.0;-;-;-;-;-;-;-;-;-
1531156541950;-;-;0.3879932;0.07664063;9.062755;0.022494812;-0.067222364;3.164356E-4;9.3;57.9;-45.0;-;-;-;-;-;-;-;-;-
1531156541960;-;-;0.5029541;0.244292;8.938213;0.05125695;-0.10503925;-0.0018140933;8.85;57.600002;-45.75;-;-;-;-;-;-;-;-;-
1531156541971;-;-;0.4167334;0.40715334;8.770562;0.06084433;-0.13699718;-0.005009887;8.85;57.600002;-45.75;-;-;-;-;-;-;-;-;-
1531156541980;-;-;0.4406836;0.4406836;8.674761;0.030484295;-0.15297616;-0.008738312;9.900001;58.65;-46.2;-;-;-;-;-;-;-;-;-
1531156541990;-;-;0.51732427;0.488584;8.636441;-0.028637882;-0.1572372;-0.0018140933;9.900001;58.65;-46.2;-;-;-;-;-;-;-;-;-
1531156542000;-;-;0.7424561;0.6179151;8.784932;-0.1165222;-0.11942032;-0.011401474;10.200001;55.95;-48.15;-;-;-;-;-;-;-;-;-
1531156542011;-;-;0.8430469;0.7664063;8.880733;-0.19322124;-0.060298137;-0.016727796;10.200001;55.95;-48.15;-;-;-;-;-;-;-;-;-
1531156542021;-;-;0.92926764;0.78556645;9.148975;-0.26139817;0.0014871991;-0.036435187;10.05;58.500004;-48.0;-;-;-;-;-;-;-;-;-
1531156542032;-;-;0.852627;0.8430469;9.374106;-0.2837687;0.060609378;-0.061468903;10.05;58.500004;-48.0;-;-;-;-;-;-;-;-;-
1531156542042;-;-;0.7376661;0.87178713;9.460327;-0.28909504;0.09096941;-0.06626259;10.5;58.500004;-46.350002;-;-;-;-;-;-;-;-;-
1531156542052;-;-;0.613125;0.9627979;9.623189;-0.26992026;0.11333996;-0.06839312;10.5;58.500004;-46.350002;-;-;-;-;-;-;-;-;-
1531156542062;-;-;0.4981641;1.0106983;9.7621;-0.22251602;0.09842626;-0.05880574;9.3;57.9;-46.5;-;-;-;-;-;-;-;-;-
1531156542073;-;-;0.4023633;1.0490186;9.814791;-0.18310124;0.084045194;-0.050283626;9.3;57.9;-46.5;-;-;-;-;-;-;-;-;-
1531156542083;-;-;0.28740236;0.97237796;9.70941;-0.1181201;0.06753359;-0.01992359;10.05;59.100002;-45.600002;-;-;-;-;-;-;-;-;-
1531156542093;-;-;0.2778223;1.0490186;9.498648;-0.09681481;0.045163043;-0.0012814611;10.05;59.100002;-45.9;-;-;-;-;-;-;-;-;-
1531156542103;-;-;0.13891114;1.101709;9.302257;-0.06965057;-0.0054370197;0.04186175;10.05;59.100002;-45.9;-;-;-;-;-;-;-;-;-
1531156542114;-;-;0.19639161;1.1352394;9.206455;-0.08243374;-0.047514964;0.06476494;10.05;59.100002;-44.7;-;-;-;-;-;-;-;-;-
1531156542124;-;-;0.45026368;1.1591895;9.268726;-0.1181201;-0.09385397;0.07808074;10.05;59.100002;-44.7;-;-;-;-;-;-;-;-;-
1531156542135;-;-;0.5460645;1.2981006;9.479487;-0.17191595;-0.13113824;0.0855376;12.150001;58.500004;-46.800003;-;-;-;-;-;-;-;-;-
1531156542145;-;-;0.7041358;1.3220508;10.001602;-0.22038549;-0.14818247;0.07222179;12.150001;58.500004;-46.800003;-;-;-;-;-;-;-;-;-
1531156542154;-;-;0.7568262;1.3507911;10.083033;-0.22784233;-0.14978036;0.060503878;10.200001;58.65;-45.75;-;-;-;-;-;-;-;-;-
1531156542164;-;-;0.6706055;1.3843213;10.308165;-0.2107981;-0.12155085;0.057840716;10.200001;58.65;-45.75;-;-;-;-;-;-;-;-;-
1531156542176;-;-;0.6706055;1.3124708;10.408755;-0.1974823;-0.10557188;0.060503878;9.900001;58.65;-45.0;-;-;-;-;-;-;-;-;-
1531156542185;-;-;0.5508545;1.2933106;10.336905;-0.1692528;-0.04218864;0.061569143;9.900001;58.65;-45.0;-;-;-;-;-;-;-;-;-
1531156542195;-;-;0.5412744;1.331631;10.308165;-0.15753488;-0.01023071;0.07808074;9.0;59.550003;-46.350002;-;-;-;-;-;-;-;-;-
1531156542205;-;-;0.42152345;1.3268409;10.154883;-0.14475171;0.013737741;0.10684288;9.0;59.550003;-46.350002;-;-;-;-;-;-;-;-;-
1531156542216;-;-;0.28740236;1.4513819;10.178833;-0.12344642;0.016400902;0.12974606;10.200001;59.4;-46.5;-;-;-;-;-;-;-;-;-
1531156542226;-;-;0.25866213;1.5471827;10.159674;-0.08349901;0.007346154;0.1766177;10.200001;59.4;-46.5;-;-;-;-;-;-;-;-;-
1531156542237;-;-;0.33530274;1.5807129;10.178833;-0.04887791;-0.011828606;0.20378195;10.8;60.15;-45.15;-;-;-;-;-;-;-;-;-
1531156542247;-;-;0.53169435;1.695674;10.063872;-0.011593652;-0.013426503;0.21230406;10.8;60.15;-45.15;-;-;-;-;-;-;-;-;-
1531156542256;-;-;0.5412744;1.6621436;10.020762;-0.0041368008;-0.016089665;0.21549985;10.200001;58.95;-45.75;-;-;-;-;-;-;-;-;-
1531156542266;-;-;0.68018556;1.7387843;9.905801;-0.0057346974;0.013205108;0.20378195;10.200001;58.95;-45.75;-;-;-;-;-;-;-;-;-
1531156542277;-;-;0.5460645;1.8154249;9.843531;-0.030768411;0.014803004;0.18034613;10.200001;59.7;-46.2;-;-;-;-;-;-;-;-;-
1531156542287;-;-;0.52690434;1.8106349;9.939331;-0.061661083;0.018531429;0.17075874;10.200001;59.7;-46.2;-;-;-;-;-;-;-;-;-
1531156542298;-;-;0.36883304;1.7771046;10.063872;-0.08190111;0.031314604;0.1633019;10.200001;59.4;-46.2;-;-;-;-;-;-;-;-;-
1531156542308;-;-;0.41194338;1.6908839;10.308165;-0.08030321;0.023857752;0.19046614;10.200001;59.4;-46.2;-;-;-;-;-;-;-;-;-
1531156542318;-;-;0.38320315;1.7292042;10.365645;-0.05899792;0.022792486;0.21017353;11.25;58.65;-45.300003;-;-;-;-;-;-;-;-;-
1531156542329;-;-;0.36883304;1.6908839;10.4566555;-0.030768411;0.02119459;0.21976091;11.25;58.65;-45.300003;-;-;-;-;-;-;-;-;-
1531156542339;-;-;0.43589357;1.710044;10.485396;-0.009463123;0.024923017;0.20697774;10.5;59.550003;-45.9;-;-;-;-;-;-;-;-;-
1531156542349;-;-;0.5604346;1.585503;10.5620365;0.0011895214;0.0068135215;0.20537984;10.5;59.550003;-45.9;-;-;-;-;-;-;-;-;-
1531156542360;-;-;0.5939649;1.5184424;10.533297;0.0017221536;0.005748257;0.19099876;9.450001;58.500004;-44.7;-;-;-;-;-;-;-;-;-
1531156542370;-;-;0.6179151;1.4178516;10.653048;-0.007865227;0.027053544;0.16223663;9.450001;58.500004;-44.7;-;-;-;-;-;-;-;-;-
1531156542380;-;-;0.5125342;1.2693604;10.619517;-0.009463123;0.047826204;0.15957347;10.8;58.500004;-45.15;-;-;-;-;-;-;-;-;-
1531156542390;-;-;0.40715334;1.1687696;10.585987;-0.0019986038;0.10107868;0.15955205;10.8;58.500004;-45.15;-;-;-;-;-;-;-;-;-
1531156542401;-;-;0.24908204;1.096919;10.5620365;-0.013183881;0.15700506;0.17606366;10.8;59.850002;-45.600002;-;-;-;-;-;-;-;-;-
1531156542411;-;-;0.20597169;0.977168;10.442286;-0.0057270294;0.18257141;0.20855422;10.8;59.850002;-45.600002;-;-;-;-;-;-;-;-;-
1531156542421;-;-;0.22513184;0.8813672;10.447076;-0.025434421;0.19109352;0.24211004;9.6;59.7;-46.2;-;-;-;-;-;-;-;-;-
1531156542432;-;-;0.34967285;0.9196875;10.547667;-0.030228112;0.19801775;0.2527627;9.6;59.7;-46.2;-;-;-;-;-;-;-;-;-
1531156542442;-;-;0.38320315;0.81909674;10.902129;-0.043011285;0.17617983;0.25862166;9.75;59.100002;-46.350002;-;-;-;-;-;-;-;-;-
1531156542452;-;-;0.53169435;0.847837;11.045831;-0.01797757;0.13356924;0.26235008;11.25;60.000004;-46.5;-;-;-;-;-;-;-;-;-
1531156542462;-;-;0.46463382;0.67539555;11.242222;0.052329883;0.06912074;0.24317531;11.25;60.000004;-46.5;-;-;-;-;-;-;-;-;-
1531156542473;-;-;0.35925296;0.6322852;11.156001;0.1087889;0.028640699;0.23305531;12.0;60.750004;-45.75;-;-;-;-;-;-;-;-;-
1531156542482;-;-;-0.019160157;0.47900394;11.127261;0.19454269;-0.0065130293;0.24211004;12.0;60.750004;-45.75;-;-;-;-;-;-;-;-;-
1531156542492;-;-;-0.15328126;0.45026368;11.045831;0.2675133;9.43822E-4;0.28152484;12.0;60.750004;-45.75;-;-;-;-;-;-;-;-;-
1531156542503;-;-;-0.15328126;0.34488282;10.763218;0.39001873;0.038228076;0.3534302;10.200001;58.65;-44.550003;-;-;-;-;-;-;-;-;-
1531156542512;-;-;-0.18681154;0.3544629;10.523716;0.46618512;0.044619665;0.39071447;10.200001;58.65;-44.550003;-;-;-;-;-;-;-;-;-
1531156542522;-;-;0.014370117;0.2682422;10.044712;0.5450147;0.021183847;0.42906398;11.1;58.050003;-48.0;-;-;-;-;-;-;-;-;-
1531156542533;-;-;0.14849122;0.28740236;9.613608;0.550341;-0.005980397;0.44184715;11.1;58.500004;-46.800003;-;-;-;-;-;-;-;-;-
1531156542543;-;-;0.34967285;0.38320315;9.378897;0.47630513;-0.11570264;0.4274661;11.1;58.500004;-46.800003;-;-;-;-;-;-;-;-;-
1531156542553;-;-;0.6322852;0.3879932;9.335787;0.3948124;-0.20198905;0.38858393;12.450001;57.15;-47.100002;-;-;-;-;-;-;-;-;-
1531156542564;-;-;1.092129;0.40715334;9.77647;0.23662063;-0.3255597;0.26980695;12.450001;57.15;-47.100002;-;-;-;-;-;-;-;-;-
1531156542574;-;-;1.1591895;0.35925296;9.934542;0.18069425;-0.34526712;0.22346792;12.3;56.550003;-48.600002;-;-;-;-;-;-;-;-;-
1531156542585;-;-;1.4418018;0.22513184;10.653048;0.02250248;-0.33621237;0.0711351;12.3;56.550003;-48.600002;-;-;-;-;-;-;-;-;-
1531156542595;-;-;1.341211;0.11496094;10.96919;-0.04673971;-0.29679757;-0.012488154;12.6;58.350002;-47.7;-;-;-;-;-;-;-;-;-
1531156542606;-;-;1.2741505;-0.06706055;11.194322;-0.06751237;-0.23501226;-0.07533876;12.6;58.350002;-47.7;-;-;-;-;-;-;-;-;-
1531156542616;-;-;1.0490186;-0.10538086;11.156001;-0.074969225;-0.13860582;-0.12700409;11.25;56.250004;-47.7;-;-;-;-;-;-;-;-;-
1531156542627;-;-;0.5221143;-0.2778223;11.03625;-0.068045005;-0.007578294;-0.16588624;11.25;56.250004;-47.7;-;-;-;-;-;-;-;-;-
1531156542636;-;-;0.36883304;-0.2921924;10.863809;-0.06644711;0.024912274;-0.15470096;10.200001;57.300003;-48.15;-;-;-;-;-;-;-;-;-
1531156542647;-;-;0.06706055;-0.23471193;10.509346;-0.060588147;0.103209205;-0.13499357;10.200001;57.300003;-48.15;-;-;-;-;-;-;-;-;-
1531156542657;-;-;-0.033530276;-0.1820215;10.346485;-0.038217593;0.15487453;-0.11422091;10.8;58.050003;-47.100002;-;-;-;-;-;-;-;-;-
1531156542667;-;-;0.038320314;-0.15328126;10.274634;-0.023303892;0.1676577;-0.09238299;10.8;58.050003;-47.100002;-;-;-;-;-;-;-;-;-
1531156542677;-;-;-0.009580079;-0.06227051;10.025552;0.018241422;0.17990825;-0.084926136;10.5;58.500004;-48.45;-;-;-;-;-;-;-;-;-
1531156542688;-;-;-0.023950197;0.086220704;9.651929;0.075233065;0.19641985;-0.07267559;10.5;58.500004;-48.45;-;-;-;-;-;-;-;-;-
1531156542698;-;-;0.014370117;0.12933107;9.407638;0.101332046;0.18629983;-0.058827158;11.700001;58.350002;-46.2;-;-;-;-;-;-;-;-;-
1531156542708;-;-;0.23471193;0.3065625;9.153765;0.10186468;0.17404929;-0.06095769;11.700001;58.350002;-46.2;-;-;-;-;-;-;-;-;-
1531156542718;-;-;0.19160157;0.45505372;8.919053;0.07683096;0.19908302;-0.053500835;11.85;56.7;-48.0;-;-;-;-;-;-;-;-;-
1531156542729;-;-;0.1580713;0.51732427;8.818462;0.06404779;0.22518198;-0.057761893;11.85;56.7;-48.0;-;-;-;-;-;-;-;-;-
1531156542739;-;-;0.16765137;0.5556446;8.813672;0.0624499;0.23050831;-0.05935979;10.200001;56.850002;-46.95;-;-;-;-;-;-;-;-;-
1531156542749;-;-;0.13891114;0.6706055;8.56459;0.03475302;0.24542202;-0.048174515;10.200001;56.850002;-46.95;-;-;-;-;-;-;-;-;-
1531156542759;-;-;0.1101709;0.7568262;8.62207;0.012915098;0.19748512;-0.065751374;11.400001;57.15;-48.750004;-;-;-;-;-;-;-;-;-
1531156542769;-;-;0.081430666;0.7041358;8.708291;0.0081214085;0.1660598;-0.06415348;11.400001;57.15;-48.750004;-;-;-;-;-;-;-;-;-
1531156542780;-;-;0.13891114;0.8095166;8.708291;1.3192522E-4;0.092556566;-0.051370308;11.25;56.850002;-47.4;-;-;-;-;-;-;-;-;-
1531156542790;-;-;0.26345217;0.8382569;8.885523;0.028894067;-0.014502512;-0.036989238;11.25;56.850002;-47.4;-;-;-;-;-;-;-;-;-
1531156542801;-;-;0.26345217;0.8382569;8.885523;0.028894067;-0.014502512;-0.036989238;11.400001;57.15;-48.0;-;-;-;-;-;-;-;-;-
1531156542811;-;-;0.488584;0.98195803;8.837623;0.036350917;-0.05125414;-0.056163996;11.400001;57.15;-48.0;-;-;-;-;-;-;-;-;-
1531156542821;-;-;0.5556446;1.1064991;8.756192;-0.0041291327;9.43822E-4;-0.09131773;13.950001;57.15;-46.800003;-;-;-;-;-;-;-;-;-
1531156542831;-;-;0.5460645;1.0490186;8.756192;-0.028097581;0.034499653;-0.105698794;13.950001;57.15;-46.800003;-;-;-;-;-;-;-;-;-
1531156542842;-;-;0.32093263;0.98195803;8.875943;-0.07443659;0.106405005;-0.13659146;12.3;57.300003;-47.4;-;-;-;-;-;-;-;-;-
1531156542852;-;-;0.1580713;1.1112891;8.966953;-0.082958706;0.11972081;-0.13659146;12.900001;56.4;-49.2;-;-;-;-;-;-;-;-;-
1531156542863;-;-;-0.033530276;1.0346485;9.077125;-0.08508924;0.11386185;-0.11635144;12.900001;56.4;-49.2;-;-;-;-;-;-;-;-;-
1531156542873;-;-;-0.23471193;1.21188;9.129815;-0.06431658;0.08563235;-0.065751374;12.900001;56.4;-49.2;-;-;-;-;-;-;-;-;-
1531156542883;-;-;-0.081430666;1.22146;9.072334;-0.009983742;0.034493566;0.001348148;13.35;58.95;-48.15;-;-;-;-;-;-;-;-;-
1531156542894;-;-;-0.06227051;1.2502003;9.062755;0.018245766;0.013720907;0.017327115;11.25;58.350002;-48.15;-;-;-;-;-;-;-;-;-
1531156542904;-;-;0.06706055;1.3843213;8.919053;0.03848579;-0.03315073;0.012533424;11.25;58.350002;-48.15;-;-;-;-;-;-;-;-;-
1531156542914;-;-;0.14849122;1.5567628;8.751402;0.035289995;-0.060314972;-0.0023802775;11.25;57.600002;-47.7;-;-;-;-;-;-;-;-;-
1531156542925;-;-;0.1820215;1.5998731;8.851993;-0.010516374;-0.08588132;-0.011967657;11.25;57.600002;-47.7;-;-;-;-;-;-;-;-;-
1531156542935;-;-;0.21555176;1.6765138;8.933423;-0.035017457;-0.08321816;-0.021022405;12.900001;57.750004;-48.0;-;-;-;-;-;-;-;-;-
1531156542946;-;-;0.06227051;1.6046631;9.163345;-0.066975385;-0.07469604;-0.032740317;12.900001;57.750004;-48.0;-;-;-;-;-;-;-;-;-
1531156542956;-;-;-0.009580079;1.590293;9.311836;-0.06591012;-0.09227291;-0.026348727;11.400001;57.750004;-49.65;-;-;-;-;-;-;-;-;-
1531156542966;-;-;-0.086220704;1.6046631;9.575289;-0.066975385;-0.1418077;-0.0130329225;11.400001;57.750004;-49.65;-;-;-;-;-;-;-;-;-
1531156542977;-;-;0.023950197;1.6621436;9.934542;-0.041941676;-0.17216775;0.015196586;10.950001;56.550003;-47.7;-;-;-;-;-;-;-;-;-
1531156542987;-;-;0.22992188;1.7387843;10.063872;-0.022766916;-0.19027725;0.011468161;10.950001;56.550003;-47.7;-;-;-;-;-;-;-;-;-
1531156542998;-;-;0.41194338;1.7723145;10.289004;0.0065278574;-0.19666883;-0.010369761;11.1;57.750004;-49.95;-;-;-;-;-;-;-;-;-
1531156543008;-;-;0.45026368;1.7627344;10.332115;0.02410472;-0.19027725;-0.037534006;11.1;57.750004;-49.95;-;-;-;-;-;-;-;-;-
1531156543019;-;-;0.40715334;1.7771046;10.336905;0.034224734;-0.16684143;-0.059371926;12.150001;57.750004;-49.2;-;-;-;-;-;-;-;-;-
1531156543028;-;-;0.3544629;1.6669337;10.408755;0.01185418;-0.18175513;-0.07694879;12.150001;57.750004;-49.2;-;-;-;-;-;-;-;-;-
1531156543038;-;-;0.4167334;1.6142433;10.384805;-0.019038491;-0.17056985;-0.09772145;12.6;57.300003;-48.600002;-;-;-;-;-;-;-;-;-
1531156543049;-;-;0.51732427;1.7148341;10.614727;-0.056855377;-0.15618879;-0.11849411;12.6;57.300003;-48.600002;-;-;-;-;-;-;-;-;-
1531156543059;-;-;0.60354495;1.6669337;10.87818;-0.080823824;-0.13062243;-0.16430047;10.200001;57.300003;-46.5;-;-;-;-;-;-;-;-;-
1531156543069;-;-;0.5125342;1.6094532;10.935659;-0.08721541;-0.10665397;-0.1930626;10.200001;57.300003;-46.5;-;-;-;-;-;-;-;-;-
1531156543080;-;-;0.32093263;1.5232325;10.98356;-0.08828068;-0.08854448;-0.2308795;10.950001;56.850002;-48.600002;-;-;-;-;-;-;-;-;-
1531156543090;-;-;0.20597169;1.4513819;11.00272;-0.093607;-0.08268552;-0.22981423;10.950001;56.850002;-48.600002;-;-;-;-;-;-;-;-;-
1531156543100;-;-;0.18681154;1.2310401;11.031461;-0.09627016;-0.06936972;-0.20478052;10.200001;58.350002;-49.050003;-;-;-;-;-;-;-;-;-
1531156543110;-;-;0.28740236;1.1496094;11.1176815;-0.09733542;-0.060847607;-0.19252998;11.700001;58.65;-47.4;-;-;-;-;-;-;-;-;-
1531156543121;-;-;0.33530274;1.1352394;11.213482;-0.066975385;-0.02356335;-0.17122468;11.700001;58.65;-47.4;-;-;-;-;-;-;-;-;-
1531156543130;-;-;0.44547364;1.1160791;11.318863;-0.044604838;0.014786171;-0.16216993;11.700001;58.65;-47.4;-;-;-;-;-;-;-;-;-
1531156543140;-;-;0.364043;1.1496094;11.0123005;0.015582605;0.056864116;-0.1435278;10.8;57.15;-48.750004;-;-;-;-;-;-;-;-;-
1531156543150;-;-;0.2203418;1.21188;10.863809;0.05286686;0.065386236;-0.09825408;10.5;58.500004;-48.750004;-;-;-;-;-;-;-;-;-
1531156543161;-;-;0.3784131;1.22625;10.609937;0.10080376;0.048342;-0.029011888;10.5;58.500004;-48.750004;-;-;-;-;-;-;-;-;-
1531156543171;-;-;0.63707525;1.3603711;10.447076;0.09228165;0.030765139;0.010935528;10.8;59.550003;-47.550003;-;-;-;-;-;-;-;-;-
1531156543181;-;-;0.9867481;1.4322218;10.327325;0.051801596;0.024373552;0.031175552;10.8;59.550003;-47.550003;-;-;-;-;-;-;-;-;-
