TimeStamp[ms];Prox[Cm];Lux[lux];AccX[m/s^2];AccY[m/s^2];AccZ[m/s^2];GyroX[rad/s];GyroY[rad/s];GyroZ[rad/s];MagnX[uT];MagnY[uT];MagnZ[uT];OrienYaw[degrees];OrienPitch[degrees];OrienRoll[degrees];Press[Pa];Temp[C°];Batt[%];Lat;Lng;Speed[m/s]
1531162687469;-;-;-0.2921924;0.6849756;10.073453;0.04870855;0.011674879;-0.0024891254;12.3;60.000004;-42.9;348.7367;-3.8560386;-2.129969;-;-;-;-;-;-
1531162687469;-;-;-0.28261232;0.68976563;10.059082;0.04870855;0.011674879;-0.0024891254;12.3;60.000004;-42.9;348.7367;-3.8560386;-2.129969;-;-;-;-;-;-
1531162687488;-;-;-0.44547364;0.6322852;9.905801;0.026870629;0.030317007;-0.0051522865;14.400001;58.350002;-43.350002;348.74643;-3.903861;-2.1389725;-;-;-;-;-;-
1531162687488;-;-;-0.44547364;0.6322852;9.905801;0.026870629;0.030317007;-0.0051522865;14.400001;58.350002;-43.350002;348.74643;-3.903861;-2.1389725;-;-;-;-;-;-
1531162687496;-;-;-0.50774413;0.6227051;9.915381;-0.0034894082;0.010076983;0.010294048;14.400001;58.350002;-43.350002;348.74643;-3.903861;-2.1389725;-;-;-;-;-;-
1531162687506;-;-;-0.57001466;0.613125;9.910591;-0.002956776;0.00475066;0.018283531;14.400001;58.350002;-43.350002;348.74643;-3.903861;-2.1389725;-;-;-;-;-;-
1531162687516;-;-;-0.51732427;0.7807764;9.81958;-0.020001007;0.0068811886;0.02307722;13.200001;58.500004;-41.850002;348.7544;-3.9436674;-2.1687732;-;-;-;-;-;-
1531162687526;-;-;-0.44547364;0.6562354;9.72857;-0.032784183;-0.0032388233;0.028936177;13.200001;58.500004;-41.850002;348.7544;-3.9436674;-2.1687732;-;-;-;-;-;-
1531162687536;-;-;-0.34009278;0.6514453;9.594449;-0.05142631;-0.010163043;0.021479324;12.6;59.4;-42.15;348.74228;-3.9418726;-2.1834831;-;-;-;-;-;-
1531162687546;-;-;-0.364043;0.62749517;9.64714;-0.06367685;0.002087499;0.027338278;12.6;59.4;-42.15;348.74228;-3.9418726;-2.1834831;-;-;-;-;-;-
1531162687557;-;-;-0.4023633;0.5987549;9.848321;-0.07752529;0.00954435;0.021479324;13.500001;57.45;-42.300003;348.71368;-3.9194143;-2.1838996;-;-;-;-;-;-
1531162687567;-;-;-0.4406836;0.57959473;9.996812;-0.08444951;0.026588582;0.019881427;13.500001;57.45;-42.300003;348.71368;-3.9194143;-2.1838996;-;-;-;-;-;-
1531162687577;-;-;-0.47900394;0.5412744;10.121353;-0.08072108;0.01646857;0.03053407;14.250001;57.15;-43.050003;348.68512;-3.8572006;-2.1740706;-;-;-;-;-;-
1531162687587;-;-;-0.45984375;0.57959473;10.193204;-0.06953581;0.0036853957;0.03692566;14.400001;57.9;-41.7;348.65704;-3.7661123;-2.187715;-;-;-;-;-;-
1531162687597;-;-;-0.25866213;0.5556446;10.322535;-0.038643137;-0.0064346166;0.035327762;14.400001;57.9;-41.7;348.65704;-3.7661123;-2.187715;-;-;-;-;-;-
1531162687608;-;-;-0.19639161;0.67539555;10.437495;-0.0018915114;-0.021348318;0.01562037;14.55;59.550003;-41.550003;348.6186;-3.6798663;-2.197381;-;-;-;-;-;-
1531162687617;-;-;0.45984375;0.6322852;10.748848;0.08705807;-0.022946216;-0.035512324;14.55;59.550003;-41.550003;348.6186;-3.6798663;-2.197381;-;-;-;-;-;-
1531162687627;-;-;-0.18681154;0.9436377;10.279425;0.12860338;-0.035196755;-0.070666045;13.650001;57.600002;-44.100002;348.6186;-3.6798663;-2.197381;-;-;-;-;-;-
1531162687638;-;-;-0.5987549;1.0538087;9.546548;0.114756785;-0.061831422;-0.01581426;13.650001;57.600002;-44.100002;348.58722;-3.6580012;-2.1809607;-;-;-;-;-;-
1531162687647;-;-;-0.52690434;0.5748047;9.484278;0.056699876;0.023922367;0.017741572;13.200001;57.45;-43.5;348.6361;-3.7697434;-2.1517053;-;-;-;-;-;-
1531162687657;-;-;-0.11496094;0.8382569;9.565708;-0.034912866;0.015400251;0.012947881;13.200001;57.45;-43.5;348.6361;-3.7697434;-2.1517053;-;-;-;-;-;-
1531162687667;-;-;-0.12454102;0.852627;9.74294;-0.06580554;0.037238173;-0.009422672;13.05;58.350002;-40.95;348.64404;-3.8710957;-2.1322396;-;-;-;-;-;-
1531162687678;-;-;0.0;0.7232959;10.130933;-0.08764346;0.020193942;-0.048304826;13.05;58.350002;-40.95;348.64404;-3.8710957;-2.1322396;-;-;-;-;-;-
1531162687688;-;-;-0.1341211;0.68018556;10.317744;-0.065272905;0.0074107684;-0.05682694;13.35;56.850002;-42.15;348.63916;-3.8180413;-2.1569831;-;-;-;-;-;-
1531162687698;-;-;-0.39278322;0.53169435;10.461446;0.0034366534;-0.0043071406;-0.048304826;13.35;56.850002;-42.15;348.63916;-3.8180413;-2.1569831;-;-;-;-;-;-
1531162687709;-;-;-0.39757326;0.5221143;10.447076;0.04018828;-0.022416636;-0.026466902;14.55;57.750004;-43.95;348.68683;-3.7302394;-2.1832538;-;-;-;-;-;-
1531162687719;-;-;-0.15328126;0.67539555;10.514136;0.08439675;-0.032004017;-0.03285849;14.55;57.750004;-43.95;348.68683;-3.7302394;-2.1832538;-;-;-;-;-;-
1531162687729;-;-;-0.39278322;0.7424561;10.030342;0.10090835;-0.041591395;-0.043511137;13.950001;58.500004;-40.65;348.7368;-3.7341313;-2.1734319;-;-;-;-;-;-
1531162687740;-;-;-0.36883304;0.56522465;9.642349;0.09824519;0.011671826;-0.013151098;13.950001;58.500004;-40.65;348.7368;-3.7341313;-2.1734319;-;-;-;-;-;-
1531162687750;-;-;-0.34009278;0.6610254;9.484278;0.05456935;0.039901335;-0.019542687;13.200001;58.050003;-41.100002;348.77698;-3.829473;-2.1415231;-;-;-;-;-;-
1531162687761;-;-;-0.35925296;0.6227051;9.431587;0.010360872;0.070261374;-0.025934272;13.200001;58.050003;-41.100002;348.77698;-3.829473;-2.1415231;-;-;-;-;-;-
1531162687770;-;-;-0.3161426;0.56522465;9.541759;-0.0034875656;0.06386979;-0.02540164;12.450001;58.800003;-41.550003;348.79694;-3.9304073;-2.1582437;-;-;-;-;-;-
1531162687780;-;-;-0.364043;0.53169435;9.599238;-0.026923383;0.02924869;-0.03711955;12.450001;58.800003;-41.550003;348.79694;-3.9304073;-2.1582437;-;-;-;-;-;-
1531162687790;-;-;-0.3784131;0.60833496;9.72378;-0.0354455;0.024455;-0.048837457;15.6;57.45;-41.850002;348.81824;-3.9465468;-2.226451;-;-;-;-;-;-
1531162687801;-;-;-0.49337405;0.63707525;9.77168;-0.0354455;-0.009633463;-0.0445764;15.6;57.45;-41.850002;348.81824;-3.9465468;-2.226451;-;-;-;-;-;-
1531162687811;-;-;-0.5748047;0.60833496;9.939331;-0.028521279;-0.017622946;-0.036586918;14.85;58.050003;-43.5;348.85803;-3.9175603;-2.271284;-;-;-;-;-;-
1531162687821;-;-;-0.5843848;0.5604346;9.934542;-0.013074946;-0.014427153;-0.03072796;14.85;58.050003;-43.5;348.85803;-3.9175603;-2.271284;-;-;-;-;-;-
1531162687832;-;-;-0.56522465;0.57001466;9.848321;-0.0077486234;-0.007502934;-0.012618466;14.250001;57.750004;-41.100002;348.91156;-3.8761506;-2.2730384;-;-;-;-;-;-
1531162687842;-;-;-0.5987549;0.6179151;9.920172;-0.021064429;0.013802355;-0.012618466;14.250001;57.750004;-41.100002;348.91156;-3.8761506;-2.2730384;-;-;-;-;-;-
1531162687852;-;-;-0.5029541;0.6179151;9.901011;-0.025325486;0.03457501;-0.0072921435;13.35;58.65;-40.5;348.94202;-3.8640358;-2.2584398;-;-;-;-;-;-
1531162687862;-;-;-0.488584;0.6179151;9.829161;-0.039173923;0.01699815;0.0028278688;13.35;58.65;-40.5;348.94202;-3.8640358;-2.2584398;-;-;-;-;-;-
1531162687872;-;-;-0.5364844;0.5556446;10.059082;-0.03597813;0.011671826;-0.00409635;14.250001;59.100002;-43.95;348.95215;-3.8464973;-2.2727118;-;-;-;-;-;-
1531162687883;-;-;-0.5029541;0.5556446;10.145303;-0.034380235;0.0074107684;0.0028278688;14.250001;59.100002;-43.95;348.95215;-3.8464973;-2.2727118;-;-;-;-;-;-
1531162687893;-;-;-0.613125;0.60354495;10.207574;-0.013074946;0.009008665;0.020404734;13.650001;57.9;-42.15;348.9514;-3.8101034;-2.2975307;-;-;-;-;-;-
1531162687903;-;-;-0.44547364;0.5556446;10.092612;0.0055671823;0.0047476073;0.027861584;13.650001;57.9;-42.15;348.9514;-3.8101034;-2.2975307;-;-;-;-;-;-
1531162687914;-;-;-0.39757326;0.5843848;9.910591;0.0039692856;-0.0032418761;0.03691633;14.400001;60.000004;-42.9;348.94846;-3.768937;-2.307647;-;-;-;-;-;-
1531162687924;-;-;-0.34488282;0.5987549;9.920172;-0.0056180945;0.013269722;0.025731053;14.400001;60.000004;-42.9;348.94846;-3.768937;-2.307647;-;-;-;-;-;-
1531162687934;-;-;-0.29698244;0.56522465;9.934542;-0.01946653;0.024987632;0.020404734;13.650001;59.4;-42.15;348.91965;-3.7663603;-2.3070087;-;-;-;-;-;-
1531162687944;-;-;-0.4406836;0.64186525;10.102193;-0.02639075;0.03457501;0.013480513;13.650001;59.4;-42.15;348.91965;-3.7663603;-2.3070087;-;-;-;-;-;-
1531162687955;-;-;-0.50774413;0.5604346;10.073453;-0.008813888;0.037770804;0.009752088;13.200001;59.550003;-43.5;348.8874;-3.7646484;-2.3105755;-;-;-;-;-;-
1531162687965;-;-;-0.57959473;0.5508545;10.059082;-8.2440436E-4;0.03191185;0.020404734;13.200001;59.550003;-43.5;348.8874;-3.7646484;-2.3105755;-;-;-;-;-;-
1531162687975;-;-;-0.49337405;0.6610254;10.001602;0.010360872;0.025520265;0.033187903;14.1;57.9;-42.45;348.86926;-3.7351074;-2.3412724;-;-;-;-;-;-
1531162687986;-;-;-0.5221143;0.5891748;9.867481;0.008762975;0.027650792;0.042775284;14.1;57.9;-42.45;348.86926;-3.7351074;-2.3412724;-;-;-;-;-;-
1531162687996;-;-;-0.3879932;0.6466553;9.81958;0.0119587695;0.0047476073;0.0512974;14.700001;57.600002;-41.7;348.84543;-3.7260337;-2.3781059;-;-;-;-;-;-
1531162688006;-;-;-0.35925296;0.5891748;9.81;0.0076977112;-0.018155579;0.05342793;14.1;58.95;-42.15;348.7944;-3.738394;-2.4008133;-;-;-;-;-;-
1531162688016;-;-;-0.2921924;0.68018556;9.814791;-0.006683359;-0.019220844;0.049166873;14.1;58.95;-42.15;348.7944;-3.738394;-2.4008133;-;-;-;-;-;-
1531162688026;-;-;-0.28740236;0.7089258;9.992022;-0.00934652;-0.027210327;0.05076477;13.650001;57.300003;-41.25;348.73218;-3.7506778;-2.3908215;-;-;-;-;-;-
1531162688037;-;-;-0.13891114;0.7424561;9.83874;-0.00455283;-0.047982983;0.042775284;13.650001;57.300003;-41.25;348.73218;-3.7506778;-2.3908215;-;-;-;-;-;-
1531162688047;-;-;-0.019160157;0.79993653;9.83874;-0.0072159907;-0.019753475;0.039579492;14.1;59.7;-42.45;348.67694;-3.7408044;-2.361559;-;-;-;-;-;-
1531162688058;-;-;-0.1101709;0.728086;9.623189;-0.04023919;-0.019753475;0.01507841;14.1;59.7;-42.45;348.67694;-3.7408044;-2.361559;-;-;-;-;-;-
1531162688067;-;-;-0.119750984;0.75203615;9.6615095;-0.060479213;-0.014959785;0.01028472;13.650001;58.65;-41.7;348.6391;-3.730842;-2.3179073;-;-;-;-;-;-
1531162688078;-;-;-0.16765137;0.8286768;9.594449;-0.09243715;-0.011763992;-0.020607948;13.650001;58.65;-41.7;348.6391;-3.730842;-2.3179073;-;-;-;-;-;-
1531162688088;-;-;-0.1820215;0.78556645;9.536968;-0.11427507;-0.008035566;-0.028064802;13.200001;58.800003;-42.75;348.62814;-3.6737442;-2.2990918;-;-;-;-;-;-
1531162688099;-;-;-0.23471193;0.7664063;9.6615095;-0.1313193;0.009541297;-0.050967988;13.200001;58.800003;-42.75;348.62814;-3.6737442;-2.2990918;-;-;-;-;-;-
1531162688108;-;-;-0.39278322;0.7185059;9.766891;-0.14410248;0.014334988;-0.05629431;12.900001;58.500004;-42.300003;348.65564;-3.5582197;-2.2844644;-;-;-;-;-;-
1531162688120;-;-;-0.43589357;0.6849756;9.848321;-0.14836353;-0.0032418761;-0.05629431;12.900001;58.500004;-42.300003;348.65564;-3.5582197;-2.2844644;-;-;-;-;-;-
1531162688129;-;-;-0.3879932;0.6179151;9.953702;-0.1478309;-0.013894521;-0.052033253;12.900001;59.100002;-43.050003;348.71744;-3.3996458;-2.295934;-;-;-;-;-;-
1531162688139;-;-;-0.4023633;0.6227051;10.188414;-0.11373988;-0.03413879;-0.04671991;12.900001;59.100002;-43.050003;348.71744;-3.3996458;-2.295934;-;-;-;-;-;-
1531162688150;-;-;-0.3544629;0.5364844;10.116563;-0.09563038;-0.034671426;-0.04299148;13.35;57.300003;-42.45;348.78;-3.2263918;-2.2869647;-;-;-;-;-;-
1531162688159;-;-;-0.2921924;0.53169435;10.140513;-0.078586146;-0.020290354;-0.03979569;13.35;57.300003;-42.45;348.78;-3.2263918;-2.2869647;-;-;-;-;-;-
1531162688169;-;-;-0.31135255;0.53169435;10.015972;-0.07485773;-0.0144314;-0.052578863;12.3;59.7;-42.9;348.83316;-3.091274;-2.2503767;-;-;-;-;-;-
1531162688179;-;-;-0.21555176;0.48379397;10.020762;-0.08337984;0.0010149344;-0.045654643;12.3;59.7;-42.9;348.83316;-3.091274;-2.2503767;-;-;-;-;-;-
1531162688190;-;-;-0.2203418;0.4263135;10.083033;-0.08124931;-0.0027134912;-0.058437817;13.500001;58.800003;-41.550003;348.8869;-2.9935172;-2.2271142;-;-;-;-;-;-
1531162688200;-;-;-0.22513184;0.4406836;10.015972;-0.08337984;-0.006974549;-0.069090456;13.500001;58.800003;-41.550003;348.8869;-2.9935172;-2.2271142;-;-;-;-;-;-
1531162688210;-;-;-0.32093263;0.364043;9.987232;-0.09190196;0.0042107278;-0.07441678;12.450001;59.550003;-42.300003;348.94446;-2.900878;-2.2271268;-;-;-;-;-;-
1531162688221;-;-;-0.364043;0.28740236;9.79084;-0.10788092;0.02391812;-0.085069425;12.450001;59.550003;-42.300003;348.94446;-2.900878;-2.2271268;-;-;-;-;-;-
1531162688230;-;-;-0.4167334;0.26345217;9.73815;-0.12492515;0.010069683;-0.08187363;13.05;59.4;-41.7;349.02658;-2.799754;-2.2312608;-;-;-;-;-;-
1531162688240;-;-;-0.57959473;0.1580713;9.891431;-0.14196938;0.018591799;-0.077079944;13.05;59.4;-41.7;349.02658;-2.799754;-2.2312608;-;-;-;-;-;-
1531162688250;-;-;-0.5891748;0.1580713;10.073453;-0.14782834;0.0042107278;-0.07494941;12.3;58.350002;-42.15;349.1267;-2.6697366;-2.2524014;-;-;-;-;-;-
1531162688261;-;-;-0.4742139;0.07185059;10.188414;-0.12492515;0.013265476;-0.063231505;12.3;58.350002;-42.15;349.1267;-2.6697366;-2.2524014;-;-;-;-;-;-
1531162688271;-;-;-0.5029541;0.023950197;10.188414;-0.10521776;0.012732843;-0.059503082;12.900001;59.100002;-42.75;349.21985;-2.5031319;-2.270469;-;-;-;-;-;-
1531162688281;-;-;-0.5939649;0.047900394;10.039923;-0.1025546;0.012200212;-0.04725254;12.900001;59.100002;-42.75;349.21985;-2.5031319;-2.270469;-;-;-;-;-;-
1531162688292;-;-;-0.6322852;0.10538086;9.8866415;-0.101489335;0.034570765;-0.025414618;14.700001;58.65;-41.7;349.29602;-2.3524313;-2.2798054;-;-;-;-;-;-
1531162688301;-;-;-0.57959473;0.038320314;10.0063925;-0.10894619;0.041494984;-0.010500915;14.700001;58.65;-41.7;349.29602;-2.3524313;-2.2798054;-;-;-;-;-;-
1531162688312;-;-;-0.5604346;0.09101075;9.972861;-0.10468513;0.038831823;0.0054780515;12.450001;59.850002;-41.100002;349.34525;-2.2307873;-2.2976046;-;-;-;-;-;-
1531162688321;-;-;-0.6227051;0.07185059;9.934542;-0.1057504;0.0500171;0.008141213;12.450001;59.850002;-41.100002;349.34525;-2.2307873;-2.2976046;-;-;-;-;-;-
1531162688332;-;-;-0.5556446;0.1580713;9.862691;-0.099358805;0.048419204;0.0028148906;13.500001;58.500004;-42.75;349.35843;-2.1052394;-2.341094;-;-;-;-;-;-
1531162688341;-;-;-0.57959473;0.12454102;9.685459;-0.10681566;0.021787591;0.011337006;13.500001;58.500004;-42.75;349.35843;-2.1052394;-2.341094;-;-;-;-;-;-
1531162688351;-;-;-0.45026368;0.13891114;9.905801;-0.11959883;-0.02188825;0.014000168;14.1;60.750004;-40.5;349.3504;-1.9828482;-2.394708;-;-;-;-;-;-
1531162688361;-;-;-0.5125342;0.1341211;9.982442;-0.110544086;-0.035736687;0.008673845;14.1;60.750004;-40.5;349.3504;-1.9828482;-2.394708;-;-;-;-;-;-
1531162688372;-;-;-0.52690434;0.1580713;10.135723;-0.10521776;-0.025084045;0.018793857;13.35;60.300003;-42.45;349.3382;-1.8544558;-2.4171295;-;-;-;-;-;-
1531162688381;-;-;-0.5364844;0.16765137;10.130933;-0.086043;-0.006974549;0.035838086;13.35;60.300003;-42.45;349.3382;-1.8544558;-2.4171295;-;-;-;-;-;-
1531162688391;-;-;-0.488584;0.1820215;9.924961;-0.07432509;0.0095370505;0.035305455;13.500001;59.550003;-41.550003;349.32205;-1.7214663;-2.3810472;-;-;-;-;-;-
1531162688402;-;-;-0.45984375;0.2921924;9.656719;-0.08231457;0.020722328;0.046490733;13.500001;59.550003;-41.550003;349.32205;-1.7214663;-2.3810472;-;-;-;-;-;-
1531162688412;-;-;-0.35925296;0.2778223;9.632769;-0.09509775;-0.0032461234;0.053947583;13.950001;59.850002;-41.850002;349.29095;-1.6191742;-2.3695574;-;-;-;-;-;-
1531162688422;-;-;-0.25387207;0.30177248;9.671089;-0.110544086;-0.032540895;0.047023363;13.950001;59.850002;-41.850002;349.29095;-1.6191742;-2.3695574;-;-;-;-;-;-
1531162688433;-;-;-0.20118165;0.32093263;9.83874;-0.11214198;-0.04053038;0.029979134;13.35;60.750004;-42.15;349.24255;-1.5269377;-2.3860652;-;-;-;-;-;-
1531162688443;-;-;-0.17244141;0.32093263;9.81;-0.11480514;-0.03413879;0.01932649;13.35;60.750004;-42.15;349.24255;-1.5269377;-2.3860652;-;-;-;-;-;-
1531162688454;-;-;-0.3065625;0.2921924;9.7621;-0.12599042;-0.02401878;-0.008370386;14.1;59.7;-40.95;349.19547;-1.4079928;-2.3632467;-;-;-;-;-;-
1531162688464;-;-;-0.33530274;0.38320315;9.83874;-0.12918621;-0.02188825;-9.13535E-4;14.1;59.7;-40.95;349.19547;-1.4079928;-2.3632467;-;-;-;-;-;-
1531162688475;-;-;-0.45026368;0.36883304;9.80521;-0.13611042;-0.04532407;0.0028148906;14.1;60.000004;-42.15;349.17847;-1.2773097;-2.3197186;-;-;-;-;-;-
1531162688485;-;-;-0.38320315;0.31135255;9.872271;-0.13131674;-0.06929252;0.018793857;13.650001;61.050003;-42.45;349.17902;-1.1291476;-2.2899356;-;-;-;-;-;-
1531162688495;-;-;-0.28261232;0.3879932;10.255474;-0.13983886;-0.10497888;0.023587547;13.650001;61.050003;-42.45;349.17902;-1.1291476;-2.2899356;-;-;-;-;-;-
1531162688506;-;-;-0.2682422;0.2682422;10.389595;-0.13504517;-0.1119031;0.03157703;13.650001;59.7;-40.5;349.17902;-1.1291476;-2.2899356;-;-;-;-;-;-
1531162688516;-;-;-0.033530276;0.31135255;10.7871685;-0.08817353;-0.10444625;0.037968617;13.650001;59.7;-40.5;349.16312;-0.9809543;-2.218486;-;-;-;-;-;-
1531162688526;-;-;-0.028740235;0.2682422;10.744058;-0.06633561;-0.09752203;0.028381238;14.700001;60.750004;-41.7;349.12753;-0.8315709;-2.0989194;-;-;-;-;-;-
1531162688537;-;-;-0.25866213;0.25387207;10.595567;-0.030116614;-0.05970514;0.037435982;14.700001;60.750004;-41.7;349.12753;-0.8315709;-2.0989194;-;-;-;-;-;-
1531162688547;-;-;-0.34009278;0.2778223;10.600357;-0.012007117;-0.036269322;0.04169704;13.35;60.750004;-40.5;349.0946;-0.74442655;-1.9886914;-;-;-;-;-;-
1531162688557;-;-;-0.21555176;0.28740236;10.3512745;-0.0018871053;-0.05065039;0.06353497;13.35;60.750004;-40.5;349.0946;-0.74442655;-1.9886914;-;-;-;-;-;-
1531162688568;-;-;-0.17723145;0.26345217;10.399176;-0.0040176343;-0.05757461;0.067263395;13.200001;60.9;-42.75;349.06152;-0.7177468;-1.9317663;-;-;-;-;-;-
1531162688578;-;-;-0.047900394;0.32093263;10.303374;0.0013086881;-0.035736687;0.03637072;13.200001;60.9;-42.75;349.06152;-0.7177468;-1.9317663;-;-;-;-;-;-
1531162688588;-;-;0.033530276;0.3161426;10.236314;-0.0024197376;-0.025084045;0.029446503;10.950001;59.7;-40.95;348.997;-0.71551883;-1.8704355;-;-;-;-;-;-
1531162688598;-;-;-0.119750984;0.25866213;10.140513;-0.0045502665;-0.0011155945;0.008141213;10.950001;59.7;-40.95;348.997;-0.71551883;-1.8704355;-;-;-;-;-;-
1531162688609;-;-;-0.34488282;0.25866213;10.226734;-0.0024197376;-0.0138987675;0.013467535;13.650001;60.750004;-41.7;348.9521;-0.7160936;-1.8299196;-;-;-;-;-;-
1531162688619;-;-;-0.33530274;0.28261232;10.164463;0.0013086881;-0.006441917;0.012934903;13.650001;60.750004;-41.7;348.9521;-0.7160936;-1.8299196;-;-;-;-;-;-
1531162688629;-;-;-0.33530274;0.15328126;10.202784;0.0045044813;-0.00963771;0.023587547;12.450001;61.95;-40.2;348.9371;-0.70490694;-1.812157;-;-;-;-;-;-
1531162688639;-;-;-0.3544629;0.19639161;10.188414;0.026876157;-0.023488007;0.03370188;12.450001;61.95;-40.2;348.9371;-0.70490694;-1.812157;-;-;-;-;-;-
1531162688650;-;-;-0.2778223;0.2203418;10.159674;0.047116183;-0.016563788;0.032103986;13.05;61.350002;-39.600002;348.91656;-0.70959693;-1.8017966;-;-;-;-;-;-
1531162688660;-;-;-0.34009278;0.17723145;10.039923;0.060431987;-0.014433259;0.032103986;13.05;61.350002;-39.600002;348.91656;-0.70959693;-1.8017966;-;-;-;-;-;-
1531162688670;-;-;-0.3544629;0.2203418;9.977652;0.076943584;0.0020783406;0.029440824;13.500001;61.95;-42.300003;348.8793;-0.74568313;-1.7802445;-;-;-;-;-;-
1531162688681;-;-;-0.3065625;0.25387207;9.814791;0.059899356;0.015394146;0.021983974;13.500001;61.95;-42.300003;348.8793;-0.74568313;-1.7802445;-;-;-;-;-;-
1531162688690;-;-;-0.12933107;0.22992188;9.829161;0.05670356;0.0116657205;0.015592386;13.05;61.050003;-42.15;348.8476;-0.81594664;-1.7660662;-;-;-;-;-;-
1531162688700;-;-;-0.244292;0.22992188;9.905801;0.033267744;0.034036275;-0.011571857;13.05;61.050003;-42.15;348.8476;-0.81594664;-1.7660662;-;-;-;-;-;-
1531162688711;-;-;-0.42152345;0.23950197;9.924961;0.025810892;0.026579423;-0.035007678;14.250001;61.2;-41.100002;348.81927;-0.8916659;-1.7781848;-;-;-;-;-;-
1531162688721;-;-;-0.57001466;0.10538086;10.039923;0.018354042;-0.017096419;-0.048323482;14.250001;61.2;-41.100002;348.81927;-0.8916659;-1.7781848;-;-;-;-;-;-
1531162688731;-;-;-0.7041358;-0.014370117;10.068663;0.017821409;-0.035738546;-0.013169754;12.6;59.7;-41.7;348.82962;-0.93065345;-1.8151155;-;-;-;-;-;-
1531162688742;-;-;-0.5556446;0.081430666;10.2315235;0.031669848;-0.0027153494;0.0033418448;12.6;59.7;-41.7;348.82962;-0.93065345;-1.8151155;-;-;-;-;-;-
1531162688751;-;-;-0.5604346;0.119750984;10.245894;0.046050917;0.0042088693;0.020386077;13.950001;59.850002;-41.550003;348.87363;-0.9556556;-1.8082731;-;-;-;-;-;-
1531162688761;-;-;-0.46942386;0.009580079;10.226734;0.061497252;0.024448894;0.02145134;13.950001;59.850002;-41.550003;348.87363;-0.9556556;-1.8082731;-;-;-;-;-;-
1531162688772;-;-;-0.4406836;0.023950197;10.140513;0.06735621;0.02817732;0.02145134;13.05;61.050003;-42.15;348.87012;-0.9905923;-1.78903;-;-;-;-;-;-
1531162688782;-;-;-0.37362307;0.06227051;10.087823;0.066290945;0.038297333;0.03103872;13.05;61.050003;-42.15;348.87012;-0.9905923;-1.78903;-;-;-;-;-;-
1531162688792;-;-;-0.28261232;0.07185059;9.972861;0.08440044;0.048949976;0.018788178;14.55;59.850002;-41.100002;348.84662;-1.0596234;-1.8072782;-;-;-;-;-;-
1531162688802;-;-;-0.3544629;0.11496094;9.905801;0.07374779;0.058537357;0.015059753;14.55;59.850002;-41.100002;348.84662;-1.0596234;-1.8072782;-;-;-;-;-;-
1531162688813;-;-;-0.27303225;0.07185059;9.6758795;0.06682357;0.07398369;1.460514E-4;13.05;59.7;-40.95;348.8182;-1.1382188;-1.8498237;-;-;-;-;-;-
1531162688823;-;-;-0.3065625;0.22992188;9.599238;0.052975137;0.06972263;-0.009973961;13.05;59.7;-40.95;348.8182;-1.1382188;-1.8498237;-;-;-;-;-;-
1531162688833;-;-;-0.45026368;0.11496094;9.64714;0.03699617;0.052678403;-0.015300283;15.150001;58.350002;-40.95;348.80286;-1.2270211;-1.9205472;-;-;-;-;-;-
1531162688844;-;-;-0.52690434;0.13891114;9.613608;0.02794142;0.036699437;-0.019028708;14.1;60.300003;-42.15;348.813;-1.2941047;-2.0050046;-;-;-;-;-;-
1531162688854;-;-;-0.5843848;0.07664063;9.857901;0.040724594;0.0058067665;0.0054723737;14.1;60.300003;-42.15;348.813;-1.2941047;-2.0050046;-;-;-;-;-;-
1531162688865;-;-;-0.5125342;0.1341211;9.891431;0.048181444;-0.016563788;0.015592386;13.05;60.000004;-42.15;348.8296;-1.331141;-2.0475776;-;-;-;-;-;-
1531162688874;-;-;-0.43589357;0.023950197;9.944121;0.0689541;-0.035738546;0.032103986;13.05;60.000004;-42.15;348.8296;-1.331141;-2.0475776;-;-;-;-;-;-
1531162688884;-;-;-0.3305127;0.09580079;9.924961;0.07587832;-0.028814329;0.034234513;13.200001;59.100002;-41.100002;348.81705;-1.3849628;-2.0310993;-;-;-;-;-;-
1531162688895;-;-;-0.21555176;0.22513184;9.81958;0.054573033;0.01912257;0.020918708;13.200001;59.100002;-41.100002;348.81705;-1.3849628;-2.0310993;-;-;-;-;-;-
1531162688904;-;-;-0.18681154;0.1341211;9.74773;0.043920387;0.024448894;0.026777662;13.200001;60.15;-42.75;348.81705;-1.3849628;-2.0310993;-;-;-;-;-;-
1531162688914;-;-;-0.12454102;0.16286133;9.73815;0.0050382353;0.030840479;0.010266064;13.200001;60.15;-42.75;348.78088;-1.471213;-1.9989309;-;-;-;-;-;-
1531162688925;-;-;-0.086220704;0.19639161;9.829161;-0.01733232;0.022318365;1.460514E-4;14.55;58.800003;-41.550003;348.75378;-1.523851;-2.0236652;-;-;-;-;-;-
1531162688935;-;-;-0.20597169;0.244292;9.948912;-0.030648123;0.016992044;-0.018496078;14.55;58.800003;-41.550003;348.75378;-1.523851;-2.0236652;-;-;-;-;-;-
1531162688947;-;-;-0.17244141;0.22992188;10.150093;-0.019995479;0.023383629;-0.0126371225;13.950001;59.850002;-41.850002;348.75336;-1.5124661;-2.0535817;-;-;-;-;-;-
1531162688957;-;-;-0.09580079;0.20597169;10.087823;-0.01733232;-0.0431954;-0.0014518453;13.950001;59.850002;-41.850002;348.75336;-1.5124661;-2.0535817;-;-;-;-;-;-
1531162688968;-;-;-0.12933107;0.364043;9.905801;0.0013098097;-0.061837528;-0.0126371225;15.450001;59.4;-42.9;348.7641;-1.4879154;-2.0786526;-;-;-;-;-;-
1531162688978;-;-;-0.1101709;0.1820215;9.833951;-0.0066796737;-0.03147749;-0.014767651;15.450001;59.4;-42.9;348.7641;-1.4879154;-2.0786526;-;-;-;-;-;-
1531162688988;-;-;0.0047900393;0.244292;9.800421;-0.016799686;-0.009106936;-0.0025171097;14.1;59.4;-40.5;348.774;-1.4785924;-2.033609;-;-;-;-;-;-
1531162688998;-;-;0.09580079;0.33530274;9.857901;-0.025321802;0.006339398;-0.010506594;14.1;59.4;-40.5;348.774;-1.4785924;-2.033609;-;-;-;-;-;-
1531162689009;-;-;0.09101075;0.34967285;9.877061;-0.021593377;0.01858994;-0.037138205;14.400001;59.4;-40.95;348.7905;-1.4685239;-2.004138;-;-;-;-;-;-
1531162689018;-;-;-0.019160157;0.3065625;9.73815;-0.030115493;0.011133088;-0.06749824;14.400001;59.4;-40.95;348.7905;-1.4685239;-2.004138;-;-;-;-;-;-
1531162689029;-;-;-0.038320314;0.29698244;9.77647;-0.050355516;-0.0027153494;-0.08880353;14.1;59.4;-42.9;348.81244;-1.4392549;-2.011364;-;-;-;-;-;-
1531162689038;-;-;-0.21555176;0.31135255;9.82437;-0.052486047;-0.012835362;-0.09839091;14.1;59.4;-42.9;348.81244;-1.4392549;-2.011364;-;-;-;-;-;-
1531162689048;-;-;-0.26345217;0.244292;9.867481;-0.058345;-0.03414065;-0.0999888;13.200001;59.850002;-42.300003;348.89618;-1.389224;-2.0160275;-;-;-;-;-;-
1531162689060;-;-;-0.34967285;0.20118165;9.953702;-0.054616574;-0.035205916;-0.08933616;13.200001;59.850002;-42.300003;348.89618;-1.389224;-2.0160275;-;-;-;-;-;-
1531162689070;-;-;-0.39757326;0.15328126;9.972861;-0.070062906;-0.03360802;-0.07815088;13.05;61.050003;-40.95;349.01;-1.322351;-1.9944662;-;-;-;-;-;-
1531162689081;-;-;-0.44547364;0.20597169;10.020762;-0.06526922;-0.013900626;-0.071226664;13.05;61.050003;-40.95;349.01;-1.322351;-1.9944662;-;-;-;-;-;-
1531162689091;-;-;-0.45984375;0.1341211;10.159674;-0.07379133;-0.013900626;-0.06004139;13.200001;60.600002;-41.100002;349.11615;-1.2519217;-1.9636118;-;-;-;-;-;-
1531162689101;-;-;-0.43589357;0.21555176;10.154883;-0.059410263;-0.009106936;-0.046725586;13.200001;60.600002;-41.100002;349.11615;-1.2519217;-1.9636118;-;-;-;-;-;-
1531162689112;-;-;-0.37362307;0.13891114;10.159674;-0.04929025;-0.016563788;-0.036605574;14.85;58.800003;-41.850002;349.1983;-1.1710043;-1.9454997;-;-;-;-;-;-
1531162689121;-;-;-0.37362307;0.12933107;10.212363;-0.033843916;-0.028281696;-0.032344516;14.85;58.800003;-41.850002;349.1983;-1.1710043;-1.9454997;-;-;-;-;-;-
1531162689132;-;-;-0.39757326;0.19160157;10.193204;-0.026918337;-0.03627344;-0.031286146;14.250001;59.550003;-40.2;349.2525;-1.096897;-1.9285966;-;-;-;-;-;-
1531162689142;-;-;-0.4023633;0.23471193;10.207574;-0.0056130476;-0.062372416;-0.020100867;14.250001;59.550003;-40.2;349.2525;-1.096897;-1.9285966;-;-;-;-;-;-
1531162689152;-;-;-0.3784131;0.15328126;10.183623;-0.0034825185;-0.0735577;-0.021698764;14.400001;60.000004;-41.25;349.29257;-1.0463018;-1.8957746;-;-;-;-;-;-
1531162689163;-;-;-0.4167334;0.15328126;10.265054;-0.0018846218;-0.068764;-0.008915591;14.400001;60.000004;-41.25;349.29257;-1.0463018;-1.8957746;-;-;-;-;-;-
1531162689173;-;-;-0.4023633;0.09580079;10.289004;-0.014667796;-0.06397031;-0.013709281;13.950001;60.600002;-40.2;349.32254;-1.029808;-1.8306108;-;-;-;-;-;-
1531162689184;-;-;-0.4742139;0.19160157;10.332115;-0.014135163;-0.090069294;0.00812864;13.650001;60.750004;-41.25;349.3423;-1.021487;-1.7456312;-;-;-;-;-;-
1531162689193;-;-;-0.41194338;0.16765137;10.480606;0.010898551;-0.0884714;0.0059981113;13.650001;60.750004;-41.25;349.3423;-1.021487;-1.7456312;-;-;-;-;-;-
1531162689204;-;-;-0.3544629;0.100590825;10.346485;0.027942782;-0.07462296;0.024107607;13.500001;60.9;-42.300003;349.3478;-1.0130309;-1.6477576;-;-;-;-;-;-
1531162689215;-;-;-0.22992188;0.12933107;10.2315235;0.054041766;-0.05864399;0.03689078;13.500001;60.9;-42.300003;349.3478;-1.0130309;-1.6477576;-;-;-;-;-;-
1531162689225;-;-;-0.21076173;0.19639161;10.073453;0.057237558;-0.057578728;0.036358148;13.500001;59.850002;-41.550003;349.3261;-1.0449648;-1.5578967;-;-;-;-;-;-
1531162689235;-;-;-0.11496094;0.25866213;9.83874;0.05084597;-0.02508816;0.020379182;13.500001;59.850002;-41.550003;349.3261;-1.0449648;-1.5578967;-;-;-;-;-;-
1531162689244;-;-;-0.15328126;0.28740236;9.814791;0.040725958;-0.02295763;0.0038675824;11.400001;57.750004;-42.75;349.28394;-1.1134938;-1.4950399;-;-;-;-;-;-
1531162689254;-;-;-0.19160157;0.25866213;9.766891;0.01302908;-0.005380767;-0.016372442;11.400001;57.750004;-42.75;349.28394;-1.1134938;-1.4950399;-;-;-;-;-;-
1531162689265;-;-;-0.30177248;0.25866213;9.85311;0.010365919;-0.0048481347;-0.027025087;12.3;60.000004;-41.25;349.27673;-1.1584421;-1.4702436;-;-;-;-;-;-
1531162689274;-;-;-0.32572266;0.22513184;9.82437;0.006637494;-0.027218688;-0.022231396;12.3;60.000004;-41.25;349.27673;-1.1584421;-1.4702436;-;-;-;-;-;-
1531162689285;-;-;-0.45505372;0.17244141;9.80521;0.006637494;-0.03041448;-0.02755772;12.900001;59.550003;-41.850002;349.3017;-1.1703883;-1.464193;-;-;-;-;-;-
1531162689294;-;-;-0.44547364;0.19639161;9.81958;-0.004547783;-0.027751321;-0.0073176944;12.900001;59.550003;-41.850002;349.3017;-1.1703883;-1.464193;-;-;-;-;-;-
1531162689305;-;-;-0.32093263;0.19639161;9.69504;-0.023189912;-0.020294469;-0.013176649;13.05;60.000004;-41.7;349.32953;-1.1758144;-1.4309114;-;-;-;-;-;-
1531162689314;-;-;-0.3065625;0.17723145;9.934542;-0.03703835;0.00793504;-0.013709281;13.05;60.000004;-41.7;349.32953;-1.1758144;-1.4309114;-;-;-;-;-;-
1531162689325;-;-;-0.37362307;0.086220704;10.073453;-0.041299406;0.017522419;-0.013709281;13.35;61.050003;-42.9;349.34753;-1.1533899;-1.4039612;-;-;-;-;-;-
1531162689335;-;-;-0.41194338;0.06706055;10.140513;-0.025853073;0.023381373;-0.0025240043;13.35;61.050003;-42.9;349.34753;-1.1533899;-1.4039612;-;-;-;-;-;-
1531162689346;-;-;-0.43589357;0.07185059;10.049502;-0.008276209;0.00580451;0.0059981113;13.35;60.300003;-40.95;349.36252;-1.1081575;-1.4236981;-;-;-;-;-;-
1531162689356;-;-;-0.4167334;0.047900394;9.872271;0.004506965;0.02018558;0.010259169;13.35;60.300003;-40.95;349.36252;-1.1081575;-1.4236981;-;-;-;-;-;-
1531162689367;-;-;-0.41194338;0.06706055;9.872271;0.005039597;0.021250846;0.020379182;13.950001;59.850002;-41.850002;349.36154;-1.0932726;-1.4481313;-;-;-;-;-;-
1531162689376;-;-;-0.46463382;0.100590825;9.766891;0.010898551;0.006337142;0.01984655;13.950001;59.850002;-41.850002;349.36154;-1.0932726;-1.4481313;-;-;-;-;-;-
1531162689387;-;-;-0.4742139;0.09101075;9.872271;0.018355403;-0.010174457;0.027836032;12.450001;59.550003;-40.65;349.34302;-1.0974652;-1.4728673;-;-;-;-;-;-
1531162689396;-;-;-0.43110353;0.06227051;9.877061;0.02261646;-0.033610277;0.037956044;12.450001;59.550003;-40.65;349.34302;-1.0974652;-1.4728673;-;-;-;-;-;-
1531162689406;-;-;-0.41194338;0.20118165;9.718989;0.02261646;-0.045328185;0.041151837;14.400001;60.000004;-41.7;349.3191;-1.1131543;-1.477462;-;-;-;-;-;-
1531162689417;-;-;-0.35925296;0.13891114;9.7142;0.014626977;-0.044795554;0.038488675;14.400001;60.000004;-41.7;349.3191;-1.1131543;-1.477462;-;-;-;-;-;-
1531162689428;-;-;-0.38320315;0.11496094;9.594449;-0.017330958;-0.049589243;0.043282367;14.400001;59.7;-42.9;349.2789;-1.1407406;-1.4353756;-;-;-;-;-;-
1531162689437;-;-;-0.4167334;0.047900394;9.718989;-0.043429933;-0.047458716;0.04647816;14.400001;59.7;-42.9;349.2789;-1.1407406;-1.4353756;-;-;-;-;-;-
1531162689448;-;-;-0.35925296;0.05748047;9.80521;-0.04715836;-0.047458716;0.052337114;12.900001;60.9;-41.100002;349.23236;-1.1421387;-1.3769039;-;-;-;-;-;-
1531162689458;-;-;-0.23950197;0.1341211;10.097403;-0.07006154;-0.02295763;0.049673952;12.900001;60.9;-41.100002;349.23236;-1.1421387;-1.3769039;-;-;-;-;-;-
1531162689469;-;-;-0.14849122;0.10538086;10.221944;-0.05887627;-0.019229205;0.04008657;12.450001;60.9;-41.100002;349.1802;-1.0877296;-1.3248032;-;-;-;-;-;-
1531162689480;-;-;-0.047900394;0.06227051;10.303374;-0.04769099;-0.008576561;0.035292882;12.450001;60.9;-41.100002;349.1802;-1.0877296;-1.3248032;-;-;-;-;-;-
1531162689490;-;-;-0.09101075;0.10538086;10.212363;-0.022657279;0.006869774;0.026770769;12.900001;60.15;-42.75;349.1242;-1.0117487;-1.2943792;-;-;-;-;-;-
1531162689500;-;-;-0.13891114;0.10538086;10.092612;-0.022657279;0.0031413487;0.01292233;12.900001;60.15;-42.75;349.1242;-1.0117487;-1.2943792;-;-;-;-;-;-
1531162689511;-;-;-0.17244141;0.16286133;9.948912;-0.019994117;0.0084676705;0.011324434;13.05;60.750004;-40.95;349.08438;-0.9662653;-1.2853643;-;-;-;-;-;-
1531162689521;-;-;-0.29698244;0.1101709;9.896221;-0.034375187;0.0084676705;0.014520226;13.05;60.750004;-40.95;349.08438;-0.9662653;-1.2853643;-;-;-;-;-;-
1531162689532;-;-;-0.20597169;0.1101709;9.924961;-0.05461521;0.016457155;0.0134549625;14.55;60.600002;-41.100002;349.0643;-0.9416698;-1.2893324;-;-;-;-;-;-
1531162689541;-;-;-0.22513184;0.12454102;10.083033;-0.057811003;0.019120315;0.020379182;14.55;60.600002;-41.100002;349.0643;-0.9416698;-1.2893324;-;-;-;-;-;-
1531162689551;-;-;-0.1820215;0.06706055;10.178833;-0.05408258;-5.4444652E-5;0.012389698;13.200001;61.500004;-41.850002;349.0523;-0.9000981;-1.2980329;-;-;-;-;-;-
1531162689562;-;-;-0.119750984;0.13891114;10.245894;-0.031179393;-0.007511296;0.0134549625;12.900001;60.600002;-41.850002;349.0523;-0.9000981;-1.2980329;-;-;-;-;-;-
1531162689572;-;-;-0.19639161;0.09101075;10.245894;0.005039597;-0.034142908;0.01984655;12.900001;60.600002;-41.850002;349.03726;-0.83618903;-1.3136743;-;-;-;-;-;-
1531162689583;-;-;-0.086220704;0.13891114;10.217154;0.015692241;-0.027751321;0.009193905;15.150001;59.4;-43.350002;349.0201;-0.80516154;-1.2972529;-;-;-;-;-;-
1531162689593;-;-;0.033530276;0.17244141;10.044712;0.007170126;-0.012837619;-0.012111384;15.150001;59.4;-43.350002;349.0201;-0.80516154;-1.2972529;-;-;-;-;-;-
1531162689603;-;-;-0.043110352;0.12933107;10.059082;-0.009341473;0.006869774;-0.022764029;15.150001;59.4;-43.350002;349.0201;-0.80516154;-1.2972529;-;-;-;-;-;-
1531162689614;-;-;-0.16765137;0.19639161;10.073453;-0.024787808;0.048947718;-0.01104612;13.35;61.050003;-41.25;349.01013;-0.8178822;-1.2630222;-;-;-;-;-;-
1531162689623;-;-;-0.28261232;0.1341211;10.025552;-0.023189912;0.0420235;-0.016905075;13.500001;59.100002;-40.65;349.01013;-0.8178822;-1.2630222;-;-;-;-;-;-
1531162689635;-;-;-0.26345217;0.100590825;10.260264;-0.0034803555;0.024975687;0.0070524253;13.500001;59.100002;-40.65;349.02832;-0.8069452;-1.2753683;-;-;-;-;-;-
1531162689645;-;-;-0.27303225;0.17723145;10.269844;0.02208599;-0.0011232928;0.0027913675;14.700001;61.350002;-41.7;349.04205;-0.78089535;-1.3205004;-;-;-;-;-;-
1531162689655;-;-;-0.17244141;0.1820215;10.241104;0.072686054;-0.050125457;0.014509276;14.700001;61.350002;-41.7;349.04205;-0.78089535;-1.3205004;-;-;-;-;-;-
1531162689665;-;-;-0.1580713;0.1820215;10.236314;0.08440396;-0.056517046;0.017172437;14.700001;61.350002;-41.7;349.04205;-0.78089535;-1.3205004;-;-;-;-;-;-
1531162689676;-;-;-0.09580079;0.27303225;10.039923;0.07801238;-0.038940184;0.009715587;13.950001;60.15;-41.850002;349.03244;-0.8105803;-1.3135351;-;-;-;-;-;-
1531162689686;-;-;-0.033530276;0.244292;9.934542;0.065761834;-0.013373833;0.004389264;14.1;59.7;-42.45;349.0169;-0.90069306;-1.2519135;-;-;-;-;-;-
1531162689697;-;-;0.038320314;0.2778223;10.030342;0.04126075;0.0047356617;-0.010524439;14.1;59.7;-42.45;349.0169;-0.90069306;-1.2519135;-;-;-;-;-;-
1531162689707;-;-;0.0;0.39757326;10.054293;0.024749152;0.024443055;-0.02277498;13.500001;59.550003;-42.300003;349.01;-0.97704774;-1.2201245;-;-;-;-;-;-
1531162689718;-;-;-0.014370117;0.27303225;10.164463;0.03646706;0.021247262;-0.028101303;13.500001;59.550003;-42.300003;349.01;-0.97704774;-1.2201245;-;-;-;-;-;-
1531162689727;-;-;-0.038320314;0.30177248;10.140513;0.044989176;0.024975687;-0.036090784;12.3;60.750004;-42.9;349.01;-0.97704774;-1.2201245;-;-;-;-;-;-
1531162689738;-;-;-0.119750984;0.20118165;9.953702;0.07534921;0.0089967195;-0.05366765;12.3;60.750004;-42.9;349.02652;-1.0145291;-1.2380409;-;-;-;-;-;-
1531162689747;-;-;-0.1341211;0.19160157;9.872271;0.071620785;0.007398823;-0.06059187;12.150001;61.2;-41.850002;349.06323;-1.0660442;-1.2592357;-;-;-;-;-;-
1531162689758;-;-;-0.22513184;0.2203418;9.77647;0.061500777;0.005800926;-0.056863442;12.150001;61.2;-41.850002;349.06323;-1.0660442;-1.2592357;-;-;-;-;-;-
1531162689768;-;-;-0.34009278;0.1101709;9.74294;0.030075474;0.010061985;-0.057928707;14.1;60.300003;-43.65;349.12064;-1.1471472;-1.2667001;-;-;-;-;-;-
1531162689778;-;-;-0.2682422;0.21076173;9.74773;0.0172923;0.005800926;-0.059526604;14.1;60.300003;-43.65;349.12064;-1.1471472;-1.2667001;-;-;-;-;-;-
1531162689789;-;-;-0.2921924;0.13891114;9.77647;0.018357566;0.0026051328;-0.053135015;13.500001;60.15;-40.65;349.18726;-1.2013844;-1.2742833;-;-;-;-;-;-
1531162689798;-;-;-0.2682422;0.1580713;9.877061;0.0045091277;0.014323043;-0.05420028;13.500001;60.15;-40.65;349.18726;-1.2013844;-1.2742833;-;-;-;-;-;-
1531162689808;-;-;-0.24908204;0.119750984;9.910591;0.009302818;0.012192514;-0.053135015;13.05;60.000004;-41.7;349.25058;-1.2224232;-1.2854313;-;-;-;-;-;-
1531162689819;-;-;-0.3544629;0.12454102;10.0063925;0.018357566;0.023910422;-0.043547638;13.05;60.000004;-41.7;349.25058;-1.2224232;-1.2854313;-;-;-;-;-;-
1531162689829;-;-;-0.4263135;0.100590825;10.030342;0.026879681;0.019649364;-0.04940659;13.650001;60.750004;-41.7;349.3095;-1.2278506;-1.2982247;-;-;-;-;-;-
1531162689839;-;-;-0.4167334;0.05748047;9.862691;0.034336533;0.02550832;-0.020111818;13.650001;60.750004;-41.7;349.3095;-1.2278506;-1.2982247;-;-;-;-;-;-
1531162689850;-;-;-0.34488282;0.038320314;9.905801;0.027412314;0.016453572;-0.019046554;13.950001;60.9;-40.65;349.35983;-1.2550529;-1.3208158;-;-;-;-;-;-
1531162689860;-;-;-0.28261232;0.16286133;9.72857;0.0146291405;0.02550832;-0.007328645;13.950001;60.9;-40.65;349.35983;-1.2550529;-1.3208158;-;-;-;-;-;-
1531162689871;-;-;-0.19639161;0.22513184;9.80521;0.0034438635;0.034563065;-0.012654968;12.900001;60.15;-42.75;349.38412;-1.2905885;-1.3449229;-;-;-;-;-;-
1531162689880;-;-;-0.13891114;0.119750984;9.953702;-0.004012988;0.031899903;-0.01585076;12.900001;60.15;-42.75;349.38412;-1.2905885;-1.3449229;-;-;-;-;-;-
1531162689891;-;-;-0.28740236;0.24908204;10.126143;-0.0050782524;0.024443055;-0.00839391;12.3;60.750004;-40.050003;349.39322;-1.3068008;-1.3749651;-;-;-;-;-;-
1531162689901;-;-;-0.32093263;0.19639161;10.188414;0.016227037;0.018051468;0.009715587;13.500001;59.550003;-41.550003;349.40707;-1.3019102;-1.4076062;-;-;-;-;-;-
1531162689912;-;-;-0.29698244;0.12454102;10.202784;0.046587072;0.0010072361;0.017172437;13.500001;59.550003;-41.550003;349.40707;-1.3019102;-1.4076062;-;-;-;-;-;-
1531162689923;-;-;-0.16765137;0.1820215;9.968072;0.054576557;0.022312526;0.015041908;12.6;59.4;-41.25;349.40164;-1.3276259;-1.4222821;-;-;-;-;-;-
1531162689933;-;-;0.019160157;0.35925296;9.80521;0.032206003;0.03083464;0.025161922;12.6;59.4;-41.25;349.40164;-1.3276259;-1.4222821;-;-;-;-;-;-
1531162689943;-;-;0.081430666;0.37362307;9.85311;0.012498612;0.048411503;0.023564024;14.700001;60.000004;-42.15;349.37234;-1.3902547;-1.4393466;-;-;-;-;-;-
1531162689954;-;-;0.05269043;0.364043;9.81;-0.011469838;0.07397785;0.009182954;14.700001;60.000004;-42.15;349.37234;-1.3902547;-1.4393466;-;-;-;-;-;-
1531162689965;-;-;-0.043110352;0.3161426;9.81958;-0.0050782524;0.06279257;-0.0062633804;13.950001;61.2;-42.300003;349.3505;-1.4138937;-1.486206;-;-;-;-;-;-
1531162689975;-;-;-0.09101075;0.38320315;9.843531;-0.016796162;0.0089967195;-0.014252864;13.950001;61.2;-42.300003;349.3505;-1.4138937;-1.486206;-;-;-;-;-;-
1531162689985;-;-;-0.043110352;0.35925296;9.75252;-0.004012988;0.0089967195;-0.01585076;13.500001;60.15;-41.550003;349.35458;-1.4033799;-1.5579541;-;-;-;-;-;-
1531162689995;-;-;-0.119750984;0.34488282;9.6758795;-0.025318278;0.012725145;-0.03182973;13.500001;60.15;-41.550003;349.35458;-1.4033799;-1.5579541;-;-;-;-;-;-
1531162690006;-;-;-0.05269043;0.34009278;9.83874;-0.056210946;0.039356753;-0.03981921;12.450001;61.2;-41.850002;349.3739;-1.3944596;-1.572109;-;-;-;-;-;-
1531162690016;-;-;-0.244292;0.32572266;9.996812;-0.056210946;0.044150446;-0.022242347;12.450001;61.2;-41.850002;349.3739;-1.3944596;-1.572109;-;-;-;-;-;-
1531162690027;-;-;-0.22513184;0.2921924;10.044712;-0.037036188;0.041487284;-0.00839391;12.6;60.300003;-40.050003;349.4057;-1.3539722;-1.5972469;-;-;-;-;-;-
1531162690037;-;-;-0.16765137;0.3544629;10.044712;-0.029579336;0.031899903;-0.009459173;12.6;60.300003;-40.050003;349.4057;-1.3539722;-1.5972469;-;-;-;-;-;-
1531162690048;-;-;-0.22992188;0.36883304;10.102193;-0.0146656325;0.037758857;0.0027913675;13.650001;61.050003;-40.95;349.42484;-1.2973298;-1.6499115;-;-;-;-;-;-
1531162690058;-;-;-0.2682422;0.39757326;9.972861;-0.0013498266;0.024443055;0.0065197926;13.650001;61.050003;-40.95;349.42484;-1.2973298;-1.6499115;-;-;-;-;-;-
1531162690069;-;-;-0.1820215;0.35925296;10.044712;0.007704921;4.7460385E-4;0.016107174;13.05;59.4;-42.45;349.42715;-1.2697183;-1.6907188;-;-;-;-;-;-
1531162690078;-;-;-0.12454102;0.3879932;9.872271;0.020488095;-0.0069822473;0.016639806;13.05;59.4;-42.45;349.42715;-1.2697183;-1.6907188;-;-;-;-;-;-
1531162690089;-;-;-0.12454102;0.39278322;9.79084;0.0045091277;0.0026051328;0.016639806;13.500001;60.15;-41.550003;349.41714;-1.272038;-1.7084166;-;-;-;-;-;-
1531162690099;-;-;-0.119750984;0.4263135;9.910591;0.0029112312;4.7460385E-4;0.015041908;13.500001;60.15;-41.550003;349.41714;-1.272038;-1.7084166;-;-;-;-;-;-
1531162690110;-;-;-0.1341211;0.45026368;10.011182;-0.0034803555;0.0020725005;0.007585058;13.950001;59.550003;-41.550003;349.4046;-1.2895869;-1.7058271;-;-;-;-;-;-
1531162690119;-;-;-0.1580713;0.46463382;10.015972;7.807023E-4;0.008464087;0.009715587;13.950001;59.550003;-41.550003;349.4046;-1.2895869;-1.7058271;-;-;-;-;-;-
1531162690130;-;-;-0.1101709;0.4742139;10.097403;0.023151256;-0.010178041;0.0027913675;12.3;59.7;-41.7;349.3866;-1.2854779;-1.7011487;-;-;-;-;-;-
1531162690139;-;-;-0.19160157;0.43110353;10.020762;0.04552181;-0.0032538217;0.004389264;12.3;59.7;-41.7;349.3866;-1.2854779;-1.7011487;-;-;-;-;-;-
1531162690150;-;-;-0.20597169;0.44547364;9.915381;0.049250234;-0.017102258;0.0022587352;14.400001;60.000004;-40.050003;349.376;-1.2910454;-1.7026113;-;-;-;-;-;-
1531162690161;-;-;-0.2778223;0.44547364;9.833951;0.054043926;-0.022961214;0.0070524253;12.150001;59.550003;-42.75;349.37503;-1.3445724;-1.691437;-;-;-;-;-;-
1531162690170;-;-;-0.18681154;0.5221143;9.83874;0.05777235;-0.027222272;0.018770333;12.150001;59.550003;-42.75;349.37503;-1.3445724;-1.691437;-;-;-;-;-;-
1531162690180;-;-;-0.019160157;0.5987549;9.718989;0.048717603;-0.017634891;0.016639806;13.500001;59.100002;-42.300003;349.3671;-1.4105556;-1.6679096;-;-;-;-;-;-
1531162690191;-;-;0.100590825;0.62749517;9.498648;0.0029112312;0.019116731;-0.020111818;13.500001;59.100002;-42.300003;349.3671;-1.4105556;-1.6679096;-;-;-;-;-;-
1531162690202;-;-;0.12933107;0.7089258;9.532178;-0.025318278;0.019649364;-0.042482372;14.700001;61.050003;-43.350002;349.35803;-1.4619032;-1.6555649;-;-;-;-;-;-
1531162690213;-;-;0.05269043;0.7089258;9.800421;-0.0471562;0.008464087;-0.06858136;14.700001;61.050003;-43.350002;349.35803;-1.4619032;-1.6555649;-;-;-;-;-;-
1531162690223;-;-;-0.11496094;0.60833496;9.541759;-0.050884623;0.02550832;-0.081897154;13.200001;59.550003;-41.100002;349.3997;-1.4365765;-1.6748476;-;-;-;-;-;-
1531162690233;-;-;-0.34488282;0.6706055;9.594449;-0.079646766;-5.906606E-4;-0.08882138;13.200001;59.550003;-41.100002;349.3997;-1.4365765;-1.6748476;-;-;-;-;-;-
1531162690244;-;-;-0.43110353;0.6514453;9.589659;-0.11799628;0.003137765;-0.07763609;12.900001;60.600002;-43.5;349.48697;-1.3786684;-1.6932445;-;-;-;-;-;-
1531162690254;-;-;-0.39757326;0.57001466;9.877061;-0.13876894;0.043617815;-0.0627224;12.900001;60.600002;-43.5;349.48697;-1.3786684;-1.6932445;-;-;-;-;-;-
1531162690265;-;-;-0.43110353;0.5843848;10.073453;-0.1414321;0.053737827;-0.0611245;12.900001;60.15;-42.75;349.57797;-1.260528;-1.7012823;-;-;-;-;-;-
1531162690274;-;-;-0.44547364;0.56522465;10.312955;-0.1265184;0.06811889;-0.049939223;12.900001;60.15;-42.75;349.57797;-1.260528;-1.7012823;-;-;-;-;-;-
1531162690284;-;-;-0.488584;0.57001466;10.3512745;-0.10574575;0.07504311;-0.028101303;13.650001;61.050003;-39.600002;349.647;-1.1029167;-1.7585596;-;-;-;-;-;-
1531162690295;-;-;-0.5125342;0.45026368;10.494976;-0.058874108;0.044683076;-0.0062633804;13.650001;61.050003;-39.600002;349.647;-1.1029167;-1.7585596;-;-;-;-;-;-
1531162690304;-;-;-0.45984375;0.5125342;10.528506;-0.029046703;0.029236745;0.012378748;13.35;60.300003;-40.95;349.68375;-0.97697794;-1.839006;-;-;-;-;-;-
1531162690315;-;-;-0.39278322;0.56522465;10.346485;0.030608106;-0.0027211895;0.040075622;13.35;60.300003;-40.95;349.68375;-0.97697794;-1.839006;-;-;-;-;-;-
1531162690326;-;-;-0.17244141;0.6322852;10.212363;0.037532326;0.010061985;0.030488241;13.650001;60.300003;-41.25;349.67383;-0.93490833;-1.8765237;-;-;-;-;-;-
1531162690336;-;-;-0.20118165;0.62749517;10.049502;0.027412314;0.0500094;0.02995561;13.650001;60.300003;-41.25;349.67383;-0.93490833;-1.8765237;-;-;-;-;-;-
1531162690346;-;-;-0.3544629;0.68976563;10.150093;2.4807005E-4;0.08569576;0.027292449;13.05;61.050003;-42.9;349.63803;-0.97121155;-1.8780023;-;-;-;-;-;-
1531162690357;-;-;-0.33530274;0.6658155;10.092612;0.0029112312;0.091554716;0.046999842;13.05;61.050003;-42.9;349.63803;-0.97121155;-1.8780023;-;-;-;-;-;-
1531162690367;-;-;-0.2203418;0.6562354;10.063872;0.010900714;0.09581577;0.045401946;11.700001;61.800003;-41.7;349.6046;-0.99502534;-1.9436336;-;-;-;-;-;-
1531162690378;-;-;-0.2682422;0.6466553;9.934542;0.0172923;0.07770628;0.05072827;11.700001;61.800003;-41.7;349.6046;-0.99502534;-1.9436336;-;-;-;-;-;-
1531162690387;-;-;-0.2682422;0.64186525;9.996812;0.025814416;0.07291259;0.054989327;13.650001;61.350002;-40.5;349.54633;-1.003766;-2.0505257;-;-;-;-;-;-
1531162690397;-;-;-0.086220704;0.6227051;9.992022;0.030075474;0.06279257;0.05392406;13.650001;61.350002;-40.5;349.54633;-1.003766;-2.0505257;-;-;-;-;-;-
1531162690409;-;-;-0.2203418;0.67539555;9.948912;0.029542841;0.048411503;0.052326165;14.700001;59.7;-42.15;349.48245;-1.0304365;-2.1346376;-;-;-;-;-;-
1531162690418;-;-;-0.34967285;0.6179151;9.862691;0.02208599;0.04521571;0.050195634;14.700001;59.7;-42.15;349.48245;-1.0304365;-2.1346376;-;-;-;-;-;-
1531162690428;-;-;-0.43110353;0.5843848;9.82437;0.002378599;0.0334978;0.056587223;13.650001;60.300003;-41.25;349.42142;-1.0639151;-2.1981585;-;-;-;-;-;-
1531162690439;-;-;-0.43110353;0.6179151;9.877061;-0.011469838;0.032432538;0.07416409;13.650001;60.300003;-41.25;349.42142;-1.0639151;-2.1981585;-;-;-;-;-;-
1531162690449;-;-;-0.3065625;0.5364844;9.953702;-0.012535104;0.066521;0.09759991;14.1;60.750004;-42.9;349.3599;-1.089594;-2.245903;-;-;-;-;-;-
1531162690460;-;-;-0.31135255;0.6322852;10.0063925;-0.019991955;0.07291259;0.11144835;14.400001;60.000004;-41.25;349.26468;-1.0812858;-2.2921982;-;-;-;-;-;-
1531162690469;-;-;-0.27303225;0.5556446;9.82437;-0.013067735;0.08782629;0.10345885;14.400001;60.000004;-41.25;349.26468;-1.0812858;-2.2921982;-;-;-;-;-;-
1531162690480;-;-;-0.38320315;0.56522465;9.75252;-0.008806678;0.095283136;0.119970456;13.650001;60.750004;-42.15;349.1413;-1.071869;-2.3820345;-;-;-;-;-;-
1531162690489;-;-;-0.37362307;0.51732427;9.718989;-0.017861426;0.089424185;0.13115574;13.650001;60.750004;-42.15;349.1413;-1.071869;-2.3820345;-;-;-;-;-;-
1531162690499;-;-;-0.3161426;0.4023633;9.920172;7.807023E-4;0.08196733;0.14074312;14.400001;60.750004;-40.5;348.99683;-1.0659226;-2.4840984;-;-;-;-;-;-
1531162690510;-;-;-0.34488282;0.52690434;9.963282;0.033271268;0.08090207;0.15299366;14.400001;60.750004;-40.5;348.99683;-1.0659226;-2.4840984;-;-;-;-;-;-
1531162690519;-;-;-0.5604346;0.43110353;9.996812;0.056174453;0.0649231;0.16950525;14.700001;60.750004;-42.15;348.82614;-1.0829327;-2.5753877;-;-;-;-;-;-
1531162690529;-;-;-0.6322852;0.52690434;9.963282;0.12594928;0.013257777;0.21264847;14.700001;60.750004;-42.15;348.82614;-1.0829327;-2.5753877;-;-;-;-;-;-
1531162690540;-;-;-0.68018556;0.51732427;9.704619;0.1461893;-0.037342288;0.21850742;14.400001;61.050003;-42.45;348.61215;-1.1809087;-2.6290758;-;-;-;-;-;-
1531162690549;-;-;-0.5412744;0.60354495;9.608819;0.1563093;-0.07835497;0.2563243;14.400001;61.050003;-42.45;348.61215;-1.1809087;-2.6290758;-;-;-;-;-;-
1531162690560;-;-;-0.43589357;0.7232959;9.651929;0.1280798;-0.086877085;0.24726957;14.55;59.850002;-40.65;348.3441;-1.3690397;-2.5678258;-;-;-;-;-;-
1531162690569;-;-;-0.20597169;0.68976563;9.843531;0.109437674;-0.09486657;0.2579222;14.55;59.850002;-40.65;348.3441;-1.3690397;-2.5678258;-;-;-;-;-;-
1531162690580;-;-;-0.15328126;0.7185059;9.862691;0.10304609;-0.10498658;0.23768218;14.250001;60.15;-41.100002;348.0545;-1.5249277;-2.4566767;-;-;-;-;-;-
1531162690590;-;-;-0.05748047;0.82388675;9.85311;0.118492424;-0.1252266;0.21850742;14.250001;60.15;-41.100002;348.0545;-1.5249277;-2.4566767;-;-;-;-;-;-
1531162690601;-;-;-0.009580079;0.8861573;9.75731;0.11423136;-0.1417382;0.20412636;14.55;60.15;-43.050003;347.7874;-1.6645314;-2.3172786;-;-;-;-;-;-
1531162690611;-;-;0.11496094;0.8909473;9.72857;0.0849366;-0.123628706;0.16577683;14.55;60.15;-43.050003;347.7874;-1.6645314;-2.3172786;-;-;-;-;-;-
1531162690622;-;-;0.22992188;0.9388477;9.829161;0.072686054;-0.09912762;0.132221;15.150001;61.050003;-42.9;347.56595;-1.805348;-2.145089;-;-;-;-;-;-
1531162690633;-;-;0.09101075;1.0346485;9.85311;0.07055552;-0.08847498;0.08162093;15.150001;61.050003;-42.9;347.56595;-1.805348;-2.145089;-;-;-;-;-;-
1531162690642;-;-;-0.10538086;1.1064991;9.642349;0.072688214;-0.08368488;0.054445744;13.500001;59.850002;-43.050003;347.416;-1.9119248;-2.0053382;-;-;-;-;-;-
1531162690652;-;-;-0.21076173;1.1448194;9.484278;0.067894526;-0.10978385;0.02302044;13.500001;59.850002;-43.050003;347.416;-1.9119248;-2.0053382;-;-;-;-;-;-
1531162690663;-;-;-0.14370118;1.2597803;9.431587;0.052980825;-0.12682807;-0.002013273;14.400001;60.300003;-41.7;347.3563;-2.0131993;-1.8941089;-;-;-;-;-;-
1531162690673;-;-;-0.038320314;1.2310401;9.263936;-0.0018802958;-0.14333968;-0.03983016;14.400001;60.300003;-41.7;347.3563;-2.0131993;-1.8941089;-;-;-;-;-;-
1531162690684;-;-;0.06227051;1.2549903;9.283096;-0.08177514;-0.14440493;-0.084571265;14.700001;58.95;-40.95;347.35522;-2.0823114;-1.7507309;-;-;-;-;-;-
1531162690694;-;-;0.100590825;1.1639795;9.532178;-0.15261522;-0.09487015;-0.12025762;14.700001;58.95;-40.95;347.35522;-2.0823114;-1.7507309;-;-;-;-;-;-
1531162690705;-;-;0.19639161;1.1927198;9.929751;-0.21386793;-0.06504274;-0.16180293;13.05;59.7;-42.45;347.43893;-2.0331483;-1.5893224;-;-;-;-;-;-
1531162690714;-;-;0.2682422;1.1256592;10.039923;-0.25754374;-0.024030061;-0.20973983;13.05;59.7;-42.45;347.43893;-2.0331483;-1.5893224;-;-;-;-;-;-
1531162690724;-;-;0.09580079;1.0633887;10.566827;-0.27565324;-0.02829112;-0.23317567;14.55;58.800003;-41.850002;347.60934;-1.839627;-1.4890573;-;-;-;-;-;-
1531162690735;-;-;-0.1580713;1.0490186;10.806329;-0.22292267;0.0015362846;-0.26300305;14.55;58.800003;-41.850002;347.60934;-1.839627;-1.4890573;-;-;-;-;-;-
1531162690745;-;-;-0.2921924;0.96758795;10.581197;-0.15368049;0.03189632;-0.23637146;13.35;60.300003;-42.15;347.8642;-1.5279641;-1.4667157;-;-;-;-;-;-
1531162690756;-;-;-0.364043;0.98195803;10.332115;-0.108406745;0.04840792;-0.21985985;13.35;60.300003;-42.15;347.8642;-1.5279641;-1.4667157;-;-;-;-;-;-
1531162690766;-;-;-0.44547364;1.1543995;9.8866415;-0.09082988;0.062788986;-0.21027248;13.650001;61.350002;-42.15;348.14493;-1.3016798;-1.4895802;-;-;-;-;-;-
1531162690776;-;-;-0.5987549;1.2166699;9.599238;-0.09828673;0.07024584;-0.19003245;13.650001;61.350002;-42.15;348.14493;-1.3016798;-1.4895802;-;-;-;-;-;-
1531162690787;-;-;-0.6993457;1.2741505;9.445957;-0.116396226;0.070778474;-0.16979243;15.150001;61.350002;-41.25;348.3866;-1.191729;-1.5559945;-;-;-;-;-;-
1531162690797;-;-;-0.7185059;1.3124708;9.393267;-0.124385715;0.057462666;-0.14688924;15.150001;61.350002;-41.25;348.3866;-1.191729;-1.5559945;-;-;-;-;-;-
1531162690808;-;-;-0.71371585;1.4322218;9.350157;-0.13557099;0.018047884;-0.1346387;14.1;60.300003;-42.45;348.59375;-1.178182;-1.6793854;-;-;-;-;-;-
1531162690818;-;-;-0.68976563;1.4705421;9.273516;-0.14302784;-0.004855302;-0.13570397;14.1;61.050003;-42.15;348.59375;-1.178182;-1.6793854;-;-;-;-;-;-
1531162690829;-;-;-0.6993457;1.5040723;9.474698;-0.15368049;-0.032019548;-0.1447587;14.1;61.050003;-42.15;348.75876;-1.2064576;-1.7981949;-;-;-;-;-;-
1531162690839;-;-;-0.7568262;1.5807129;9.637559;-0.14835416;-0.045335352;-0.14103028;13.500001;60.600002;-43.5;348.90445;-1.583651;-1.9477084;-;-;-;-;-;-
1531162690849;-;-;-0.847837;1.5040723;9.77647;-0.10680885;-0.071434334;-0.12718184;13.500001;60.600002;-43.5;348.90445;-1.583651;-1.9477084;-;-;-;-;-;-
1531162690860;-;-;-0.8813672;1.5807129;9.704619;-0.084438294;-0.10072911;-0.11173551;13.650001;58.95;-42.45;349.03354;-2.2156262;-2.1910665;-;-;-;-;-;-
1531162690870;-;-;-0.89573735;1.6381935;9.69504;-0.07485092;-0.1273607;-0.113333404;13.650001;58.95;-42.45;349.03354;-2.2156262;-2.1910665;-;-;-;-;-;-
1531162690880;-;-;-0.9915381;1.6477735;9.623189;-0.07804671;-0.1454702;-0.10427866;14.700001;60.300003;-42.45;349.14877;-2.7081978;-2.3338869;-;-;-;-;-;-
1531162690891;-;-;-0.85741705;1.7435743;9.69504;-0.09296041;-0.15825337;-0.09043022;14.700001;60.300003;-42.45;349.14877;-2.7081978;-2.3338869;-;-;-;-;-;-
1531162690901;-;-;-0.7951465;1.8202149;9.901011;-0.09881937;-0.12203439;-0.095756546;12.900001;60.9;-43.050003;349.2441;-3.2876122;-2.4976988;-;-;-;-;-;-
1531162690912;-;-;-0.6993457;1.8776954;10.087823;-0.11213517;-0.07782592;-0.10800709;12.900001;60.9;-43.050003;349.2441;-3.2876122;-2.4976988;-;-;-;-;-;-
1531162690923;-;-;-0.7664063;1.839375;10.130933;-0.10734148;-0.058118526;-0.113333404;12.3;60.000004;-43.65;349.36163;-3.2753427;-2.399123;-;-;-;-;-;-
1531162690932;-;-;-0.7424561;1.8250049;10.212363;-0.10734148;-0.07463013;-0.11865973;12.3;60.000004;-43.65;349.36163;-3.2753427;-2.399123;-;-;-;-;-;-
1531162690943;-;-;-0.7424561;1.8441651;10.3512745;-0.0977541;-0.09966384;-0.1346387;13.35;60.750004;-41.25;349.5001;-3.1784544;-2.3363395;-;-;-;-;-;-
1531162690953;-;-;-0.8382569;1.839375;10.710527;-0.05354562;-0.08901119;-0.13517132;13.35;60.750004;-41.25;349.5001;-3.1784544;-2.3363395;-;-;-;-;-;-
1531162690963;-;-;-0.8334668;1.7866846;10.815908;0.0018481298;-0.1039249;-0.12931237;13.200001;61.500004;-41.850002;349.6574;-3.0755682;-2.2503333;-;-;-;-;-;-
1531162690974;-;-;-0.67539555;1.7962648;10.902129;0.059905045;-0.14227441;-0.11706183;13.200001;61.500004;-41.850002;349.6574;-3.0755682;-2.2503333;-;-;-;-;-;-
1531162690983;-;-;-0.5939649;1.7675245;10.753638;0.10304825;-0.15931864;-0.11919236;13.650001;60.750004;-42.45;349.81592;-3.0509737;-2.1413221;-;-;-;-;-;-
1531162690993;-;-;-0.4981641;1.9016455;10.662627;0.10890721;-0.15345968;-0.12824711;13.650001;60.750004;-42.45;349.81592;-3.0509737;-2.1413221;-;-;-;-;-;-
1531162691004;-;-;-0.38320315;1.9160157;10.605147;0.09612403;-0.1204365;-0.13357343;11.700001;61.350002;-41.7;349.96127;-3.1452994;-1.9729308;-;-;-;-;-;-
1531162691015;-;-;-0.2921924;1.9399658;10.772799;0.09985246;-0.072499596;-0.1362366;11.700001;61.350002;-41.7;349.96127;-3.1452994;-1.9729308;-;-;-;-;-;-
1531162691025;-;-;-0.31135255;1.9351759;11.03625;0.12115774;-0.036813237;-0.15913978;12.450001;61.95;-43.050003;350.11804;-3.2553585;-1.8296009;-;-;-;-;-;-
1531162691036;-;-;-0.3879932;1.8585353;11.270963;0.18507361;-0.012844786;-0.16233557;12.450001;61.95;-43.050003;350.11804;-3.2553585;-1.8296009;-;-;-;-;-;-
1531162691045;-;-;-0.33530274;1.829795;11.563155;0.29000217;0.022308942;-0.14848714;12.3;61.350002;-42.9;350.28986;-3.376025;-1.7708313;-;-;-;-;-;-
1531162691055;-;-;-0.07185059;1.8633252;11.429033;0.41517076;0.07344163;-0.15700924;12.3;61.350002;-42.9;350.28986;-3.376025;-1.7708313;-;-;-;-;-;-
1531162691066;-;-;-0.047900394;1.839375;10.95482;0.51210976;0.11765011;-0.18151033;13.200001;60.9;-43.050003;350.4653;-3.6385345;-1.7832212;-;-;-;-;-;-
1531162691075;-;-;0.0047900393;1.719624;10.312955;0.55578566;0.18156599;-0.21772933;13.200001;60.9;-43.050003;350.4653;-3.6385345;-1.7832212;-;-;-;-;-;-
1531162691086;-;-;-0.2682422;1.5328126;9.426797;0.5057182;0.24707974;-0.23264302;12.0;61.050003;-41.25;350.6569;-4.1611204;-1.9001402;-;-;-;-;-;-
1531162691096;-;-;-0.4406836;1.3986914;8.794512;0.38694125;0.3125935;-0.24436094;12.0;61.050003;-41.25;350.6569;-4.1611204;-1.9001402;-;-;-;-;-;-
1531162691107;-;-;-0.68976563;1.1208692;8.464;0.18081255;0.26199344;-0.27099255;12.150001;60.9;-43.95;350.89865;-4.7588925;-2.1652603;-;-;-;-;-;-
1531162691117;-;-;-0.7759864;1.0346485;8.57417;0.046056606;0.21032812;-0.28590626;12.150001;60.9;-43.95;350.89865;-4.7588925;-2.1652603;-;-;-;-;-;-
1531162691127;-;-;-0.8909473;0.728086;9.580078;-0.12065729;0.012721561;-0.32265788;13.650001;60.300003;-42.15;351.16827;-5.0957456;-2.5237815;-;-;-;-;-;-
1531162691138;-;-;-0.8095166;0.5412744;10.427916;-0.17019127;-0.1449389;-0.29975873;13.650001;60.300003;-42.15;351.16827;-5.0957456;-2.5237815;-;-;-;-;-;-
1531162691148;-;-;-0.68018556;0.45026368;11.4625635;-0.16752812;-0.3665139;-0.30135664;13.05;60.000004;-44.550003;351.5049;-5.0521398;-2.7035947;-;-;-;-;-;-
1531162691159;-;-;-0.60354495;0.4263135;12.118799;-0.1291786;-0.4362887;-0.29975873;12.150001;61.95;-43.95;351.8754;-4.8404775;-2.4671779;-;-;-;-;-;-
1531162691168;-;-;-0.4981641;0.23950197;12.578643;-0.03490269;-0.37929708;-0.25341973;12.150001;61.95;-43.95;351.8754;-4.8404775;-2.4671779;-;-;-;-;-;-
1531162691179;-;-;-0.43110353;-0.1101709;12.664864;0.11423433;-0.2557264;-0.17725332;12.6;60.300003;-42.9;352.2324;-4.7131696;-2.0225432;-;-;-;-;-;-
1531162691189;-;-;-0.3879932;-0.043110352;11.975099;0.32568932;-0.13215573;-0.09682587;12.6;60.300003;-42.9;352.2324;-4.7131696;-2.0225432;-;-;-;-;-;-
1531162691200;-;-;-0.3305127;0.028740235;11.333233;0.4162368;-0.045869313;-0.04303001;11.1;59.850002;-43.050003;352.43152;-4.8941293;-1.7714887;-;-;-;-;-;-
1531162691210;-;-;-0.21076173;0.17723145;9.948912;0.44340104;-0.00965032;0.024081651;11.1;59.850002;-43.050003;352.43152;-4.8941293;-1.7714887;-;-;-;-;-;-
1531162691220;-;-;0.023950197;0.39278322;9.364527;0.3949315;-0.011248216;0.051245894;12.0;60.750004;-43.350002;352.46658;-5.3706717;-1.7156076;-;-;-;-;-;-
1531162691230;-;-;0.047900394;0.5556446;9.249566;0.28947031;-0.07356619;0.062431168;12.0;60.750004;-43.350002;352.46658;-5.3706717;-1.7156076;-;-;-;-;-;-
1531162691241;-;-;0.23950197;0.5364844;9.402847;0.23727238;-0.13907994;0.046984836;11.1;60.9;-43.95;352.4081;-5.7904468;-1.6788673;-;-;-;-;-;-
1531162691250;-;-;0.6322852;0.46463382;9.704619;0.2111734;-0.22376847;0.03899535;11.1;60.9;-43.95;352.4081;-5.7904468;-1.6788673;-;-;-;-;-;-
1531162691260;-;-;1.0538087;0.4023633;9.83874;0.18720494;-0.27490115;0.015026902;10.950001;60.750004;-43.65;352.3688;-6.0597053;-1.4964314;-;-;-;-;-;-
1531162691270;-;-;1.4226416;0.45505372;10.078242;0.0955922;-0.3089896;-0.10321745;10.950001;60.750004;-43.65;352.3688;-6.0597053;-1.4964314;-;-;-;-;-;-
1531162691281;-;-;1.5136524;0.4406836;10.207574;0.081211135;-0.308457;-0.13890381;12.0;60.750004;-44.550003;352.41226;-5.883534;-0.46410653;-;-;-;-;-;-
1531162691291;-;-;1.5615528;0.39278322;10.284214;0.023154221;-0.2738359;-0.2821819;12.0;60.750004;-44.550003;352.41226;-5.883534;-0.46410653;-;-;-;-;-;-
1531162691302;-;-;1.5280225;0.21555176;10.241104;-0.038098484;-0.26478115;-0.36633778;10.950001;59.7;-45.300003;352.6424;-5.925153;-0.045112148;-;-;-;-;-;-
1531162691311;-;-;1.3603711;0.19160157;10.298584;-0.11373226;-0.20406108;-0.4643421;10.950001;59.7;-45.300003;352.6424;-5.925153;-0.045112148;-;-;-;-;-;-
1531162691322;-;-;0.9580079;0.06227051;10.466236;-0.18403971;-0.09114305;-0.52772534;11.400001;59.100002;-43.95;353.0704;-5.864579;0.26320678;-;-;-;-;-;-
1531162691332;-;-;0.68018556;-0.081430666;10.461446;-0.205345;0.011654969;-0.5447696;11.400001;59.100002;-43.95;353.0704;-5.864579;0.26320678;-;-;-;-;-;-
1531162691342;-;-;0.28740236;-0.22513184;10.528506;-0.20055132;0.102202445;-0.5522264;12.3;59.4;-44.550003;353.66058;-5.6635065;0.349205;-;-;-;-;-;-
1531162691353;-;-;-0.086220704;-0.18681154;10.471025;-0.16806075;0.1773036;-0.51813793;12.3;59.4;-44.550003;353.66058;-5.6635065;0.349205;-;-;-;-;-;-
1531162691363;-;-;-0.46463382;-0.13891114;10.265054;-0.08550275;0.23003419;-0.42119887;10.8;59.550003;-44.25;354.26846;-5.4364443;0.19403574;-;-;-;-;-;-
1531162691373;-;-;-0.4167334;-0.11496094;10.063872;0.0050447243;0.23056683;-0.34290195;10.8;59.550003;-44.25;354.26846;-5.4364443;0.19403574;-;-;-;-;-;-
1531162691384;-;-;-0.29698244;0.05748047;9.877061;0.08600482;0.22577313;-0.29496506;10.8;59.850002;-44.25;354.7643;-5.3017774;-0.096578866;-;-;-;-;-;-
1531162691394;-;-;-0.19160157;0.18681154;9.340576;0.19519442;0.18635835;-0.23744076;10.8;59.850002;-44.25;354.7643;-5.3017774;-0.096578866;-;-;-;-;-;-
1531162691405;-;-;-0.07664063;0.25387207;8.813672;0.23460922;0.15440041;-0.2315818;10.650001;59.7;-45.0;355.09137;-5.3590555;-0.39267462;-;-;-;-;-;-
1531162691415;-;-;-0.023950197;0.38320315;8.454419;0.23673974;0.14055197;-0.22838601;10.650001;59.7;-45.0;355.09137;-5.3590555;-0.39267462;-;-;-;-;-;-
