TimeStamp[ms];Prox[Cm];Lux[lux];AccX[m/s^2];AccY[m/s^2];AccZ[m/s^2];GyroX[rad/s];GyroY[rad/s];GyroZ[rad/s];MagnX[uT];MagnY[uT];MagnZ[uT];OrienYaw[degrees];OrienPitch[degrees];OrienRoll[degrees];Press[Pa];Temp[C°];Batt[%];Lat;Lng;Speed[m/s]
1531162768212;-;-;-0.35925296;0.5939649;9.877061;0.012254377;0.009719345;0.052671123;-6.7500005;25.95;-37.65;14.819185;-2.0055716;-1.619158;-;-;-;-;-;-
1531162768213;-;-;-0.35925296;0.5939649;9.877061;0.012254377;0.009719345;0.052671123;-6.7500005;25.95;-37.65;14.819185;-2.0055716;-1.619158;-;-;-;-;-;-
1531162768230;-;-;-0.2778223;0.3879932;10.030342;0.0090585835;0.048601497;0.051605858;-4.65;26.250002;-39.45;14.819185;-2.0055716;-1.619158;-;-;-;-;-;-
1531162768231;-;-;-0.24908204;0.45984375;10.025552;3.835361E-6;0.057123613;0.057997447;-4.65;26.250002;-39.45;14.784878;-2.0249636;-1.6270887;-;-;-;-;-;-
1531162768236;-;-;-0.32093263;0.4742139;9.905801;0.0058627897;0.048601497;0.052671123;-4.65;26.250002;-39.45;14.784878;-2.0249636;-1.6270887;-;-;-;-;-;-
1531162768246;-;-;-0.34967285;0.4263135;9.78605;-0.009583544;0.015045666;0.052138492;-4.65;26.250002;-39.45;14.784878;-2.0249636;-1.6270887;-;-;-;-;-;-
1531162768257;-;-;-0.2921924;0.46463382;9.881851;-0.009050912;-0.04620704;0.063323766;-7.3500004;26.250002;-40.65;14.718019;-2.0378923;-1.6691965;-;-;-;-;-;-
1531162768267;-;-;-0.23950197;0.4263135;10.035132;0.0074606864;-0.058990214;0.048942696;-7.3500004;26.250002;-40.65;14.718019;-2.0378923;-1.6691965;-;-;-;-;-;-
1531162768277;-;-;-0.119750984;0.32572266;9.920172;0.04154915;-0.089350246;0.04681217;-7.2000003;24.300001;-40.050003;14.652947;-2.0344265;-1.70819;-;-;-;-;-;-
1531162768287;-;-;0.6227051;0.1820215;10.025552;0.047408104;-0.10479658;0.00633212;-7.2000003;24.300001;-40.050003;14.652947;-2.0344265;-1.70819;-;-;-;-;-;-
1531162768297;-;-;-0.24908204;0.6466553;9.685459;0.047940735;-0.029162807;-0.028821606;-4.2000003;24.45;-40.2;14.591373;-2.0381188;-1.650903;-;-;-;-;-;-
1531162768307;-;-;-0.49337405;0.8095166;9.766891;0.025570182;-0.02543438;-0.01284264;-4.2000003;24.45;-40.2;14.591373;-2.0381188;-1.650903;-;-;-;-;-;-
1531162768318;-;-;-0.05269043;0.34967285;10.020762;-0.003722142;0.01877163;0.037216276;-4.9500003;26.250002;-40.2;14.56531;-2.0880394;-1.5428039;-;-;-;-;-;-
1531162768328;-;-;0.1820215;0.4263135;10.178833;-0.009048464;-0.005196821;0.037748907;-4.9500003;26.250002;-40.2;14.56531;-2.0880394;-1.5428039;-;-;-;-;-;-
1531162768338;-;-;-0.1580713;0.4742139;10.174044;0.014387354;0.004923192;0.044673126;-4.3500004;25.95;-36.75;14.589503;-2.1302276;-1.5078133;-;-;-;-;-;-
1531162768348;-;-;0.023950197;0.4742139;10.202784;0.029301055;0.009184249;0.038814172;-4.3500004;25.95;-36.75;14.589503;-2.1302276;-1.5078133;-;-;-;-;-;-
1531162768359;-;-;0.14849122;0.5364844;10.015972;0.038888436;0.036348492;0.026563631;-5.4;25.050001;-38.4;14.553676;-2.1277657;-1.5048803;-;-;-;-;-;-
1531162768368;-;-;0.22513184;0.5556446;9.963282;0.04208423;0.027293745;0.01431309;-5.4;25.050001;-38.4;14.553676;-2.1277657;-1.5048803;-;-;-;-;-;-
1531162768378;-;-;0.081430666;0.5029541;9.862691;0.043682124;-0.0046641883;-0.014449052;-6.6000004;25.2;-40.2;14.510137;-2.1573143;-1.5097908;-;-;-;-;-;-
1531162768388;-;-;0.09101075;0.6179151;9.7621;0.0399537;-0.012653672;-0.024569063;-6.7500005;26.400002;-40.050003;14.510137;-2.1573143;-1.5097908;-;-;-;-;-;-
1531162768399;-;-;0.0047900393;0.57001466;9.833951;0.0063978704;-0.0041315565;-0.050668042;-6.7500005;26.400002;-40.050003;14.487669;-2.2031682;-1.535927;-;-;-;-;-;-
1531162768408;-;-;-0.1341211;0.5125342;9.800421;-0.004254774;0.004923192;-0.05279857;-6.7500005;26.400002;-40.050003;14.487669;-2.2031682;-1.535927;-;-;-;-;-;-
1531162768418;-;-;-0.13891114;0.44547364;9.963282;-0.024494799;0.020902159;-0.043211192;-4.65;24.150002;-39.45;14.511812;-2.2452536;-1.5269436;-;-;-;-;-;-
1531162768429;-;-;-0.23471193;0.39757326;10.126143;-0.020233741;0.019836893;-0.043211192;-5.25;24.750002;-39.45;14.511812;-2.2452536;-1.5269436;-;-;-;-;-;-
1531162768438;-;-;-0.27303225;0.37362307;10.078242;-0.011711624;0.03262007;-0.035754338;-5.25;24.750002;-39.45;14.565742;-2.2462432;-1.5262258;-;-;-;-;-;-
1531162768448;-;-;-0.25387207;0.40715334;10.140513;-0.006385303;0.03528323;-0.018177476;-6.3;25.2;-38.25;14.617409;-2.2185564;-1.5496439;-;-;-;-;-;-
1531162768459;-;-;-0.27303225;0.4167334;10.054293;0.0037347092;0.03581586;-0.021373268;-6.3;25.2;-38.25;14.617409;-2.2185564;-1.5496439;-;-;-;-;-;-
1531162768468;-;-;-0.28261232;0.39757326;10.154883;0.014919986;0.03368533;-0.014449052;-6.3;25.2;-38.25;14.617409;-2.2185564;-1.5496439;-;-;-;-;-;-
1531162768478;-;-;-0.2778223;0.47900394;10.001602;0.018648412;0.029424274;-0.018710108;-6.3;24.750002;-39.0;14.651923;-2.2082582;-1.5917258;-;-;-;-;-;-
1531162768488;-;-;-0.1820215;0.48379397;9.929751;0.03036632;0.025163217;-0.012318523;-5.4;25.650002;-40.95;14.671144;-2.2178948;-1.6315777;-;-;-;-;-;-
1531162768498;-;-;-0.2682422;0.50774413;9.829161;0.02290947;0.017173734;-0.023503799;-5.4;25.650002;-40.95;14.671144;-2.2178948;-1.6315777;-;-;-;-;-;-
1531162768509;-;-;-0.28740236;0.4263135;9.81;0.02290947;0.019836893;-0.020308005;-5.55;24.45;-39.0;14.690486;-2.245391;-1.662269;-;-;-;-;-;-
1531162768519;-;-;-0.2921924;0.45505372;9.75252;0.014919986;0.001194766;-0.014449052;-5.55;24.45;-39.0;14.690486;-2.245391;-1.662269;-;-;-;-;-;-
1531162768529;-;-;-0.31135255;0.39757326;9.70941;0.012789457;0.0166411;-0.018177476;-6.15;26.400002;-38.4;14.709008;-2.2720327;-1.6816728;-;-;-;-;-;-
1531162768539;-;-;-0.23471193;0.5412744;9.77168;-0.015972683;0.02569585;-0.022971166;-6.15;26.400002;-38.4;14.709008;-2.2720327;-1.6816728;-;-;-;-;-;-
1531162768550;-;-;-0.3065625;0.5460645;9.848321;-0.02928849;0.037413757;-0.03096065;-6.6000004;25.2;-39.0;14.725732;-2.2828264;-1.6949453;-;-;-;-;-;-
1531162768559;-;-;-0.39757326;0.44547364;9.829161;-0.04580009;0.037413757;-0.019242741;-6.6000004;25.2;-39.0;14.725732;-2.2828264;-1.6949453;-;-;-;-;-;-
1531162768569;-;-;-0.3879932;0.46942386;9.953702;-0.05325694;0.036881126;-0.019775372;-5.8500004;25.95;-40.95;14.750353;-2.259734;-1.7263399;-;-;-;-;-;-
1531162768579;-;-;-0.48379397;0.46463382;10.044712;-0.055387467;0.04060955;4.6465162E-4;-5.8500004;25.95;-40.95;14.750353;-2.259734;-1.7263399;-;-;-;-;-;-
1531162768589;-;-;-0.47900394;0.5221143;10.083033;-0.044734824;0.03368533;9.972838E-4;-6.7500005;24.6;-37.65;14.774252;-2.2040913;-1.7717931;-;-;-;-;-;-
1531162768600;-;-;-0.4167334;0.4981641;10.150093;-0.041006397;0.024097951;0.0127151925;-6.7500005;24.6;-37.65;14.774252;-2.2040913;-1.7717931;-;-;-;-;-;-
1531162768610;-;-;-0.41194338;0.52690434;10.183623;-0.035147443;0.012380043;0.007921503;-5.1000004;25.35;-38.4;14.774938;-2.143499;-1.8154006;-;-;-;-;-;-
1531162768620;-;-;-0.47900394;0.5221143;10.241104;-0.03674534;0.013977939;0.022302574;-5.1000004;25.35;-38.4;14.774938;-2.143499;-1.8154006;-;-;-;-;-;-
1531162768630;-;-;-0.488584;0.45984375;10.226734;-0.027690593;0.023565318;0.029759426;-6.15;25.050001;-39.300003;14.766059;-2.095846;-1.8404233;-;-;-;-;-;-
1531162768640;-;-;-0.50774413;0.4981641;10.399176;-0.016505316;0.038479023;0.039346803;-6.15;25.050001;-39.300003;14.766059;-2.095846;-1.8404233;-;-;-;-;-;-
1531162768651;-;-;-0.364043;0.4406836;10.327325;-0.0031895097;0.052860092;0.054260507;-5.25;25.2;-38.7;14.7450695;-2.0589485;-1.8634384;-;-;-;-;-;-
1531162768661;-;-;-0.32093263;0.48379397;10.269844;0.0016041804;0.049131665;0.070772104;-5.25;25.2;-38.7;14.7450695;-2.0589485;-1.8634384;-;-;-;-;-;-
1531162768671;-;-;-0.2682422;0.4742139;10.178833;0.014919986;0.043805346;0.06864157;-5.8500004;25.35;-39.300003;14.693981;-2.0458596;-1.911077;-;-;-;-;-;-
1531162768681;-;-;-0.14370118;0.5508545;10.145303;0.023974733;0.024630584;0.06704368;-5.8500004;25.35;-39.300003;14.693981;-2.0458596;-1.911077;-;-;-;-;-;-
1531162768691;-;-;-0.09580079;0.5221143;10.078242;0.03516001;0.006521088;0.055325773;-6.3;25.500002;-38.7;14.615966;-2.056798;-1.9663422;-;-;-;-;-;-
1531162768701;-;-;-0.043110352;0.56522465;10.145303;0.048475817;-0.014784201;0.048401553;-6.3;25.500002;-38.7;14.615966;-2.056798;-1.9663422;-;-;-;-;-;-
1531162768712;-;-;-0.014370117;0.57959473;10.111773;0.059661094;-0.023838948;0.051064715;-5.55;25.500002;-39.45;14.544292;-2.087815;-1.9922881;-;-;-;-;-;-
1531162768722;-;-;0.07185059;0.50774413;10.035132;0.06179162;-0.015849466;0.048934184;-5.55;25.500002;-39.45;14.544292;-2.087815;-1.9922881;-;-;-;-;-;-
1531162768732;-;-;0.009580079;0.5604346;10.044712;0.053269506;0.0017273983;0.037216276;-5.25;25.800001;-37.800003;14.487264;-2.1419456;-1.9723128;-;-;-;-;-;-
1531162768742;-;-;0.043110352;0.5029541;10.015972;0.05433477;0.0166411;0.034020483;-5.25;25.800001;-37.800003;14.487264;-2.1419456;-1.9723128;-;-;-;-;-;-
1531162768752;-;-;0.07664063;0.56522465;9.944121;0.05433477;0.009716881;0.031889953;-5.4;24.0;-38.850002;14.435338;-2.2161732;-1.955981;-;-;-;-;-;-
1531162768762;-;-;0.17244141;0.57959473;9.939331;0.058063194;0.009716881;0.025498368;-5.4;24.0;-38.850002;14.435338;-2.2161732;-1.955981;-;-;-;-;-;-
1531162768772;-;-;0.043110352;0.6562354;9.915381;0.055932667;0.001194766;0.009519399;-5.55;25.500002;-37.5;14.392551;-2.276521;-1.9648914;-;-;-;-;-;-
1531162768783;-;-;0.1580713;0.6322852;9.81958;0.056465298;-9.357629E-4;-0.009655361;-5.55;25.500002;-37.5;14.392551;-2.276521;-1.9648914;-;-;-;-;-;-
1531162768793;-;-;0.17244141;0.6227051;9.718989;0.058063194;-0.013186304;-0.026166959;-5.8500004;25.650002;-39.600002;14.362344;-2.340244;-1.9707285;-;-;-;-;-;-
1531162768803;-;-;0.20597169;0.6610254;9.589659;0.0234421;-0.025969477;-0.0549291;-5.8500004;25.650002;-39.600002;14.362344;-2.340244;-1.9707285;-;-;-;-;-;-
1531162768813;-;-;0.17244141;0.67539555;9.546548;0.0021368125;-0.017447362;-0.06984281;-6.0;25.500002;-39.0;14.370753;-2.4080064;-1.963173;-;-;-;-;-;-
1531162768823;-;-;0.12454102;0.5843848;9.766891;-0.030886386;-0.011588408;-0.102866;-6.0;25.500002;-39.0;14.370753;-2.4080064;-1.963173;-;-;-;-;-;-
1531162768833;-;-;-0.0047900393;0.45026368;9.953702;-0.034082178;0.019836893;-0.123106025;-6.4500003;24.0;-40.050003;14.422857;-2.4441907;-1.9388516;-;-;-;-;-;-
1531162768844;-;-;-0.2203418;0.51732427;9.857901;-0.033549547;0.014510572;-0.12044287;-6.4500003;24.0;-40.050003;14.422857;-2.4441907;-1.9388516;-;-;-;-;-;-
1531162768854;-;-;-0.34009278;0.45026368;9.929751;-0.026092697;0.0054558236;-0.11138812;-5.55;25.2;-40.2;14.533159;-2.4159584;-1.9345757;-;-;-;-;-;-
1531162768864;-;-;-0.3879932;0.3879932;9.848321;-0.0053200386;-0.0025336596;-0.09753968;-5.55;25.2;-40.2;14.533159;-2.4159584;-1.9345757;-;-;-;-;-;-
1531162768874;-;-;-0.34488282;0.364043;9.7621;5.38916E-4;-0.015316833;-0.08475651;-4.65;25.800001;-38.7;14.671939;-2.3732648;-1.9585702;-;-;-;-;-;-
1531162768884;-;-;-0.34967285;0.39278322;9.70941;-0.007983199;-0.035024226;-0.08528914;-4.65;25.800001;-38.7;14.671939;-2.3732648;-1.9585702;-;-;-;-;-;-
1531162768894;-;-;-0.3065625;0.35925296;9.75731;-0.019168478;-0.04727477;-0.08315861;-4.65;25.800001;-39.0;14.787625;-2.3563876;-1.9630375;-;-;-;-;-;-
1531162768905;-;-;-0.34488282;0.38320315;9.814791;-0.04633272;-0.04354634;-0.07996282;-4.65;25.800001;-39.0;14.787625;-2.3563876;-1.9630375;-;-;-;-;-;-
1531162768915;-;-;-0.4023633;0.34488282;9.867481;-0.06550748;-0.025969477;-0.071440704;-4.9500003;25.2;-38.25;14.884677;-2.3502126;-1.9354708;-;-;-;-;-;-
1531162768925;-;-;-0.4167334;0.27303225;10.025552;-0.076160125;-0.017447362;-0.05759226;-4.9500003;25.2;-38.25;14.884677;-2.3502126;-1.9354708;-;-;-;-;-;-
1531162768935;-;-;-0.39757326;0.28740236;10.174044;-0.06870327;-0.0030662918;-0.043743823;-4.05;25.35;-38.4;14.980897;-2.3022337;-1.8874191;-;-;-;-;-;-
1531162768945;-;-;-0.4023633;0.34488282;10.174044;-0.048463248;-0.0020010273;-0.026166959;-4.05;25.35;-38.4;14.980897;-2.3022337;-1.8874191;-;-;-;-;-;-
1531162768956;-;-;-0.3065625;0.32572266;10.063872;-0.035680078;-0.017447362;-0.0219059;-5.1000004;24.0;-39.300003;15.055879;-2.2178948;-1.866783;-;-;-;-;-;-
1531162768966;-;-;-0.3784131;0.32572266;9.972861;-0.03248428;-0.017447362;-0.01657958;-5.1000004;24.0;-39.300003;15.055879;-2.2178948;-1.866783;-;-;-;-;-;-
1531162768976;-;-;-0.37362307;0.364043;10.015972;-0.03248428;-0.028100006;-0.016046947;-4.9500003;24.150002;-39.9;15.094535;-2.1531353;-1.8611069;-;-;-;-;-;-
1531162768987;-;-;-0.39757326;0.34967285;9.901011;-0.03674534;-0.032893695;9.972838E-4;-3.7500002;25.35;-38.850002;15.094535;-2.1531353;-1.8611069;-;-;-;-;-;-
1531162768997;-;-;-0.43110353;0.43110353;9.996812;-0.049528513;-0.052601088;-0.0032637739;-3.7500002;25.35;-38.850002;15.113256;-2.1107483;-1.8473672;-;-;-;-;-;-
1531162769007;-;-;-0.43110353;0.4023633;10.011182;-0.051659044;-0.044611607;0.010584664;-3.7500002;25.35;-38.850002;15.113256;-2.1107483;-1.8473672;-;-;-;-;-;-
1531162769017;-;-;-0.43589357;0.44547364;10.011182;-0.044202194;-0.01957789;0.022302574;-5.8500004;24.6;-38.100002;15.125528;-2.0650005;-1.8150537;-;-;-;-;-;-
1531162769028;-;-;-0.46463382;0.42152345;10.015972;-0.0394085;-0.017447362;0.032955218;-6.0;25.2;-38.25;15.1211605;-2.0091603;-1.7669849;-;-;-;-;-;-
1531162769038;-;-;-0.40715334;0.4167334;9.915381;-0.035680078;-0.012653672;0.034553114;-6.0;25.2;-38.25;15.1211605;-2.0091603;-1.7669849;-;-;-;-;-;-
1531162769048;-;-;-0.42152345;0.49337405;9.867481;-0.042604294;-0.01904526;0.037216276;-5.55;24.150002;-39.0;15.089733;-1.9591304;-1.7408392;-;-;-;-;-;-
1531162769058;-;-;-0.3161426;0.5221143;9.915381;-0.038343236;-0.035024226;0.04041207;-5.55;24.150002;-39.0;15.089733;-1.9591304;-1.7408392;-;-;-;-;-;-
1531162769068;-;-;-0.36883304;0.45984375;9.905801;-0.038343236;-0.04035055;0.03828154;-6.4500003;25.050001;-39.600002;15.04389;-1.9197911;-1.7190753;-;-;-;-;-;-
1531162769078;-;-;-0.4023633;0.45505372;9.915381;-0.03248428;-0.046742134;0.036683645;-6.4500003;25.050001;-39.600002;15.04389;-1.9197911;-1.7190753;-;-;-;-;-;-
1531162769089;-;-;-0.43110353;0.45984375;9.982442;-0.030353755;-0.059525307;0.03508575;-5.25;24.45;-38.25;14.996209;-1.8779707;-1.6781607;-;-;-;-;-;-
1531162769098;-;-;-0.41194338;0.5508545;10.097403;-0.009048464;-0.07017795;0.05958683;-5.25;24.45;-38.25;14.996209;-1.8779707;-1.6781607;-;-;-;-;-;-
1531162769108;-;-;-0.30177248;0.45026368;10.145303;0.009593665;-0.079765335;0.06864157;-4.8;25.35;-38.4;14.956485;-1.8372132;-1.6152658;-;-;-;-;-;-
1531162769118;-;-;-0.19639161;0.46463382;10.140513;0.04474739;-0.08722218;0.076631054;-4.8;25.35;-38.4;14.956485;-1.8372132;-1.6152658;-;-;-;-;-;-
1531162769128;-;-;-0.019160157;0.45984375;10.015972;0.05380214;-0.08402639;0.06704368;-6.15;25.95;-37.65;14.890546;-1.8376685;-1.5257666;-;-;-;-;-;-
1531162769138;-;-;-0.081430666;0.50774413;9.996812;0.05167161;-0.08615692;0.061184727;-6.15;25.95;-37.65;14.890546;-1.8376685;-1.5257666;-;-;-;-;-;-
1531162769149;-;-;-0.014370117;0.5125342;10.054293;0.045812655;-0.08828745;0.05692367;-5.8500004;25.050001;-39.300003;14.814828;-1.8927561;-1.424112;-;-;-;-;-;-
1531162769158;-;-;0.07664063;0.46463382;9.982442;0.045812655;-0.0808306;0.041477334;-5.8500004;25.050001;-39.300003;14.814828;-1.8927561;-1.424112;-;-;-;-;-;-
1531162769168;-;-;0.12454102;0.47900394;9.992022;0.043682124;-0.065916896;0.037216276;-4.3500004;25.050001;-39.300003;14.753722;-1.9536707;-1.324844;-;-;-;-;-;-
1531162769178;-;-;0.14849122;0.488584;10.073453;0.046345286;-0.063786365;0.016976252;-4.3500004;25.050001;-39.300003;14.753722;-1.9536707;-1.324844;-;-;-;-;-;-
1531162769188;-;-;0.22992188;0.5221143;9.8866415;0.053269506;-0.058992676;0.01431309;-4.9500003;25.500002;-39.0;14.708656;-2.0051105;-1.2386678;-;-;-;-;-;-
1531162769198;-;-;0.24908204;0.5604346;9.877061;0.040486332;-0.036622122;-0.025634326;-4.9500003;25.500002;-39.0;14.708656;-2.0051105;-1.2386678;-;-;-;-;-;-
1531162769209;-;-;0.21076173;0.488584;9.7621;0.018648412;-0.030763168;-0.046406984;-5.1000004;25.050001;-38.850002;14.699157;-2.0592813;-1.1703163;-;-;-;-;-;-
1531162769219;-;-;0.16286133;0.4742139;9.68067;-0.007983199;-0.003598924;-0.088484935;-5.1000004;25.050001;-38.850002;14.699157;-2.0592813;-1.1703163;-;-;-;-;-;-
1531162769229;-;-;0.11496094;0.43589357;9.68067;-0.0394085;0.008651617;-0.10872496;-3.9;26.250002;-39.0;14.7396145;-2.0927734;-1.1348729;-;-;-;-;-;-
1531162769239;-;-;-0.05269043;0.34488282;9.75731;-0.06763801;0.01930426;-0.12576918;-3.9;26.250002;-39.0;14.7396145;-2.0927734;-1.1348729;-;-;-;-;-;-
1531162769249;-;-;-0.21076173;0.26345217;9.891431;-0.0857475;0.027826376;-0.1374871;-7.05;25.500002;-41.100002;14.839188;-2.0678744;-1.1376605;-;-;-;-;-;-
1531162769259;-;-;-0.45026368;0.16765137;10.111773;-0.09959594;0.044337977;-0.1225734;-7.05;25.500002;-41.100002;14.839188;-2.0678744;-1.1376605;-;-;-;-;-;-
1531162769270;-;-;-0.4406836;0.18681154;10.145303;-0.09533489;0.039544284;-0.099137574;-6.15;25.650002;-39.600002;14.985869;-1.9792019;-1.1671712;-;-;-;-;-;-
1531162769280;-;-;-0.4406836;0.047900394;10.293795;-0.08042118;0.032087434;-0.0746365;-6.15;25.650002;-39.600002;14.985869;-1.9792019;-1.1671712;-;-;-;-;-;-
1531162769290;-;-;-0.4981641;0.009580079;10.193204;-0.0559201;0.049131665;-0.059190158;-6.4500003;25.050001;-38.850002;15.120031;-1.8616171;-1.215715;-;-;-;-;-;-
1531162769300;-;-;-0.52690434;0.100590825;10.289004;-0.041006397;0.030489538;-0.018177476;-6.4500003;25.050001;-38.850002;15.120031;-1.8616171;-1.215715;-;-;-;-;-;-
1531162769310;-;-;-0.5029541;0.1341211;10.2315235;-0.02236427;0.028891642;-6.0061284E-4;-5.8500004;25.050001;-38.100002;15.201055;-1.7765981;-1.2623179;-;-;-;-;-;-
1531162769321;-;-;-0.4406836;0.1580713;10.188414;0.0042706714;0.0038545767;0.01643204;-5.8500004;25.050001;-38.100002;15.201055;-1.7765981;-1.2623179;-;-;-;-;-;-
1531162769331;-;-;-0.37362307;0.15328126;10.083033;0.014390684;-0.017450713;0.034541536;-4.9500003;25.500002;-38.7;15.221392;-1.7312188;-1.3072305;-;-;-;-;-;-
1531162769341;-;-;-0.34009278;0.34009278;9.972861;0.0229128;-0.031831782;0.045194183;-4.9500003;25.500002;-38.7;15.221392;-1.7312188;-1.3072305;-;-;-;-;-;-
1531162769351;-;-;-0.21555176;0.3784131;9.977652;0.029837018;-0.04781075;0.05691209;-5.25;25.2;-38.7;15.1974945;-1.7337952;-1.3100765;-;-;-;-;-;-
1531162769362;-;-;-0.12933107;0.4263135;9.963282;0.01598858;-0.04141916;0.07022789;-5.25;25.2;-38.7;15.1974945;-1.7337952;-1.3100765;-;-;-;-;-;-
1531162769372;-;-;-0.05269043;0.4406836;9.968072;0.010129626;-0.02171177;0.06490157;-4.65;26.250002;-36.600002;15.146087;-1.7629339;-1.2716012;-;-;-;-;-;-
1531162769382;-;-;0.009580079;0.4742139;10.044712;0.0037380392;-0.011059125;0.06277104;-4.65;26.250002;-36.600002;15.146087;-1.7629339;-1.2716012;-;-;-;-;-;-
1531162769392;-;-;0.014370117;0.5556446;10.030342;0.0026727747;-0.008395964;0.0654342;-6.15;25.95;-37.65;15.07568;-1.7876672;-1.2272153;-;-;-;-;-;-
1531162769402;-;-;0.10538086;0.50774413;9.963282;0.010129626;-0.021179138;0.05424893;-6.15;25.95;-37.65;15.07568;-1.7876672;-1.2272153;-;-;-;-;-;-
1531162769412;-;-;0.21555176;0.5412744;9.958491;0.005868568;-0.030766519;0.041998386;-5.8500004;25.95;-39.600002;15.007924;-1.7967824;-1.2111409;-;-;-;-;-;-
1531162769422;-;-;0.19160157;0.5604346;9.944121;0.0021401425;-0.032897044;0.003648866;-5.8500004;25.95;-39.600002;15.007924;-1.7967824;-1.2111409;-;-;-;-;-;-
1531162769433;-;-;0.22513184;0.5891748;10.025552;-0.0015882831;-0.03129915;-0.009666939;-5.1000004;25.650002;-40.050003;14.951301;-1.8081373;-1.1845462;-;-;-;-;-;-
1531162769443;-;-;0.18681154;0.5508545;10.025552;9.613577E-6;-0.024374932;-0.026178539;-5.1000004;25.650002;-40.050003;14.951301;-1.8081373;-1.1845462;-;-;-;-;-;-
1531162769453;-;-;0.1820215;0.45984375;9.992022;0.001074878;-0.02171177;-0.035765916;-5.8500004;25.650002;-38.4;14.938922;-1.8125176;-1.1505458;-;-;-;-;-;-
1531162769463;-;-;0.086220704;0.45026368;9.910591;-0.022893572;-0.0238423;-0.04055961;-5.8500004;25.650002;-38.4;14.938922;-1.8125176;-1.1505458;-;-;-;-;-;-
1531162769473;-;-;0.05269043;0.45026368;10.063872;-0.027687263;-0.006798068;-0.0586691;-6.15;25.050001;-39.300003;14.963002;-1.813013;-1.1185138;-;-;-;-;-;-
1531162769483;-;-;-0.014370117;0.52690434;10.193204;-0.029285159;0.0033219445;-0.057071205;-6.15;25.050001;-39.300003;14.963002;-1.813013;-1.1185138;-;-;-;-;-;-
1531162769494;-;-;-0.10538086;0.39757326;10.241104;-0.021828309;0.014507222;-0.07038701;-5.25;25.800001;-39.45;15.011339;-1.7952114;-1.0980761;-;-;-;-;-;-
1531162769504;-;-;-0.15328126;0.3161426;10.279425;-0.026089367;0.0097135315;-0.06825649;-5.25;25.800001;-39.45;15.011339;-1.7952114;-1.0980761;-;-;-;-;-;-
1531162769514;-;-;-0.1101709;0.31135255;10.370435;-0.008512503;0.03314935;-0.0586691;-6.4500003;25.650002;-37.65;15.083369;-1.7598386;-1.1014509;-;-;-;-;-;-
1531162769524;-;-;-0.119750984;0.31135255;10.202784;0.005868568;0.0406062;-0.060267;-6.4500003;25.650002;-37.65;15.083369;-1.7598386;-1.1014509;-;-;-;-;-;-
1531162769534;-;-;-0.12933107;0.28740236;10.126143;0.007999097;0.04699779;-0.05494068;-4.05;24.6;-38.850002;15.159157;-1.7430964;-1.1203674;-;-;-;-;-;-
1531162769544;-;-;-0.1341211;0.3544629;10.106983;0.011727523;0.04699779;-0.05547331;-4.05;24.6;-38.850002;15.159157;-1.7430964;-1.1203674;-;-;-;-;-;-
1531162769555;-;-;-0.25866213;0.34009278;10.116563;0.028239122;0.048595686;-0.038429078;-5.25;25.500002;-39.9;15.224578;-1.7518784;-1.1685461;-;-;-;-;-;-
1531162769565;-;-;-0.23950197;0.3784131;10.020762;0.041022293;0.056052536;-0.046418563;-5.25;25.500002;-39.9;15.224578;-1.7518784;-1.1685461;-;-;-;-;-;-
1531162769575;-;-;-0.17723145;0.36883304;9.7621;0.043152824;0.045932524;-0.040026974;-5.4;24.0;-38.100002;15.283069;-1.7679839;-1.2280688;-;-;-;-;-;-
1531162769585;-;-;-0.22513184;0.42152345;9.613608;0.04208756;0.07149887;-0.04109224;-5.4;24.0;-38.100002;15.283069;-1.7679839;-1.2280688;-;-;-;-;-;-
1531162769595;-;-;-0.19160157;0.46942386;9.74773;0.0026727747;0.023561968;-0.04322277;-4.65;24.45;-38.7;15.326462;-1.8072876;-1.2864181;-;-;-;-;-;-
1531162769605;-;-;-0.05269043;0.50774413;9.613608;-0.010643031;0.034214616;-0.05760384;-4.65;24.750002;-39.9;15.370676;-1.8444476;-1.3513972;-;-;-;-;-;-
1531162769616;-;-;-0.16765137;0.34967285;9.671089;-0.030883055;0.03261672;-0.06506069;-4.65;24.750002;-39.9;15.370676;-1.8444476;-1.3513972;-;-;-;-;-;-
1531162769626;-;-;-0.27303225;0.34009278;9.905801;-0.061775725;0.03314935;-0.080507025;-6.0;25.2;-38.7;15.433136;-1.8335569;-1.3920536;-;-;-;-;-;-
1531162769636;-;-;-0.27303225;0.30177248;10.126143;-0.06550415;0.032084085;-0.072517544;-6.0;25.2;-38.7;15.433136;-1.8335569;-1.3920536;-;-;-;-;-;-
1531162769646;-;-;-0.3161426;0.2921924;10.212363;-0.06603678;0.035812512;-0.054408047;-6.3;24.45;-38.7;15.517933;-1.7746962;-1.4325445;-;-;-;-;-;-
1531162769656;-;-;-0.28261232;0.21076173;10.241104;-0.043133598;0.041671466;-0.038961712;-6.3;24.45;-38.7;15.517933;-1.7746962;-1.4325445;-;-;-;-;-;-
1531162769667;-;-;-0.30177248;0.26345217;10.293795;-0.025556734;0.051258847;-0.030439597;-4.05;25.050001;-38.850002;15.588366;-1.699317;-1.4789097;-;-;-;-;-;-
1531162769677;-;-;-0.2921924;0.30177248;10.260264;-0.0042514442;0.04486726;-0.010199572;-4.05;25.050001;-38.850002;15.588366;-1.699317;-1.4789097;-;-;-;-;-;-
1531162769687;-;-;-0.27303225;0.27303225;10.197993;0.012260155;0.028355658;0.0073772916;-5.8500004;25.050001;-39.300003;15.623569;-1.660164;-1.531539;-;-;-;-;-;-
1531162769697;-;-;-0.22513184;0.27303225;10.083033;0.035695974;0.02143144;0.01643204;-5.8500004;25.050001;-39.300003;15.623569;-1.660164;-1.531539;-;-;-;-;-;-
1531162769708;-;-;-0.12933107;0.35925296;9.934542;0.040489662;-0.0030696422;0.016964672;-4.05;24.300001;-40.050003;15.623915;-1.6661565;-1.5771793;-;-;-;-;-;-
1531162769718;-;-;-0.086220704;0.38320315;9.82437;0.017586477;-0.013722287;0.013236246;-4.05;24.300001;-40.050003;15.623915;-1.6661565;-1.5771793;-;-;-;-;-;-
1531162769728;-;-;-0.09580079;0.39278322;9.833951;0.010129626;-0.0036022745;0.006844659;-5.1000004;26.400002;-38.4;15.605726;-1.7117875;-1.5881515;-;-;-;-;-;-
1531162769739;-;-;-0.086220704;0.4406836;9.934542;-0.009577766;-0.014787551;0.0031162337;-5.1000004;26.400002;-38.4;15.605726;-1.7117875;-1.5881515;-;-;-;-;-;-
1531162769748;-;-;-0.06706055;0.43110353;10.030342;-0.0053167087;-0.0073307003;0.0047141304;-4.8;26.400002;-39.300003;15.596799;-1.7302492;-1.5857911;-;-;-;-;-;-
1531162769758;-;-;-0.09101075;0.39278322;10.188414;0.020249639;-0.004134907;0.0025836015;-4.8;26.400002;-39.300003;15.596799;-1.7302492;-1.5857911;-;-;-;-;-;-
1531162769769;-;-;-0.1101709;0.4167334;10.044712;0.029304385;-4.0648115E-4;-0.0022100885;-3.9;26.250002;-38.7;15.5926895;-1.7315688;-1.5796055;-;-;-;-;-;-
1531162769780;-;-;-0.014370117;0.46942386;9.987232;0.023978064;-0.009993861;-0.005405882;-3.9;26.250002;-38.7;15.5926895;-1.7315688;-1.5796055;-;-;-;-;-;-
1531162769789;-;-;-0.019160157;0.32572266;9.958491;0.03036965;0.005452473;-0.018721689;-4.9500003;24.45;-40.2;15.590015;-1.75331;-1.5718951;-;-;-;-;-;-
1531162769800;-;-;0.0047900393;0.48379397;9.83874;0.022380168;0.012909325;-0.029374333;-4.9500003;24.45;-40.2;15.590015;-1.75331;-1.5718951;-;-;-;-;-;-
1531162769810;-;-;-0.033530276;0.46942386;9.891431;0.0069338325;0.029953556;-0.035233285;-4.2000003;25.800001;-37.800003;15.6004095;-1.7935988;-1.5736413;-;-;-;-;-;-
1531162769820;-;-;-0.119750984;0.38320315;9.924961;-0.014901543;0.026222568;-0.036840037;-4.2000003;25.800001;-37.800003;15.6004095;-1.7935988;-1.5736413;-;-;-;-;-;-
1531162769831;-;-;-0.22992188;0.4167334;9.8866415;-0.0101078525;0.017167822;-0.033644244;-5.1000004;25.050001;-39.600002;15.632155;-1.8134717;-1.5941672;-;-;-;-;-;-
1531162769841;-;-;-0.20118165;0.40715334;9.987232;-0.0053141625;0.011308866;-0.041633725;-5.1000004;25.050001;-39.600002;15.632155;-1.8134717;-1.5941672;-;-;-;-;-;-
1531162769851;-;-;-0.2203418;0.36883304;10.073453;0.0042732176;-0.0030722045;-0.036307406;-4.3500004;24.6;-38.850002;15.676243;-1.8007913;-1.6200361;-;-;-;-;-;-
1531162769862;-;-;-0.09580079;0.45505372;9.963282;0.002675321;-0.011061687;-0.050688475;-4.3500004;24.6;-38.850002;15.676243;-1.8007913;-1.6200361;-;-;-;-;-;-
1531162769872;-;-;-0.09580079;0.39757326;10.001602;0.0032079532;0.0017214856;-0.051221106;-4.8;24.300001;-38.100002;15.718652;-1.7910061;-1.6243117;-;-;-;-;-;-
1531162769882;-;-;-0.100590825;0.4263135;9.924961;-0.0015857368;0.010776234;-0.06506954;-4.8;24.300001;-38.100002;15.718652;-1.7910061;-1.6243117;-;-;-;-;-;-
1531162769892;-;-;-0.14849122;0.34967285;9.953702;-0.011705749;0.018233085;-0.06506954;-3.9;25.500002;-37.800003;15.770279;-1.7972385;-1.6167514;-;-;-;-;-;-
1531162769903;-;-;-0.2921924;0.3305127;9.905801;-0.02129313;0.018233085;-0.05921059;-3.9;25.500002;-37.800003;15.770279;-1.7972385;-1.6167514;-;-;-;-;-;-
1531162769912;-;-;-0.25866213;0.32093263;9.843531;-0.023423659;0.02888573;-0.044296887;-5.8500004;25.650002;-39.300003;15.836706;-1.7916802;-1.6272466;-;-;-;-;-;-
1531162769923;-;-;-0.3065625;0.31135255;9.910591;-0.027152084;0.03580995;-0.03470951;-5.8500004;25.650002;-39.300003;15.836706;-1.7916802;-1.6272466;-;-;-;-;-;-
1531162769933;-;-;-0.28261232;0.36883304;9.85311;-0.025554188;0.0267552;-0.031513717;-4.3500004;25.35;-37.65;15.905006;-1.7706906;-1.6536738;-;-;-;-;-;-
1531162769942;-;-;-0.26345217;0.364043;9.829161;-0.020760497;0.0059825433;-0.026720025;-4.3500004;25.35;-37.65;15.905006;-1.7706906;-1.6536738;-;-;-;-;-;-
1531162769952;-;-;-0.27303225;0.35925296;9.862691;-0.018629968;-0.029703815;-0.026187392;-4.65;26.250002;-38.25;15.946081;-1.7397752;-1.6925094;-;-;-;-;-;-
1531162769963;-;-;-0.22513184;0.46463382;9.982442;-0.006379427;-0.034497507;-0.015002117;-4.65;26.250002;-38.25;15.946081;-1.7397752;-1.6925094;-;-;-;-;-;-
1531162769973;-;-;-0.23471193;0.34488282;9.982442;-0.007977324;-0.036628034;-0.026187392;-3.7500002;25.050001;-38.850002;15.978744;-1.7164432;-1.70005;-;-;-;-;-;-
1531162769983;-;-;-0.2682422;0.32093263;9.963282;-0.0037162658;-0.020116435;-0.024056863;-3.7500002;25.050001;-38.850002;15.978744;-1.7164432;-1.70005;-;-;-;-;-;-
1531162769993;-;-;-0.2921924;0.2921924;9.891431;-0.012771014;6.562212E-4;-0.018197909;-5.1000004;25.050001;-39.300003;16.007399;-1.7046024;-1.6598318;-;-;-;-;-;-
1531162770004;-;-;-0.29698244;0.364043;9.843531;-0.012238381;0.00758044;-0.0011536784;-5.1000004;25.050001;-39.300003;16.007399;-1.7046024;-1.6598318;-;-;-;-;-;-
1531162770014;-;-;-0.34967285;0.32572266;9.699829;-0.022358393;-0.00200694;0.008966333;-5.8500004;25.35;-39.300003;16.03549;-1.696666;-1.6363772;-;-;-;-;-;-
1531162770024;-;-;-0.35925296;0.37362307;9.83874;-0.022891026;-0.013192216;0.011629495;-5.25;25.2;-40.2;16.039711;-1.6770425;-1.6428536;-;-;-;-;-;-
1531162770035;-;-;-0.28261232;0.364043;9.81958;-0.015434174;-0.058465954;0.02707583;-5.25;25.2;-40.2;16.039711;-1.6770425;-1.6428536;-;-;-;-;-;-
1531162770045;-;-;-0.26345217;0.3544629;9.872271;-0.007977324;-0.079238616;0.020684244;-6.0;25.800001;-38.7;16.023676;-1.6510614;-1.6183856;-;-;-;-;-;-
1531162770055;-;-;-0.19160157;0.3065625;9.77647;0.011197437;-0.11332708;0.019086346;-6.0;25.800001;-38.7;16.023676;-1.6510614;-1.6183856;-;-;-;-;-;-
1531162770065;-;-;-0.17244141;0.34488282;9.7812605;0.015991127;-0.1202513;0.011629495;-3.0;25.050001;-38.4;16.002972;-1.6487337;-1.5223788;-;-;-;-;-;-
1531162770076;-;-;-0.1580713;0.32572266;9.75252;-0.0047815302;-0.11332708;0.0068358043;-3.0;25.050001;-38.4;16.002972;-1.6487337;-1.5223788;-;-;-;-;-;-
1531162770086;-;-;-0.09580079;0.3544629;9.82437;-0.011173117;-0.102141805;0.018021083;-5.25;25.2;-37.800003;15.992599;-1.6621438;-1.3812643;-;-;-;-;-;-
1531162770096;-;-;-0.2203418;0.3879932;9.977652;-0.042065784;-0.06272702;0.012694759;-5.25;25.2;-37.800003;15.992599;-1.6621438;-1.3812643;-;-;-;-;-;-
1531162770107;-;-;-0.12454102;0.36883304;9.944121;-0.052185796;-0.031301714;0.023347404;-6.15;25.050001;-38.4;15.98055;-1.6387739;-1.267922;-;-;-;-;-;-
1531162770118;-;-;-0.1341211;0.32572266;10.049502;-0.07562161;-0.006267998;0.026543198;-6.15;25.050001;-38.4;15.98055;-1.6387739;-1.267922;-;-;-;-;-;-
1531162770128;-;-;-0.10538086;0.32093263;10.178833;-0.07189319;-0.006267998;0.022814773;-4.05;25.650002;-39.600002;15.958024;-1.5780666;-1.2217913;-;-;-;-;-;-
1531162770138;-;-;-0.16765137;0.32572266;10.025552;-0.053783692;-0.021181699;0.02228214;-4.05;25.650002;-39.600002;15.958024;-1.5780666;-1.2217913;-;-;-;-;-;-
1531162770148;-;-;-0.15328126;0.28740236;10.063872;-0.04792474;-0.052607;0.03186952;-5.55;25.2;-40.2;15.927709;-1.4932039;-1.2121296;-;-;-;-;-;-
1531162770159;-;-;-0.009580079;0.3544629;10.150093;-0.040467888;-0.060063854;0.02920636;-5.55;25.2;-40.2;15.927709;-1.4932039;-1.2121296;-;-;-;-;-;-
1531162770169;-;-;-0.0047900393;0.35925296;10.226734;-0.05325106;-0.06272702;0.019618979;-4.2000003;24.750002;-37.800003;15.89494;-1.4380791;-1.167001;-;-;-;-;-;-
1531162770180;-;-;-0.06706055;0.3065625;10.049502;-0.04792474;-0.04515015;0.007368437;-4.2000003;24.750002;-37.800003;15.89494;-1.4380791;-1.167001;-;-;-;-;-;-
1531162770190;-;-;-0.13891114;0.36883304;10.025552;-0.04579421;-0.036095403;0.00790107;-5.55;25.500002;-37.5;15.87411;-1.3889984;-1.1025409;-;-;-;-;-;-
1531162770201;-;-;-0.21076173;0.3305127;10.111773;-0.04366368;-0.043019623;0.022814773;-5.55;25.500002;-37.5;15.87411;-1.3889984;-1.1025409;-;-;-;-;-;-
1531162770212;-;-;-0.038320314;0.40715334;10.102193;-0.02129313;-0.035030138;0.04358743;-4.3500004;25.650002;-38.4;15.8646755;-1.3383938;-1.0554191;-;-;-;-;-;-
1531162770230;-;-;0.1341211;0.43589357;10.183623;-0.007977324;-0.05899859;0.032934785;-4.3500004;26.7;-39.300003;15.830595;-1.2979125;-1.0105634;-;-;-;-;-;-
1531162770221;-;-;0.043110352;0.42152345;10.188414;-0.020227864;-0.04994384;0.0414569;-4.3500004;25.650002;-38.4;15.8646755;-1.3383938;-1.0554191;-;-;-;-;-;-
1531162770242;-;-;0.12933107;0.40715334;10.197993;-0.010640485;-0.06752071;0.021216877;-4.3500004;26.7;-39.300003;15.830595;-1.2979125;-1.0105634;-;-;-;-;-;-
1531162770250;-;-;0.05748047;0.34967285;10.183623;-0.012238381;-0.052607;-6.210462E-4;-5.55;25.500002;-39.9;15.78787;-1.2798338;-0.95167965;-;-;-;-;-;-
1531162770261;-;-;-0.023950197;0.4981641;10.245894;-0.01649944;-0.03822593;-0.013936852;-5.55;25.500002;-39.9;15.78787;-1.2798338;-0.95167965;-;-;-;-;-;-
1531162770271;-;-;-0.07664063;0.46942386;10.375225;1.215993E-5;-0.02384486;-0.0048821038;-4.8;25.650002;-40.050003;15.774261;-1.2702703;-0.88370985;-;-;-;-;-;-
1531162770281;-;-;-0.14370118;0.41194338;10.241104;0.0064037465;-0.01638801;-6.210462E-4;-4.8;25.650002;-40.050003;15.774261;-1.2702703;-0.88370985;-;-;-;-;-;-
1531162770291;-;-;-0.09101075;0.3784131;10.116563;0.008534275;-0.01159432;-8.8413944E-5;-4.9500003;25.2;-38.7;15.787745;-1.2564954;-0.8403781;-;-;-;-;-;-
1531162770302;-;-;-0.119750984;0.40715334;10.068663;0.01439323;-0.00680063;0.00790107;-4.9500003;25.2;-38.7;15.787745;-1.2564954;-0.8403781;-;-;-;-;-;-
1531162770312;-;-;-0.119750984;0.34009278;10.193204;0.012262701;-0.02384486;-0.002751575;-5.55;26.250002;-37.5;15.791197;-1.2636234;-0.81955;-;-;-;-;-;-
1531162770322;-;-;-0.05748047;0.39278322;10.356065;0.029306931;-0.027573287;-0.018730542;-5.55;26.250002;-37.5;15.791197;-1.2636234;-0.81955;-;-;-;-;-;-
1531162770332;-;-;-0.09580079;0.32093263;10.346485;0.055405915;-0.027040655;-0.02086107;-4.2000003;25.2;-37.800003;15.789962;-1.2794307;-0.80397785;-;-;-;-;-;-
1531162770343;-;-;-0.21076173;0.30177248;10.265054;0.07351541;-0.031301714;-0.021393701;-4.2000003;25.2;-37.800003;15.789962;-1.2794307;-0.80397785;-;-;-;-;-;-
1531162770352;-;-;-0.22513184;0.25387207;9.953702;0.063395396;-0.012659584;-0.0054147365;-3.9;24.750002;-39.45;15.80993;-1.3155317;-0.7701247;-;-;-;-;-;-
1531162770362;-;-;-0.15328126;0.2778223;9.934542;0.045285903;0.016102556;-0.0054147365;-3.9;24.750002;-39.45;15.80993;-1.3155317;-0.7701247;-;-;-;-;-;-
1531162770373;-;-;-0.23471193;0.28740236;9.857901;0.009066908;0.061376296;0.0068358043;-5.1000004;27.000002;-38.850002;15.8336735;-1.3931645;-0.739941;-;-;-;-;-;-
1531162770382;-;-;-0.21555176;0.30177248;9.963282;-0.0058467947;0.07788789;0.019618979;-5.1000004;27.000002;-38.850002;15.8336735;-1.3931645;-0.739941;-;-;-;-;-;-
1531162770392;-;-;-0.2203418;0.3305127;9.85311;0.0010774244;0.10025845;0.014292656;-6.15;25.95;-37.2;15.836713;-1.4377617;-0.7617233;-;-;-;-;-;-
1531162770403;-;-;-0.23950197;0.26345217;9.924961;0.0037405854;0.080018416;0.025477935;-6.15;25.95;-37.2;15.836713;-1.4377617;-0.7617233;-;-;-;-;-;-
1531162770413;-;-;-0.19639161;0.33530274;9.83874;0.026111139;0.032081522;0.02920636;-6.15;25.35;-39.300003;15.817756;-1.4389335;-0.861284;-;-;-;-;-;-
1531162770423;-;-;-0.119750984;0.4167334;9.872271;0.0468838;-0.0099964235;0.02707583;-6.15;25.35;-39.300003;15.817756;-1.4389335;-0.861284;-;-;-;-;-;-
1531162770434;-;-;-0.05269043;0.34009278;9.929751;0.052742753;-0.05473753;0.007368437;-6.0;25.2;-39.0;15.78916;-1.449484;-0.94146353;-;-;-;-;-;-
1531162770444;-;-;-0.014370117;0.26345217;9.924961;0.055405915;-0.06272702;-0.005947368;-5.1000004;25.35;-38.850002;15.78916;-1.449484;-0.94146353;-;-;-;-;-;-
1531162770454;-;-;-0.07185059;0.25866213;9.82437;0.031970095;-0.01159432;-0.024056863;-5.1000004;25.35;-38.850002;15.763611;-1.5032611;-0.92684007;-;-;-;-;-;-
1531162770465;-;-;-0.1341211;0.2921924;9.833951;0.0133279655;0.005449911;-0.024056863;-5.1000004;25.95;-36.45;15.77351;-1.563373;-0.864897;-;-;-;-;-;-
1531162770475;-;-;-0.25866213;0.23471193;9.929751;-0.017032072;0.065104716;-0.005947368;-5.1000004;25.95;-36.45;15.77351;-1.563373;-0.864897;-;-;-;-;-;-
1531162770486;-;-;-0.23471193;0.22513184;10.011182;-0.022358393;0.08534474;0.013760024;-6.3;24.750002;-38.25;15.791675;-1.5745103;-0.8806496;-;-;-;-;-;-
1531162770495;-;-;-0.244292;0.18681154;10.035132;0.0042732176;0.08747527;0.030271623;-6.3;24.750002;-38.25;15.791675;-1.5745103;-0.8806496;-;-;-;-;-;-
1531162770506;-;-;-0.33530274;0.23471193;9.934542;0.006936379;0.06936578;0.035065316;-5.4;25.050001;-38.100002;15.791675;-1.5745103;-0.8806496;-;-;-;-;-;-
1531162770516;-;-;-0.1820215;0.2778223;9.83874;0.018121656;0.03580995;0.030804254;-5.4;25.050001;-38.100002;15.771603;-1.5531738;-0.9711192;-;-;-;-;-;-
1531162770526;-;-;-0.086220704;0.3161426;9.82437;0.010132172;0.0134393945;0.02228214;-6.0;25.800001;-38.7;15.730164;-1.5627657;-1.0464317;-;-;-;-;-;-
1531162770537;-;-;-0.086220704;0.3784131;9.79084;0.0021426887;0.004917279;0.02441267;-6.0;25.800001;-38.7;15.730164;-1.5627657;-1.0464317;-;-;-;-;-;-
1531162770547;-;-;-0.17244141;0.30177248;9.72378;-0.0015857368;-0.00200694;0.01748845;-4.65;25.800001;-40.2;15.730164;-1.5627657;-1.0464317;-;-;-;-;-;-
1531162770557;-;-;-0.09580079;0.41194338;9.881851;-0.011705749;0.010776234;0.036663212;-4.65;25.800001;-40.2;15.69625;-1.5769194;-1.0678098;-;-;-;-;-;-
1531162770568;-;-;-0.1101709;0.28740236;9.848321;-0.020227864;0.017167822;0.03400005;-4.3500004;27.45;-39.600002;15.669304;-1.5733374;-1.0707859;-;-;-;-;-;-
1531162770578;-;-;-0.009580079;0.3544629;9.891431;-0.0356742;0.019830981;0.038261108;-4.3500004;27.45;-39.600002;15.669304;-1.5733374;-1.0707859;-;-;-;-;-;-
1531162770588;-;-;0.019160157;0.3544629;9.934542;-0.058577385;0.013972027;0.021216877;-5.4;25.050001;-40.5;15.626861;-1.5498465;-1.087954;-;-;-;-;-;-
1531162770598;-;-;0.09580079;0.3544629;10.097403;-0.06070791;0.03634258;0.029738992;-5.4;25.050001;-40.5;15.626861;-1.5498465;-1.087954;-;-;-;-;-;-
1531162770608;-;-;-0.0047900393;0.4023633;10.126143;-0.053783692;0.03527732;0.02228214;-5.4;25.650002;-37.65;15.589795;-1.4977231;-1.11616;-;-;-;-;-;-
1531162770619;-;-;0.043110352;0.33530274;10.250684;-0.011173117;0.031016257;0.021216877;-5.4;25.650002;-37.65;15.589795;-1.4977231;-1.11616;-;-;-;-;-;-
1531162770629;-;-;-0.028740235;0.34488282;10.150093;0.010132172;0.019830981;0.02707583;-3.7500002;25.35;-37.65;15.563388;-1.4421932;-1.1524205;-;-;-;-;-;-
1531162770639;-;-;-0.06706055;0.3305127;10.054293;0.010664804;0.005449911;0.030271623;-3.7500002;25.35;-37.65;15.563388;-1.4421932;-1.1524205;-;-;-;-;-;-
1531162770650;-;-;0.05748047;0.3879932;9.920172;0.010664804;-0.012126952;0.032402154;-4.2000003;24.750002;-39.9;15.5373;-1.4342989;-1.17513;-;-;-;-;-;-
1531162770660;-;-;0.05269043;0.40715334;9.934542;-0.002118369;-0.0014743077;0.028141094;-4.2000003;24.750002;-39.9;15.5373;-1.4342989;-1.17513;-;-;-;-;-;-
1531162770670;-;-;0.05269043;0.3879932;9.992022;0.0058711143;0.012906763;0.021216877;-5.4;24.300001;-38.4;15.499674;-1.4502614;-1.1765047;-;-;-;-;-;-
1531162770681;-;-;0.06227051;0.42152345;10.154883;-0.006379427;0.02142888;0.0025747472;-5.4;24.300001;-38.4;15.499674;-1.4502614;-1.1765047;-;-;-;-;-;-
1531162770691;-;-;-0.09580079;0.42152345;10.039923;0.012262701;0.024624672;0.0068358043;-5.25;25.2;-38.7;15.473601;-1.451786;-1.1796697;-;-;-;-;-;-
1531162770702;-;-;-0.033530276;0.3161426;9.977652;0.008534275;0.009710969;0.012694759;-5.25;25.2;-38.7;15.473601;-1.451786;-1.1796697;-;-;-;-;-;-
1531162770712;-;-;-0.06227051;0.31135255;10.001602;0.0010774244;-4.0904328E-4;0.009498966;-6.6000004;25.2;-39.45;15.464664;-1.452572;-1.2069533;-;-;-;-;-;-
1531162770722;-;-;-0.009580079;0.35925296;9.905801;-0.013836278;0.018765718;0.009498966;-6.6000004;25.2;-39.45;15.464664;-1.452572;-1.2069533;-;-;-;-;-;-
1531162770732;-;-;-0.05748047;0.34488282;10.092612;-0.02874998;0.047527857;-0.008077897;-5.8500004;25.95;-38.850002;15.455525;-1.4611207;-1.2171434;-;-;-;-;-;-
1531162770743;-;-;-0.009580079;0.37362307;10.130933;-0.024488922;0.06350682;-0.0075452654;-6.4500003;25.650002;-38.850002;15.457875;-1.4415249;-1.241392;-;-;-;-;-;-
1531162770753;-;-;-0.05269043;0.3065625;10.245894;-0.010640485;0.07735526;-0.009675794;-6.4500003;25.650002;-38.850002;15.457875;-1.4415249;-1.241392;-;-;-;-;-;-
1531162770763;-;-;-0.0047900393;0.39278322;10.221944;-0.0026510013;0.08481211;-0.004349472;-6.4500003;25.650002;-38.850002;15.457875;-1.4415249;-1.241392;-;-;-;-;-;-
1531162770773;-;-;-0.17723145;0.27303225;9.982442;0.015458494;0.062974185;-0.009675794;-5.8500004;25.650002;-39.300003;15.465514;-1.4091201;-1.3122438;-;-;-;-;-;-
1531162770784;-;-;-0.19160157;0.35925296;9.968072;0.010132172;0.03634258;-0.0032842073;-4.8;25.650002;-38.850002;15.465514;-1.4091201;-1.3122438;-;-;-;-;-;-
1531162770793;-;-;-0.10538086;0.4263135;9.939331;0.0133279655;0.02888573;0.005770541;-4.8;25.650002;-38.850002;15.469367;-1.4065188;-1.3964912;-;-;-;-;-;-
1531162770804;-;-;-0.07664063;0.40715334;9.953702;0.0064037465;0.022494143;-0.002751575;-6.0;25.800001;-38.7;15.469367;-1.4065188;-1.3964912;-;-;-;-;-;-
1531162770814;-;-;-0.16286133;0.37362307;9.958491;-0.0101078525;0.0134393945;-8.8413944E-5;-6.0;25.800001;-38.7;15.467791;-1.4190693;-1.4385624;-;-;-;-;-;-
1531162770824;-;-;-0.1820215;0.32093263;9.963282;-0.0042483103;0.020363022;-0.013406263;-5.55;25.2;-38.25;15.467791;-1.4190693;-1.4385624;-;-;-;-;-;-
1531162770835;-;-;-0.09580079;0.32572266;10.135723;0.009067495;6.5562996E-4;-0.0043515153;-5.55;25.2;-38.25;15.470216;-1.421682;-1.4615786;-;-;-;-;-;-
1531162770845;-;-;-0.1580713;0.3879932;10.111773;0.015991716;-0.009464382;-0.0032862506;-6.6000004;25.500002;-37.800003;15.476236;-1.4190664;-1.4781578;-;-;-;-;-;-
1531162770855;-;-;-0.100590825;0.3784131;10.135723;0.02877489;0.0065145846;0.0041706003;-6.6000004;25.500002;-37.800003;15.476236;-1.4190664;-1.4781578;-;-;-;-;-;-
1531162770866;-;-;-0.09580079;0.4263135;10.073453;0.03250331;-0.00413806;0.008431658;-4.3500004;25.95;-40.050003;15.475681;-1.4351765;-1.4715265;-;-;-;-;-;-
1531162770876;-;-;-0.14370118;0.36883304;10.126143;0.033568576;-0.0025401635;0.004703233;-4.3500004;25.95;-40.050003;15.475681;-1.4351765;-1.4715265;-;-;-;-;-;-
1531162770886;-;-;-0.09580079;0.42152345;10.035132;0.0388949;-0.014258073;0.010029555;-6.3;26.250002;-39.45;15.467492;-1.4670769;-1.4672091;-;-;-;-;-;-
1531162770896;-;-;-0.19639161;0.4263135;9.987232;0.036231738;-0.016388603;0.0025727039;-6.3;26.250002;-39.45;15.467492;-1.4670769;-1.4672091;-;-;-;-;-;-
1531162770907;-;-;-0.1580713;0.35925296;10.150093;0.03143805;-0.014258073;0.00896429;-6.6000004;26.550001;-39.0;15.457999;-1.5151807;-1.4567033;-;-;-;-;-;-
1531162770917;-;-;-0.06227051;0.40715334;10.087823;0.028242256;-0.021182291;0.010562187;-6.6000004;26.550001;-39.0;15.457999;-1.5151807;-1.4567033;-;-;-;-;-;-
1531162770927;-;-;-0.17244141;0.37362307;10.116563;0.036764372;0.004916688;0.006833761;-4.05;26.7;-38.850002;15.441115;-1.5522366;-1.4376634;-;-;-;-;-;-
1531162770938;-;-;-0.047900394;0.34488282;10.030342;0.037829634;0.0145040685;0.0057684975;-4.05;26.7;-38.850002;15.441115;-1.5522366;-1.4376634;-;-;-;-;-;-
1531162770948;-;-;-0.028740235;0.4742139;9.891431;0.022915935;0.0107756425;4.4217496E-4;-6.0;26.250002;-38.7;15.430674;-1.5841814;-1.4275005;-;-;-;-;-;-
1531162770959;-;-;-0.1101709;0.38320315;9.857901;0.017589612;0.016634597;0.003105336;-6.0;26.250002;-38.7;15.430674;-1.5841814;-1.4275005;-;-;-;-;-;-
1531162770968;-;-;0.0;0.4167334;9.972861;0.014393818;0.016101964;-0.0032862506;-6.4500003;25.650002;-38.850002;15.426649;-1.6184478;-1.4410052;-;-;-;-;-;-
1531162770985;-;-;-0.0047900393;0.39757326;10.130933;0.013861186;0.011308274;-0.0064820442;-5.1000004;25.95;-39.300003;15.425577;-1.6332772;-1.4553813;-;-;-;-;-;-
1531162770989;-;-;-0.1580713;0.43110353;10.106983;0.025579095;0.026754608;-0.004884147;-5.1000004;25.95;-39.300003;15.425577;-1.6332772;-1.4553813;-;-;-;-;-;-
1531162770999;-;-;-0.028740235;0.36883304;10.030342;0.03942753;0.030483034;-0.013406263;-5.1000004;25.95;-39.300003;15.425577;-1.6332772;-1.4553813;-;-;-;-;-;-
1531162771010;-;-;-0.11496094;0.3544629;9.915381;0.03463384;0.040070415;-0.018199952;-4.3500004;26.400002;-38.4;15.431706;-1.6550938;-1.4741728;-;-;-;-;-;-
1531162771020;-;-;-0.17723145;0.33530274;9.75731;0.029840153;0.06723466;-0.026189435;-4.3500004;26.400002;-38.4;15.431706;-1.6550938;-1.4741728;-;-;-;-;-;-
1531162771030;-;-;-0.2682422;0.364043;9.623189;0.011730657;0.0645715;-0.025656803;-5.25;25.800001;-40.2;15.446648;-1.6992745;-1.5147368;-;-;-;-;-;-
1531162771041;-;-;-0.19160157;0.34488282;9.642349;-0.008509369;0.07256098;-0.024058906;-5.25;25.800001;-40.2;15.446648;-1.6992745;-1.5147368;-;-;-;-;-;-
1531162771051;-;-;-0.27303225;0.42152345;9.699829;-0.03247782;0.06723466;-0.021395745;-5.25;26.250002;-38.25;15.471063;-1.7259655;-1.5845282;-;-;-;-;-;-
1531162771061;-;-;-0.34488282;0.30177248;9.64714;-0.04472836;0.05817991;-0.020330481;-5.25;26.250002;-38.25;15.471063;-1.7259655;-1.5845282;-;-;-;-;-;-
1531162771071;-;-;-0.28740236;0.3879932;9.690249;-0.0569789;0.04379884;-0.01021047;-4.65;25.500002;-37.800003;15.493755;-1.707136;-1.6611716;-;-;-;-;-;-
1531162771082;-;-;-0.37362307;0.3305127;9.77647;-0.070827335;0.04166831;-0.018732585;-5.4;25.35;-40.050003;15.514887;-1.6522818;-1.7287134;-;-;-;-;-;-
1531162771092;-;-;-0.43589357;0.364043;9.920172;-0.08254524;0.029950403;-0.0027536184;-5.4;25.35;-40.050003;15.514887;-1.6522818;-1.7287134;-;-;-;-;-;-
1531162771102;-;-;-0.5125342;0.34488282;10.011182;-0.06976207;0.010243011;0.008431658;-4.8;25.050001;-38.850002;15.514887;-1.6522818;-1.7287134;-;-;-;-;-;-
1531162771112;-;-;-0.5460645;0.3544629;10.174044;-0.027684128;-0.014258073;0.037193798;-4.8;25.050001;-38.850002;15.530987;-1.570708;-1.7732153;-;-;-;-;-;-
1531162771124;-;-;-0.488584;0.39278322;10.102193;-0.009574632;-0.0329002;0.06435805;-5.25;26.550001;-39.0;15.515639;-1.5001061;-1.7793134;-;-;-;-;-;-
1531162771133;-;-;-0.32093263;0.4406836;10.059082;0.029840153;-0.06698866;0.09152229;-5.25;26.550001;-39.0;15.515639;-1.5001061;-1.7793134;-;-;-;-;-;-
1531162771143;-;-;-0.26345217;0.488584;9.977652;0.044221222;-0.08669606;0.1032402;-5.8500004;26.400002;-38.100002;15.443304;-1.4973962;-1.7343599;-;-;-;-;-;-
1531162771154;-;-;-0.081430666;0.57959473;9.800421;0.037297003;-0.1138603;0.09418545;-5.8500004;26.400002;-38.100002;15.443304;-1.4973962;-1.7343599;-;-;-;-;-;-
1531162771163;-;-;-0.05269043;0.6179151;9.843531;0.025046462;-0.118121356;0.08726123;-4.65;26.550001;-37.800003;15.32944;-1.5478808;-1.6292158;-;-;-;-;-;-
1531162771173;-;-;0.05748047;0.63707525;10.011182;0.009600128;-0.11865399;0.06755384;-4.65;26.550001;-37.800003;15.32944;-1.5478808;-1.6292158;-;-;-;-;-;-
1531162771183;-;-;0.07664063;0.5412744;10.150093;-0.009574632;-0.112262405;0.06169488;-4.2000003;26.550001;-40.2;15.23483;-1.5781902;-1.4883076;-;-;-;-;-;-
1531162771194;-;-;0.06227051;0.5556446;10.356065;0.0032085408;-0.08669606;0.05690119;-4.2000003;26.550001;-40.2;15.23483;-1.5781902;-1.4883076;-;-;-;-;-;-
1531162771204;-;-;0.038320314;0.5221143;10.341695;0.0127959205;-0.04994443;0.053172763;-5.8500004;25.95;-38.4;15.166692;-1.5803571;-1.3628509;-;-;-;-;-;-
1531162771214;-;-;-0.16765137;0.53169435;10.188414;0.03836227;0.004916688;0.062227514;-5.8500004;25.95;-38.4;15.166692;-1.5803571;-1.3628509;-;-;-;-;-;-
1531162771224;-;-;-0.33530274;0.5508545;10.135723;0.035166472;-0.017453866;0.07660858;-4.8;24.6;-39.600002;15.101694;-1.5956888;-1.301705;-;-;-;-;-;-
1531162771238;-;-;0.009580079;0.67539555;10.154883;0.07671179;-0.08296763;0.087793864;-4.8;24.6;-39.600002;15.101694;-1.5956888;-1.301705;-;-;-;-;-;-
1531162771244;-;-;0.038320314;0.6227051;9.948912;0.0884297;-0.074445516;0.08193491;-5.25;25.2;-38.7;15.02319;-1.6409497;-1.273543;-;-;-;-;-;-
1531162771254;-;-;0.2203418;0.6466553;9.896221;0.06818967;-0.08456553;0.05743382;-5.25;25.2;-38.7;15.02319;-1.6409497;-1.273543;-;-;-;-;-;-
1531162771264;-;-;0.22513184;0.7185059;9.843531;0.039960165;-0.086163424;0.03240011;-5.25;25.2;-38.7;14.934394;-1.7371304;-1.1827105;-;-;-;-;-;-
1531162771275;-;-;0.24908204;0.6610254;10.001602;-0.001052517;-0.038759157;4.4217496E-4;-5.25;25.2;-38.7;14.934394;-1.7371304;-1.1827105;-;-;-;-;-;-
1531162771285;-;-;0.12933107;0.5748047;10.121353;-0.021825174;-0.0073338533;-0.018732585;-6.6000004;26.85;-37.800003;14.896104;-1.7906232;-1.0863706;-;-;-;-;-;-
1531162771295;-;-;0.16765137;0.613125;10.169253;-0.028216759;0.01769986;-0.03417892;-6.6000004;26.85;-37.800003;14.896104;-1.7906232;-1.0863706;-;-;-;-;-;-
1531162771305;-;-;0.07664063;0.5460645;10.183623;-0.024488334;0.03900515;-0.038439978;-5.8500004;24.6;-40.050003;14.912905;-1.7768556;-1.0675069;-;-;-;-;-;-
1531162771316;-;-;0.047900394;0.5748047;10.102193;-0.021825174;0.06244097;-0.044831567;-5.8500004;24.6;-40.050003;14.912905;-1.7768556;-1.0675069;-;-;-;-;-;-
1531162771326;-;-;-0.028740235;0.488584;9.881851;-0.0015844635;0.0709624;-0.04962764;-5.8500004;26.400002;-38.4;14.955831;-1.748007;-1.1144853;-;-;-;-;-;-
1531162771335;-;-;-0.047900394;0.51732427;9.77647;0.006937652;0.051787633;-0.04962764;-5.8500004;26.400002;-38.4;14.955831;-1.748007;-1.1144853;-;-;-;-;-;-
1531162771345;-;-;-0.18681154;0.4981641;9.733359;0.017057665;0.03421077;-0.048562374;-4.8;27.45;-39.300003;15.0046215;-1.7374289;-1.1922586;-;-;-;-;-;-
1531162771356;-;-;-0.10538086;0.5843848;9.637559;0.022383988;-0.00893244;-0.05175817;-4.8;27.45;-39.300003;15.0046215;-1.7374289;-1.1922586;-;-;-;-;-;-
1531162771366;-;-;-0.12454102;0.5604346;9.608819;0.012263974;-0.04195564;-0.046964478;-5.8500004;25.050001;-40.5;15.061458;-1.7513818;-1.228078;-;-;-;-;-;-
1531162771377;-;-;-0.14849122;0.53169435;9.589659;0.007470284;-0.039292477;-0.048029743;-5.8500004;25.050001;-40.5;15.061458;-1.7513818;-1.228078;-;-;-;-;-;-
1531162771386;-;-;-0.100590825;0.5125342;9.766891;-0.0053128893;-0.043020904;-0.053888697;-6.0;26.550001;-38.7;15.118838;-1.7719111;-1.2005159;-;-;-;-;-;-
1531162771397;-;-;-0.1101709;0.488584;9.77647;-0.028748706;-0.040890373;-0.045899216;-6.0;26.550001;-38.7;15.118838;-1.7719111;-1.2005159;-;-;-;-;-;-
1531162771407;-;-;-0.16286133;0.50774413;9.82437;-0.028216073;-0.019052453;-0.040572893;-4.2000003;25.500002;-40.2;15.177047;-1.7661755;-1.1526883;-;-;-;-;-;-
1531162771417;-;-;-0.12454102;0.5412744;9.920172;-0.030879235;-0.0057366467;-0.025659187;-4.2000003;25.500002;-40.2;15.177047;-1.7661755;-1.1526883;-;-;-;-;-;-
1531162771428;-;-;-0.2203418;0.4981641;9.915381;-0.015432901;-0.0025408533;-0.012876015;-7.05;27.150002;-40.2;15.228397;-1.7363882;-1.12132;-;-;-;-;-;-
1531162771438;-;-;-0.20597169;0.45026368;9.73815;-0.012237108;-0.015856659;-0.008614957;-7.05;27.150002;-40.2;15.228397;-1.7363882;-1.12132;-;-;-;-;-;-
1531162771448;-;-;-0.19160157;0.5412744;9.70941;-0.026618177;-0.025444038;-9.284122E-5;-6.15;25.050001;-40.5;15.258153;-1.7060127;-1.1122963;-;-;-;-;-;-
1531162771459;-;-;-0.086220704;0.53169435;9.73815;-0.04099925;-0.036629315;9.7242324E-4;-6.15;25.050001;-40.5;15.258153;-1.7060127;-1.1122963;-;-;-;-;-;-
1531162771468;-;-;-0.07664063;0.5604346;9.627979;-0.042597145;-0.02065035;9.7242324E-4;-5.25;25.500002;-38.25;15.269565;-1.6825876;-1.0858508;-;-;-;-;-;-
1531162771479;-;-;0.009580079;0.5891748;9.74294;-0.048988733;-0.022248246;-0.0016907379;-5.25;25.500002;-38.25;15.269565;-1.6825876;-1.0858508;-;-;-;-;-;-
1531162771488;-;-;0.038320314;0.613125;9.699829;-0.052184526;-0.015324026;-0.004353899;-4.8;25.650002;-39.600002;15.269417;-1.6408111;-1.0544959;-;-;-;-;-;-
1531162771499;-;-;0.028740235;0.6179151;9.70941;-0.06017401;-0.017454555;-0.0059517957;-4.8;25.650002;-39.600002;15.269417;-1.6408111;-1.0544959;-;-;-;-;-;-
1531162771509;-;-;0.14370118;0.6706055;9.83874;-0.07189192;-0.007867175;-9.284122E-5;-5.1000004;26.7;-38.850002;15.272677;-1.5852315;-1.0376643;-;-;-;-;-;-
1531162771519;-;-;0.081430666;0.7951465;9.867481;-0.07562034;-0.008399808;-0.004353899;-5.1000004;26.7;-38.850002;15.272677;-1.5852315;-1.0376643;-;-;-;-;-;-
1531162771530;-;-;0.20597169;0.8813672;10.054293;-0.0649677;0.019297067;0.013755597;-5.55;25.800001;-38.25;15.280623;-1.5165493;-1.0260935;-;-;-;-;-;-
1531162771540;-;-;0.28740236;0.9963282;10.073453;-0.04312978;0.03421077;0.027604034;-5.55;25.800001;-38.25;15.280623;-1.5165493;-1.0260935;-;-;-;-;-;-
1531162771551;-;-;0.42152345;1.096919;9.915381;-0.019161327;0.06510344;0.015886126;-3.6000001;26.250002;-38.25;15.280607;-1.4428506;-1.0291091;-;-;-;-;-;-
1531162771561;-;-;0.4406836;1.1256592;9.718989;-0.010639212;0.07682135;0.0062987455;-4.9500003;27.6;-38.7;15.254192;-1.4158754;-1.0750422;-;-;-;-;-;-
1531162771571;-;-;0.43110353;1.096919;9.369317;-0.028216073;0.077353984;-0.029920245;-4.9500003;27.6;-38.7;15.254192;-1.4158754;-1.0750422;-;-;-;-;-;-
1531162771582;-;-;0.2921924;1.096919;9.359736;-0.03886872;0.061375014;-0.036844466;-6.6000004;25.2;-38.7;15.256833;-1.4770616;-1.1124294;-;-;-;-;-;-
1531162771592;-;-;0.17723145;0.9963282;9.3453665;-0.08520772;-0.0057366467;-0.0672045;-6.6000004;25.2;-38.7;15.256833;-1.4770616;-1.1124294;-;-;-;-;-;-
1531162771602;-;-;0.07664063;0.977168;9.445957;-0.084142454;-0.022780878;-0.06773713;-6.15;25.35;-39.300003;15.308415;-1.4180259;-1.150805;-;-;-;-;-;-
1531162771612;-;-;-0.028740235;0.91010743;9.560919;-0.09159931;-0.044086166;-0.0656066;-6.15;25.35;-39.300003;15.308415;-1.4180259;-1.150805;-;-;-;-;-;-
1531162771622;-;-;-0.19639161;0.847837;9.565708;-0.09213194;-0.03716195;-0.04909501;-5.8500004;25.95;-39.600002;15.384507;-1.3217567;-1.1145943;-;-;-;-;-;-
1531162771633;-;-;-0.2682422;0.90052736;9.445957;-0.112371966;-0.027041936;-0.021398129;-5.8500004;25.95;-39.600002;15.384507;-1.3217567;-1.1145943;-;-;-;-;-;-
1531162771643;-;-;-0.3065625;0.92926764;9.584868;-0.13847095;-0.024911407;-0.0048865313;-6.3;25.800001;-41.100002;15.439804;-1.2151476;-1.0688503;-;-;-;-;-;-
1531162771654;-;-;-0.22513184;0.86220706;9.934542;-0.15018885;6.5494014E-4;0.027071403;-6.3;25.800001;-41.100002;15.439804;-1.2151476;-1.0688503;-;-;-;-;-;-
1531162771663;-;-;-0.1580713;0.8669971;10.078242;-0.13847095;0.02675392;0.043050367;-5.1000004;25.35;-39.300003;15.4436;-1.0737839;-1.046426;-;-;-;-;-;-
1531162771673;-;-;-0.21076173;0.8095166;10.164463;-0.1113067;0.123160355;0.06755146;-5.1000004;25.35;-39.300003;15.4436;-1.0737839;-1.046426;-;-;-;-;-;-
1531162771684;-;-;-0.22992188;0.6849756;10.140513;-0.109176174;0.16257514;0.102172546;-4.05;25.650002;-41.25;15.390567;-0.92374694;-1.0851989;-;-;-;-;-;-
1531162771694;-;-;-0.31135255;0.62749517;10.001602;-0.11077407;0.18334779;0.16875158;-4.05;25.650002;-41.25;15.390567;-0.92374694;-1.0851989;-;-;-;-;-;-
1531162771704;-;-;-0.23471193;0.57001466;9.924961;-0.13048147;0.23234996;0.1905895;-4.65;26.85;-38.7;15.266013;-0.8032764;-1.2514893;-;-;-;-;-;-
1531162771714;-;-;-0.23471193;0.62749517;10.059082;-0.16243939;0.3548554;0.2236127;-4.65;26.85;-38.7;15.266013;-0.8032764;-1.2514893;-;-;-;-;-;-
1531162771725;-;-;-0.244292;0.8143067;10.183623;-0.16563518;0.38468277;0.22094953;-5.1000004;28.050001;-39.300003;15.04102;-0.66012996;-1.5160445;-;-;-;-;-;-
1531162771735;-;-;-0.2921924;0.90052736;10.068663;-0.1459278;0.35432276;0.19005686;-5.1000004;28.050001;-39.300003;15.04102;-0.66012996;-1.5160445;-;-;-;-;-;-
1531162771745;-;-;-0.22513184;0.85741705;9.958491;-0.1113067;0.33088693;0.15863156;-4.3500004;25.650002;-38.850002;14.783312;-0.4820988;-1.9462335;-;-;-;-;-;-
1531162771756;-;-;-0.1101709;0.7232959;9.953702;-0.0484561;0.24246997;0.12986943;-4.3500004;25.650002;-38.850002;14.783312;-0.4820988;-1.9462335;-;-;-;-;-;-
1531162771766;-;-;-0.009580079;0.6466553;9.7621;-0.031411868;0.14925933;0.10590097;-5.1000004;27.000002;-40.050003;14.589553;-0.36378872;-2.3280258;-;-;-;-;-;-
1531162771776;-;-;0.0;0.68018556;9.532178;-0.01490027;-0.00893244;0.051572483;-5.1000004;27.000002;-40.050003;14.589553;-0.36378872;-2.3280258;-;-;-;-;-;-
1531162771786;-;-;0.043110352;0.7041358;9.493857;-0.05111926;-0.09308833;-0.013408646;-4.05;26.400002;-38.100002;14.46058;-0.33763757;-2.5232487;-;-;-;-;-;-
1531162771797;-;-;0.019160157;0.6466553;9.69504;-0.12089408;-0.11971994;-0.09756453;-4.05;26.400002;-38.100002;14.46058;-0.33763757;-2.5232487;-;-;-;-;-;-
1531162771807;-;-;-0.17723145;0.5508545;10.202784;-0.18321206;-0.101610444;-0.14070775;-4.9500003;25.2;-40.2;14.442559;-0.30921915;-2.4547849;-;-;-;-;-;-
1531162771817;-;-;-0.5843848;0.39278322;10.523716;-0.20185418;-0.047814593;-0.15349092;-4.9500003;25.2;-40.2;14.442559;-0.30921915;-2.4547849;-;-;-;-;-;-
1531162771828;-;-;-0.68018556;0.25387207;10.734478;-0.16563255;0.0022501762;-0.12100955;-3.7500002;26.400002;-39.600002;14.5828495;-0.12861863;-2.3258023;-;-;-;-;-;-
1531162771837;-;-;-0.852627;0.3065625;10.662627;-0.14539252;0.033675477;-0.08905161;-3.7500002;26.400002;-39.600002;14.5828495;-0.12861863;-2.3258023;-;-;-;-;-;-
1531162771847;-;-;-0.9915381;0.36883304;10.590776;-0.11396722;0.083210275;-0.03685366;-5.55;26.550001;-39.0;14.742026;0.09102391;-2.2891827;-;-;-;-;-;-
1531162771857;-;-;-0.9436377;0.56522465;10.590776;-0.107043;0.11357031;0.028127471;-5.55;26.550001;-39.0;14.742026;0.09102391;-2.2891827;-;-;-;-;-;-
1531162771868;-;-;-0.8334668;0.67539555;10.432706;-0.08999877;0.1364735;0.07020542;-4.9500003;26.250002;-39.9;14.812132;0.24131164;-2.3651676;-;-;-;-;-;-
1531162771878;-;-;-0.7711963;0.8047266;10.451866;-0.0724219;0.13700613;0.09097808;-4.9500003;26.250002;-39.9;14.812132;0.24131164;-2.3651676;-;-;-;-;-;-
1531162771889;-;-;-0.7089258;1.0250684;10.370435;-0.029278696;0.09865661;0.10322862;-5.1000004;25.650002;-40.050003;14.754559;0.34841168;-2.5090454;-;-;-;-;-;-
1531162771899;-;-;-0.5939649;1.1112891;10.427916;0.0021466063;0.048056547;0.11974022;-5.1000004;25.650002;-40.050003;14.754559;0.34841168;-2.5090454;-;-;-;-;-;-
1531162771910;-;-;-0.45984375;1.2741505;10.437495;0.080443546;-0.0052066753;0.12719707;-5.1000004;27.000002;-38.100002;14.647227;0.4036239;-2.6419835;-;-;-;-;-;-
1531162771921;-;-;-0.29698244;1.4992822;10.533297;0.15607731;-0.061133057;0.13039286;-5.4;28.35;-39.300003;14.508428;0.34531286;-2.6703863;-;-;-;-;-;-
1531162771931;-;-;-0.29698244;1.6334034;10.427916;0.28710485;-0.12877734;0.11974022;-5.4;28.35;-39.300003;14.508428;0.34531286;-2.6703863;-;-;-;-;-;-
1531162771941;-;-;-0.26345217;1.7627344;10.174044;0.36593443;-0.16712686;0.10642441;-5.55;27.6;-40.65;14.358083;0.09539435;-2.5770676;-;-;-;-;-;-
1531162771951;-;-;-0.42152345;1.8489552;9.503438;0.46340612;-0.20760691;0.07926017;-5.55;27.6;-40.65;14.358083;0.09539435;-2.5770676;-;-;-;-;-;-
1531162771961;-;-;-0.57959473;1.9255958;9.1202345;0.47831982;-0.24595644;0.08032543;-4.3500004;25.95;-40.050003;14.205406;-1.2807432;-2.3679821;-;-;-;-;-;-
1531162771972;-;-;-0.45984375;2.0070264;8.641231;0.43091556;-0.29549125;0.090445444;-4.3500004;25.95;-40.050003;14.205406;-1.2807432;-2.3679821;-;-;-;-;-;-
1531162771982;-;-;-0.24908204;2.0213966;8.52148;0.35102072;-0.31519863;0.08991282;-5.8500004;26.7;-40.95;14.110738;-2.0092137;-2.0868416;-;-;-;-;-;-
1531162771993;-;-;0.15328126;2.0980372;8.49753;0.22425424;-0.3210576;0.05156329;-5.8500004;26.7;-40.95;14.110738;-2.0092137;-2.0868416;-;-;-;-;-;-
1531162772002;-;-;0.3305127;1.9639161;8.454419;0.1294457;-0.29708916;-6.346684E-4;-5.1000004;25.650002;-38.850002;14.02794;-2.3995676;-1.7201812;-;-;-;-;-;-
1531162772013;-;-;0.22992188;1.7818946;8.818462;-0.039398707;-0.2715228;-0.09810636;-5.1000004;25.650002;-38.850002;14.02794;-2.3995676;-1.7201812;-;-;-;-;-;-
1531162772023;-;-;0.11496094;1.7627344;9.335787;-0.15924096;-0.24009748;-0.14231484;-5.4;27.000002;-38.850002;14.056776;-2.5319076;-1.3772687;-;-;-;-;-;-
1531162772033;-;-;-0.05269043;1.5950831;10.217154;-0.21463472;-0.20813955;-0.155098;-5.4;27.000002;-38.850002;14.056776;-2.5319076;-1.3772687;-;-;-;-;-;-
1531162772044;-;-;0.033530276;1.3603711;10.619517;-0.2125042;-0.17618161;-0.15136959;-6.15;26.400002;-39.600002;14.219333;-2.6031215;-1.0532765;-;-;-;-;-;-
1531162772054;-;-;-0.0047900393;1.2549903;11.127261;-0.13633777;-0.11599418;-0.1433801;-6.15;26.400002;-39.600002;14.219333;-2.6031215;-1.0532765;-;-;-;-;-;-
1531162772064;-;-;-0.086220704;1.1304493;11.103311;-0.03460502;-0.06592675;-0.103432685;-6.7500005;25.650002;-40.050003;14.399978;-2.365674;-0.8541523;-;-;-;-;-;-
1531162772075;-;-;-0.3065625;1.1448194;10.566827;0.061268784;-0.019055113;-0.06135474;-6.7500005;25.650002;-40.050003;14.399978;-2.365674;-0.8541523;-;-;-;-;-;-
1531162772085;-;-;-0.4167334;1.2358302;10.020762;0.09535725;0.024088098;-0.042179983;-6.15;25.95;-39.600002;14.524977;-2.3057938;-0.77174854;-;-;-;-;-;-
1531162772095;-;-;-0.60354495;1.2885206;9.604029;0.10707516;0.037936535;-0.011287313;-6.15;25.95;-39.600002;14.524977;-2.3057938;-0.77174854;-;-;-;-;-;-
1531162772105;-;-;-0.68018556;1.3699512;9.302257;0.10387936;0.03953443;0.014279034;-5.55;25.2;-37.800003;14.582574;-2.4061668;-0.78241503;-;-;-;-;-;-
1531162772116;-;-;-0.732876;1.4082716;9.048384;0.09802041;0.018229144;0.07553174;-5.55;25.2;-37.800003;14.582574;-2.4061668;-0.78241503;-;-;-;-;-;-
1531162772126;-;-;-0.56522465;1.5471827;8.947793;0.11240148;-0.0062719397;0.10482652;-6.6000004;25.800001;-39.9;14.56444;-2.5567403;-0.8448237;-;-;-;-;-;-
