TimeStamp[ms];Prox[Cm];Lux[lux];AccX[m/s^2];AccY[m/s^2];AccZ[m/s^2];GyroX[rad/s];GyroY[rad/s];GyroZ[rad/s];MagnX[uT];MagnY[uT];MagnZ[uT];OrienYaw[degrees];OrienPitch[degrees];OrienRoll[degrees];Press[Pa];Temp[C°];Batt[%];Lat;Lng;Speed[m/s]
1531162832292;-;-;-0.62749517;0.8765772;9.627979;-0.15713373;-0.056029625;-0.04255264;-5.1000004;21.6;-38.100002;15.772284;-4.173576;-0.9487118;-;-;-;-;-;-
1531162832310;-;-;-0.50774413;0.9915381;9.704619;-0.2556707;-0.12793498;-0.05000949;15.150001;56.550003;-44.100002;345.4596;-6.565048;-4.089343;-;-;-;-;-;-
1531162832309;-;-;-0.50774413;0.9915381;9.704619;-0.2556707;-0.12793498;-0.05000949;15.150001;56.550003;-44.100002;345.4596;-6.565048;-4.089343;-;-;-;-;-;-
1531162832320;-;-;-0.30177248;0.96758795;9.987232;-0.2759107;-0.13539183;-0.10007692;15.6;58.050003;-42.300003;345.5064;-6.3948703;-4.029565;-;-;-;-;-;-
1531162832330;-;-;-0.488584;0.8669971;10.245894;-0.2721823;-0.16202344;-0.160797;15.6;58.050003;-42.300003;345.5064;-6.3948703;-4.029565;-;-;-;-;-;-
1531162832340;-;-;-0.6514453;0.852627;10.504556;-0.22903907;-0.20676455;-0.17677596;13.650001;56.550003;-43.65;345.5768;-6.1118793;-3.898436;-;-;-;-;-;-
1531162832350;-;-;-0.7568262;0.75203615;10.509346;-0.16352531;-0.23712458;-0.17091702;13.650001;56.550003;-43.65;345.5768;-6.1118793;-3.898436;-;-;-;-;-;-
1531162832361;-;-;-0.85741705;0.6945557;10.255474;-0.08469574;-0.27494144;-0.10913167;14.400001;58.350002;-42.45;345.75262;-5.791584;-3.7376;-;-;-;-;-;-
1531162832370;-;-;-0.86220706;0.76161623;10.020762;-0.0591294;-0.29731202;-0.075575836;14.400001;58.350002;-42.45;345.75262;-5.791584;-3.7376;-;-;-;-;-;-
1531162832380;-;-;-0.89573735;0.8334668;9.666299;-0.066053614;-0.34578153;-0.02817157;15.150001;58.350002;-43.350002;345.96866;-5.575483;-3.4936182;-;-;-;-;-;-
1531162832390;-;-;-0.8095166;0.86220706;9.699829;-0.104935765;-0.37560895;0.013373743;15.150001;58.350002;-43.350002;345.96866;-5.575483;-3.4936182;-;-;-;-;-;-
1531162832400;-;-;-0.52690434;0.81909674;9.79084;-0.13582844;-0.38839212;0.05278853;14.55;58.500004;-42.300003;346.102;-5.4859953;-3.170783;-;-;-;-;-;-
1531162832411;-;-;-0.4167334;0.76161623;10.164463;-0.13636106;-0.37188053;0.075691715;14.55;58.500004;-42.300003;346.102;-5.4859953;-3.170783;-;-;-;-;-;-
1531162832420;-;-;-0.1101709;0.7807764;10.490186;-0.1054684;-0.33459628;0.0820833;14.85;58.050003;-41.850002;346.14288;-5.3770843;-2.7528734;-;-;-;-;-;-
1531162832430;-;-;0.019160157;0.86220706;10.720108;-0.046878856;-0.26215827;0.06290854;14.85;58.050003;-41.850002;346.14288;-5.3770843;-2.7528734;-;-;-;-;-;-
1531162832441;-;-;-0.07664063;0.8382569;10.696157;0.035146505;-0.17054555;0.014439008;13.200001;58.800003;-43.050003;346.1087;-5.2265325;-2.32145;-;-;-;-;-;-
1531162832451;-;-;-0.16286133;0.7568262;10.571617;0.07882235;-0.1167497;0.008047421;13.200001;58.800003;-43.050003;346.1087;-5.2265325;-2.32145;-;-;-;-;-;-
1531162832461;-;-;-0.53169435;0.8047266;10.135723;0.116640806;-0.057098396;0.017624864;15.450001;57.9;-42.15;346.067;-5.1574306;-1.9971102;-;-;-;-;-;-
1531162832471;-;-;-0.5412744;0.8047266;9.953702;0.11397764;-0.029401522;0.0330712;15.450001;57.9;-42.15;346.067;-5.1574306;-1.9971102;-;-;-;-;-;-
1531162832481;-;-;-0.47900394;0.79993653;10.015972;0.091607094;-0.011292025;0.055974387;15.3;58.500004;-43.95;346.0663;-5.233657;-1.841519;-;-;-;-;-;-
1531162832492;-;-;-0.45984375;0.8430469;10.011182;0.08415024;0.0046869405;0.066627026;15.3;58.500004;-43.95;346.0663;-5.233657;-1.841519;-;-;-;-;-;-
1531162832501;-;-;-0.33530274;0.7711963;9.83874;0.066573374;0.03291645;0.074616514;14.400001;58.65;-45.0;346.03656;-5.361921;-1.7892938;-;-;-;-;-;-
1531162832511;-;-;-0.3161426;0.732876;9.79084;0.04686598;0.055819634;0.07834493;14.400001;58.65;-45.0;346.03656;-5.361921;-1.7892938;-;-;-;-;-;-
1531162832521;-;-;-0.22513184;0.8047266;9.637559;0.0069185635;0.05954806;0.082605995;13.500001;57.45;-41.550003;345.96103;-5.4641156;-1.7825993;-;-;-;-;-;-
1531162832532;-;-;-0.19639161;0.8813672;9.699829;-0.01598462;0.055287004;0.0660944;13.500001;57.45;-41.550003;345.96103;-5.4641156;-1.7825993;-;-;-;-;-;-
1531162832542;-;-;-0.23471193;0.89573735;10.092612;-0.018647783;0.015339585;0.049050167;12.450001;58.500004;-43.050003;345.86206;-5.5237265;-1.8238615;-;-;-;-;-;-
1531162832552;-;-;-0.22513184;0.9053174;10.116563;0.007983828;0.013741689;0.036266994;14.55;58.500004;-42.75;345.77536;-5.517021;-1.8770264;-;-;-;-;-;-
1531162832562;-;-;-0.24908204;0.8813672;9.987232;0.060714416;-0.030999418;0.013896439;14.55;58.500004;-42.75;345.77536;-5.517021;-1.8770264;-;-;-;-;-;-
1531162832573;-;-;-0.2203418;0.9196875;9.968072;0.075628124;-0.03419521;0.0037764271;14.700001;57.300003;-41.25;345.7317;-5.5244446;-1.8863158;-;-;-;-;-;-
1531162832582;-;-;-0.16765137;0.8669971;9.977652;0.077758655;-0.060294192;-0.0020825274;14.700001;57.300003;-41.25;345.7317;-5.5244446;-1.8863158;-;-;-;-;-;-
1531162832592;-;-;-0.19639161;0.8382569;9.915381;0.068703905;-0.046978384;-0.01912676;14.1;57.600002;-42.9;345.72412;-5.6020336;-1.8510534;-;-;-;-;-;-
1531162832602;-;-;-0.31135255;0.8286768;9.944121;0.070834436;0.008947998;-0.023920448;14.1;57.600002;-42.9;345.72412;-5.6020336;-1.8510534;-;-;-;-;-;-
1531162832613;-;-;-0.364043;0.7568262;9.733359;0.058051255;0.008947998;-0.006876217;14.85;57.750004;-43.050003;345.74628;-5.68319;-1.799985;-;-;-;-;-;-
1531162832622;-;-;-0.4023633;0.7376661;9.671089;0.033017542;-0.0022372785;0.022951188;14.85;57.750004;-43.050003;345.74628;-5.68319;-1.799985;-;-;-;-;-;-
1531162832632;-;-;-0.3544629;0.79035646;9.637559;0.014375415;-0.008628865;0.030940669;14.400001;56.850002;-42.9;345.76166;-5.7544355;-1.8052539;-;-;-;-;-;-
1531162832642;-;-;-0.23950197;0.852627;9.70941;-0.011723564;-0.025140464;0.030940669;14.400001;56.850002;-42.9;345.76166;-5.7544355;-1.8052539;-;-;-;-;-;-
1531162832652;-;-;-0.17244141;0.8382569;9.77168;-0.022376208;-0.03419521;0.031473305;13.950001;56.4;-41.550003;345.7285;-5.776732;-1.7932231;-;-;-;-;-;-
1531162832663;-;-;-0.19160157;0.82388675;10.078242;5.26977E-4;-0.05070681;0.0075048525;13.950001;56.4;-41.550003;345.7285;-5.776732;-1.7932231;-;-;-;-;-;-
1531162832673;-;-;-0.17723145;0.8143067;10.083033;0.014908046;-0.04378259;-0.0042130565;14.85;57.45;-43.050003;345.6998;-5.755852;-1.7501284;-;-;-;-;-;-
1531162832684;-;-;-0.17723145;0.82388675;9.920172;0.028756486;-0.02673836;-0.0047456883;14.85;57.45;-43.050003;345.6998;-5.755852;-1.7501284;-;-;-;-;-;-
1531162832693;-;-;-0.119750984;0.852627;9.75731;0.030887015;0.019600643;-0.015930966;13.500001;57.45;-41.550003;345.7038;-5.760178;-1.6988713;-;-;-;-;-;-
1531162832704;-;-;-0.1341211;0.89573735;9.522598;-0.0053319773;0.052623842;-0.023920448;13.500001;57.45;-41.550003;345.7038;-5.760178;-1.6988713;-;-;-;-;-;-
1531162832714;-;-;-0.3305127;0.8861573;9.570498;-0.03942044;0.06966807;-0.030312035;13.950001;56.7;-43.050003;345.72076;-5.7918935;-1.695487;-;-;-;-;-;-
1531162832724;-;-;-0.3544629;0.728086;9.656719;-0.07084574;0.07872282;-0.009539379;13.950001;56.7;-43.050003;345.72076;-5.7918935;-1.695487;-;-;-;-;-;-
1531162832734;-;-;-0.39278322;0.6849756;9.627979;-0.063388884;0.08191861;0.0021785304;13.35;57.600002;-43.350002;345.74435;-5.768139;-1.7661381;-;-;-;-;-;-
1531162832744;-;-;-0.37362307;0.75203615;9.584868;-0.089487866;0.060613327;0.01922276;13.35;57.600002;-43.350002;345.74435;-5.768139;-1.7661381;-;-;-;-;-;-
1531162832755;-;-;-0.21076173;0.7711963;9.699829;-0.10120577;0.04996068;0.027212245;13.500001;57.45;-41.550003;345.7432;-5.690374;-1.8600032;-;-;-;-;-;-
1531162832765;-;-;-0.18681154;0.8334668;9.857901;-0.09108576;0.013209056;0.014429072;13.500001;57.45;-41.550003;345.7432;-5.690374;-1.8600032;-;-;-;-;-;-
1531162832776;-;-;-0.14370118;0.8095166;10.030342;-0.081498384;-6.393817E-4;0.0027111627;14.55;58.050003;-42.75;345.71417;-5.584897;-1.9228836;-;-;-;-;-;-
1531162832786;-;-;-0.28261232;0.8095166;10.106983;-0.033561487;-0.0704142;-0.037768885;14.55;58.050003;-42.75;345.71417;-5.584897;-1.9228836;-;-;-;-;-;-
1531162832796;-;-;-0.25866213;0.7232959;9.948912;0.007983828;-0.064022616;-0.03883415;12.900001;57.750004;-42.300003;345.70178;-5.486329;-1.9291234;-;-;-;-;-;-
1531162832806;-;-;-0.47900394;0.6562354;9.896221;0.012244886;-0.060826823;-0.029779403;12.900001;57.750004;-42.300003;345.70178;-5.486329;-1.9291234;-;-;-;-;-;-
1531162832816;-;-;-0.44547364;0.71371585;9.78605;-0.01811515;-0.053902604;-0.0031477918;14.700001;57.300003;-42.45;345.7445;-5.456407;-1.8625611;-;-;-;-;-;-
1531162832827;-;-;-0.45984375;0.7711963;9.7621;-0.034626752;-0.027270993;0.015494335;14.700001;57.300003;-42.45;345.7445;-5.456407;-1.8625611;-;-;-;-;-;-
1531162832837;-;-;-0.20597169;0.71371585;10.063872;-0.0436815;-0.007563601;0.018157497;13.950001;58.500004;-43.050003;345.77676;-5.4560337;-1.796386;-;-;-;-;-;-
1531162832847;-;-;-0.14370118;0.74724615;10.150093;-0.042083602;-0.010759394;0.009102749;13.950001;58.500004;-43.050003;345.77676;-5.4560337;-1.796386;-;-;-;-;-;-
1531162832857;-;-;-0.17723145;0.6993457;10.241104;-0.02290884;-0.01928151;-0.0010172629;14.700001;58.65;-44.100002;345.76282;-5.4132543;-1.7701808;-;-;-;-;-;-
1531162832867;-;-;-0.22513184;0.63707525;10.245894;0.002657506;-0.030999418;-0.012735172;14.700001;58.65;-44.100002;345.76282;-5.4132543;-1.7701808;-;-;-;-;-;-
1531162832878;-;-;-0.16286133;0.728086;10.289004;0.017571209;-0.036858372;-0.023920448;14.250001;57.750004;-43.5;345.75186;-5.3653617;-1.7543894;-;-;-;-;-;-
1531162832887;-;-;-0.15328126;0.6706055;10.140513;0.040474392;-0.027270993;-0.022322552;14.250001;57.750004;-43.5;345.75186;-5.3653617;-1.7543894;-;-;-;-;-;-
1531162832897;-;-;-0.32572266;0.7041358;10.025552;0.05112704;-0.031532053;-0.016463598;13.950001;57.750004;-42.300003;345.77078;-5.3617177;-1.7221112;-;-;-;-;-;-
1531162832907;-;-;-0.35925296;0.7951465;10.159674;0.05645336;-0.013955187;-0.010604643;13.950001;57.750004;-42.300003;345.77078;-5.3617177;-1.7221112;-;-;-;-;-;-
1531162832918;-;-;-0.3784131;0.7711963;10.073453;0.08734603;0.015339585;-0.0058109527;12.900001;57.15;-43.5;345.79678;-5.4014134;-1.684783;-;-;-;-;-;-
1531162832928;-;-;-0.42152345;0.6610254;9.963282;0.09586815;0.02599223;0.004309059;12.900001;57.15;-43.5;345.79678;-5.4014134;-1.684783;-;-;-;-;-;-
1531162832938;-;-;-0.37362307;0.7376661;9.877061;0.09586815;0.03344908;0.020288026;13.950001;57.15;-41.850002;345.81903;-5.466014;-1.669792;-;-;-;-;-;-
1531162832948;-;-;-0.25387207;0.7759864;9.78605;0.07882392;0.043569095;0.014961703;13.950001;57.15;-41.850002;345.81903;-5.466014;-1.669792;-;-;-;-;-;-
1531162832958;-;-;-0.119750984;0.86220706;9.465117;0.04953215;0.07072659;0.013877331;14.1;57.600002;-40.95;345.8125;-5.5687313;-1.6968026;-;-;-;-;-;-
1531162832969;-;-;-0.14849122;0.8286768;9.398057;-0.015981615;0.065400265;0.0032246865;14.1;57.600002;-40.95;345.8125;-5.5687313;-1.6968026;-;-;-;-;-;-
1531162832979;-;-;-0.17723145;0.977168;9.307046;-0.06764694;0.051019195;0.009616273;14.1;58.350002;-42.45;345.78613;-5.6566567;-1.7478267;-;-;-;-;-;-
1531162832989;-;-;-0.028740235;1.0298585;9.426797;-0.13635649;0.03610549;-0.0031669002;14.1;58.350002;-42.45;345.78613;-5.6566567;-1.7478267;-;-;-;-;-;-
1531162832999;-;-;0.028740235;1.0442286;9.7621;-0.16884705;0.016930733;-0.011156383;15.3;56.4;-42.300003;345.76706;-5.6392937;-1.8198214;-;-;-;-;-;-
1531162833009;-;-;0.0047900393;1.0681788;10.164463;-0.16991232;0.003082294;-0.028200615;15.3;56.4;-42.300003;345.76706;-5.6392937;-1.8198214;-;-;-;-;-;-
1531162833020;-;-;-0.1101709;1.0346485;10.394385;-0.13103017;-0.011298776;-0.047375377;15.150001;57.9;-42.45;345.7599;-5.493324;-1.8608997;-;-;-;-;-;-
1531162833030;-;-;-0.1820215;1.0202783;10.389595;-0.09214803;-0.021418788;-0.053766962;15.150001;57.9;-42.45;345.7599;-5.493324;-1.8608997;-;-;-;-;-;-
1531162833040;-;-;-0.2203418;0.9196875;10.341695;-0.023438467;-0.019820891;-0.03885326;14.700001;57.300003;-42.9;345.78827;-5.3027678;-1.8709391;-;-;-;-;-;-
1531162833050;-;-;-0.28261232;0.8861573;10.274634;-0.012785821;-0.02408195;-0.030863777;14.700001;58.65;-41.7;345.84583;-5.1937666;-1.8510917;-;-;-;-;-;-
1531162833061;-;-;-0.21555176;0.89573735;10.164463;0.005856307;-0.019820891;-0.020211132;14.700001;58.65;-41.7;345.84583;-5.1937666;-1.8510917;-;-;-;-;-;-
1531162833071;-;-;-0.19639161;0.9244776;10.083033;0.02130264;0.0025496618;-0.009558487;14.250001;56.4;-43.050003;345.88882;-5.1770678;-1.8280326;-;-;-;-;-;-
1531162833081;-;-;-0.22513184;0.8813672;9.79084;-5.3527975E-4;0.032377068;-0.0010363713;14.250001;56.4;-43.050003;345.88882;-5.1770678;-1.8280326;-;-;-;-;-;-
1531162833091;-;-;-0.3065625;0.9963282;9.690249;-0.028764788;0.031844433;2.8893119E-5;13.650001;57.9;-42.9;345.90417;-5.1857123;-1.8291203;-;-;-;-;-;-
1531162833102;-;-;-0.2682422;0.98195803;9.987232;-0.0735059;0.005745455;-0.011689016;13.650001;57.9;-42.9;345.90417;-5.1857123;-1.8291203;-;-;-;-;-;-
1531162833112;-;-;-0.12454102;0.86220706;10.083033;-0.061787985;-0.0017113959;-0.015417441;14.1;57.600002;-42.9;345.90213;-5.1523275;-1.8592647;-;-;-;-;-;-
1531162833122;-;-;-0.1580713;0.732876;10.063872;-0.03941743;-0.005972454;-0.018080603;14.1;57.600002;-42.9;345.90213;-5.1523275;-1.8592647;-;-;-;-;-;-
1531162833132;-;-;-0.21555176;0.6993457;10.054293;-0.035689007;-0.04165881;-0.032994304;13.650001;56.850002;-41.7;345.91382;-5.077605;-1.8587464;-;-;-;-;-;-
1531162833142;-;-;-0.2203418;0.7185059;10.356065;-0.008524763;-0.06349673;-0.047375377;13.650001;56.850002;-41.7;345.91382;-5.077605;-1.8587464;-;-;-;-;-;-
1531162833153;-;-;-0.25387207;0.67539555;10.188414;0.0015952492;-0.04858303;-0.042581685;14.250001;57.45;-44.25;345.91382;-5.077605;-1.8587464;-;-;-;-;-;-
1531162833163;-;-;-0.3544629;0.6227051;9.982442;0.0026605136;0.010006513;-0.050038535;14.250001;57.45;-44.25;345.94977;-5.034815;-1.8246102;-;-;-;-;-;-
1531162833173;-;-;-0.37362307;0.57001466;9.953702;-0.0042637056;0.028116008;-0.044712216;13.200001;58.500004;-42.75;346.0023;-5.0312204;-1.7819966;-;-;-;-;-;-
1531162833184;-;-;-0.52690434;0.5221143;10.020762;-0.020775305;0.019593893;-0.025004823;13.200001;58.500004;-42.75;346.0023;-5.0312204;-1.7819966;-;-;-;-;-;-
1531162833194;-;-;-0.45026368;0.488584;10.188414;-0.011187924;0.007343352;-0.0079605905;12.900001;58.500004;-43.5;346.0486;-5.0256014;-1.8095778;-;-;-;-;-;-
1531162833204;-;-;-0.57959473;0.46463382;10.044712;0.027161596;-0.0022440283;0.024529975;12.900001;58.500004;-43.5;346.0486;-5.0256014;-1.8095778;-;-;-;-;-;-
1531162833217;-;-;-0.62749517;0.5364844;10.044712;0.038346875;0.0041475585;0.03731315;13.500001;57.750004;-43.95;346.06033;-5.0101852;-1.8227996;-;-;-;-;-;-
1531162833224;-;-;-0.49337405;0.5460645;9.848321;0.05432584;-0.012896673;0.058085807;13.500001;57.750004;-43.95;346.06033;-5.0101852;-1.8227996;-;-;-;-;-;-
1531162833235;-;-;-0.43589357;0.5412744;9.934542;0.065511115;-0.031006169;0.06767319;15.900001;56.7;-42.75;346.03024;-5.0438695;-1.8225906;-;-;-;-;-;-
1531162833245;-;-;-0.4167334;0.60354495;9.891431;0.08468588;-0.0480504;0.05915107;15.900001;56.7;-42.75;346.03024;-5.0438695;-1.8225906;-;-;-;-;-;-
1531162833255;-;-;-0.28261232;0.5987549;9.623189;0.07776166;-0.043789342;0.052226853;13.500001;57.45;-43.5;345.97067;-5.1152444;-1.7931619;-;-;-;-;-;-
1531162833265;-;-;-0.34967285;0.63707525;9.690249;0.041010033;-0.027277743;0.03092156;13.500001;57.45;-43.5;345.97067;-5.1152444;-1.7931619;-;-;-;-;-;-
1531162833275;-;-;-0.36883304;0.728086;9.632769;0.03728161;-0.033136696;0.03251946;13.650001;58.350002;-41.7;345.97067;-5.1152444;-1.7931619;-;-;-;-;-;-
1531162833286;-;-;-0.5364844;0.6466553;9.843531;0.0031931459;-0.034734596;0.038911045;13.650001;58.350002;-41.7;345.9155;-5.209604;-1.7332301;-;-;-;-;-;-
1531162833296;-;-;-0.5891748;0.5748047;9.862691;-0.00532897;-0.036865123;0.051694218;14.400001;58.350002;-43.350002;345.88696;-5.248751;-1.6951617;-;-;-;-;-;-
1531162833306;-;-;-0.44547364;0.68018556;9.867481;-0.0021331764;-0.017690362;0.0612816;14.400001;58.350002;-43.350002;345.88696;-5.248751;-1.6951617;-;-;-;-;-;-
1531162833316;-;-;-0.46463382;0.63707525;9.891431;-0.00532897;-0.005972454;0.07353214;12.450001;57.45;-43.95;345.84375;-5.25297;-1.6500843;-;-;-;-;-;-
1531162833326;-;-;-0.3065625;0.7041358;9.905801;-0.018112144;0.022257054;0.058618437;12.450001;57.45;-43.95;345.84375;-5.25297;-1.6500843;-;-;-;-;-;-
1531162833337;-;-;-0.20597169;0.6658155;9.910591;-0.015981615;0.029713906;0.04743316;14.85;57.750004;-44.7;345.77325;-5.2497425;-1.6211458;-;-;-;-;-;-
1531162833346;-;-;-0.2682422;0.7185059;9.920172;-0.023971098;0.0329097;0.023997342;14.85;57.750004;-44.7;345.77325;-5.2497425;-1.6211458;-;-;-;-;-;-
1531162833356;-;-;-0.3065625;0.7089258;9.8866415;-0.02929742;0.028648641;0.018138388;12.3;58.65;-42.45;345.71432;-5.234428;-1.641753;-;-;-;-;-;-
1531162833366;-;-;-0.34009278;0.68976563;9.85311;-0.03995006;0.02385495;0.008018377;12.3;58.65;-42.45;345.71432;-5.234428;-1.641753;-;-;-;-;-;-
1531162833377;-;-;-0.30177248;0.6179151;9.81958;-0.042080592;0.016930733;0.012279435;13.500001;58.800003;-43.5;345.71432;-5.234428;-1.641753;-;-;-;-;-;-
1531162833387;-;-;-0.35925296;0.6993457;10.140513;-0.042613223;0.0036149262;0.002159422;13.500001;58.800003;-43.5;345.68384;-5.204585;-1.6797094;-;-;-;-;-;-
1531162833397;-;-;-0.3544629;0.60354495;10.159674;-0.027166892;-0.0017113959;0.018138388;15.150001;57.9;-43.350002;345.67474;-5.154602;-1.7006243;-;-;-;-;-;-
1531162833407;-;-;-0.35925296;0.50774413;10.207574;-0.00532897;-0.009168247;0.017073125;15.150001;57.9;-43.350002;345.67474;-5.154602;-1.7006243;-;-;-;-;-;-
1531162833417;-;-;-0.38320315;0.57959473;10.078242;0.014911055;-0.01928826;0.02559524;13.500001;58.050003;-43.050003;345.66998;-5.1097646;-1.7061737;-;-;-;-;-;-
1531162833428;-;-;-0.3544629;0.57001466;10.049502;0.022900539;-0.032604065;0.029323665;13.500001;58.050003;-43.050003;345.66998;-5.1097646;-1.7061737;-;-;-;-;-;-
1531162833438;-;-;-0.3544629;0.57959473;9.987232;0.02822686;-0.026212478;0.02346471;13.650001;57.9;-42.15;345.65457;-5.10885;-1.6945635;-;-;-;-;-;-
1531162833448;-;-;-0.25387207;0.5891748;10.054293;0.029824756;-0.04325671;0.029323665;13.650001;57.9;-42.15;345.65457;-5.10885;-1.6945635;-;-;-;-;-;-
1531162833458;-;-;-0.19639161;0.6227051;10.097403;0.02822686;-0.056039885;0.02559524;14.55;57.750004;-41.850002;345.6279;-5.134104;-1.6581852;-;-;-;-;-;-
1531162833469;-;-;-0.19160157;0.63707525;10.035132;0.05006797;-0.041133337;0.014389709;14.55;57.750004;-41.850002;345.6279;-5.134104;-1.6581852;-;-;-;-;-;-
1531162833479;-;-;-0.2203418;0.7376661;9.848321;0.045806915;0.009999359;-0.0069155805;13.650001;57.300003;-41.25;345.60556;-5.16596;-1.6033751;-;-;-;-;-;-
1531162833489;-;-;-0.3305127;0.63707525;9.843531;0.028230049;0.023847796;-0.0053176843;14.55;58.050003;-43.5;345.59982;-5.2172613;-1.5743381;-;-;-;-;-;-
1531162833500;-;-;-0.32572266;0.6849756;9.75731;0.005859495;0.025445694;-0.0021218907;14.55;58.050003;-43.5;345.59982;-5.2172613;-1.5743381;-;-;-;-;-;-
1531162833510;-;-;-0.2778223;0.6179151;9.7621;-0.018641587;0.030772014;0.010661283;13.35;57.600002;-41.7;345.59982;-5.2172613;-1.5743381;-;-;-;-;-;-
1531162833520;-;-;-0.2203418;0.6945557;9.972861;-0.033022657;0.013195151;0.0048023285;13.35;57.600002;-41.7;345.59875;-5.241939;-1.6015428;-;-;-;-;-;-
1531162833530;-;-;-0.22513184;0.6849756;9.929751;-0.023967909;0.002009875;0.0010739027;13.35;57.600002;-41.7;345.59875;-5.241939;-1.6015428;-;-;-;-;-;-
1531162833541;-;-;-0.2682422;0.728086;10.001602;0.011185817;-0.0038490796;-0.0069155805;12.450001;57.750004;-43.5;345.58282;-5.219048;-1.6314873;-;-;-;-;-;-
1531162833551;-;-;-0.244292;0.7041358;9.920172;0.03142584;-0.016632253;-0.0031871551;14.250001;55.65;-43.050003;345.578;-5.2036457;-1.63411;-;-;-;-;-;-
1531162833561;-;-;-0.3161426;0.7232959;9.82437;0.032491103;-0.019295415;-0.008513478;14.250001;55.65;-43.050003;345.578;-5.2036457;-1.63411;-;-;-;-;-;-
1531162833572;-;-;-0.28740236;0.7041358;9.584868;0.01864267;-0.011838563;-0.008513478;13.950001;58.050003;-42.300003;345.58862;-5.2314067;-1.620915;-;-;-;-;-;-
1531162833582;-;-;-0.3065625;0.67539555;9.517808;-0.018108955;4.1197822E-4;-0.0010566262;13.950001;58.050003;-42.300003;345.58862;-5.2314067;-1.620915;-;-;-;-;-;-
1531162833592;-;-;-0.24908204;0.71371585;9.565708;-0.052730054;-0.0043817116;-0.0031871551;13.950001;57.15;-41.550003;345.59528;-5.2483544;-1.6111157;-;-;-;-;-;-
1531162833603;-;-;-0.32572266;0.7664063;9.958491;-0.06817639;-0.007044873;-0.011709271;13.950001;57.15;-41.550003;345.59528;-5.2483544;-1.6111157;-;-;-;-;-;-
1531162833613;-;-;-0.24908204;0.7664063;10.083033;-0.04740373;-0.020360678;-0.005850316;13.200001;57.750004;-41.550003;345.6026;-5.2034287;-1.6077058;-;-;-;-;-;-
1531162833623;-;-;-0.22992188;0.75203615;10.145303;-0.0143805295;-0.02781753;-0.0010566262;13.200001;57.750004;-41.550003;345.6026;-5.2034287;-1.6077058;-;-;-;-;-;-
1531162833633;-;-;-0.21076173;0.71371585;9.948912;-0.013315265;-0.024621736;-0.010644007;13.950001;58.050003;-41.100002;345.60837;-5.138881;-1.5968281;-;-;-;-;-;-
1531162833644;-;-;-0.23471193;0.7232959;9.80521;-0.013315265;-0.04592703;-0.013307167;13.950001;58.050003;-41.100002;345.60837;-5.138881;-1.5968281;-;-;-;-;-;-
1531162833654;-;-;-0.16286133;0.6945557;9.867481;-0.042077407;-0.054449145;-0.007980845;13.35;57.9;-41.7;345.61502;-5.1233163;-1.5685506;-;-;-;-;-;-
1531162833664;-;-;-0.12454102;0.7759864;9.982442;-0.057523742;-0.06350389;-0.011709271;13.35;57.9;-41.7;345.61502;-5.1233163;-1.5685506;-;-;-;-;-;-
1531162833674;-;-;-0.16765137;0.732876;10.260264;-0.054860577;-0.041665968;-0.026622973;13.200001;57.750004;-42.300003;345.62808;-5.0958157;-1.5151554;-;-;-;-;-;-
1531162833684;-;-;-0.19160157;0.6322852;10.289004;-0.03408792;-0.013969092;-0.023427181;13.200001;57.750004;-42.300003;345.62808;-5.0958157;-1.5151554;-;-;-;-;-;-
1531162833695;-;-;-0.34488282;0.5364844;10.289004;-5.320916E-4;0.013727784;-0.010644007;12.0;58.65;-42.45;345.65274;-5.0308256;-1.4603044;-;-;-;-;-;-
1531162833705;-;-;-0.36883304;0.6514453;10.087823;0.020240566;0.027576221;0.011726547;12.0;58.65;-42.45;345.65274;-5.0308256;-1.4603044;-;-;-;-;-;-
1531162833715;-;-;-0.25866213;0.68976563;9.924961;0.02130583;0.033967808;0.030368675;13.950001;57.750004;-43.050003;345.67493;-5.0068645;-1.459174;-;-;-;-;-;-
1531162833725;-;-;-0.1820215;0.7232959;9.75731;0.012783714;0.0371636;0.03196657;13.950001;57.750004;-43.050003;345.67493;-5.0068645;-1.459174;-;-;-;-;-;-
1531162833736;-;-;-0.19160157;0.8143067;9.589659;-0.0031952527;0.03236991;0.018650766;14.250001;58.050003;-43.95;345.6545;-5.0301037;-1.4921137;-;-;-;-;-;-
1531162833745;-;-;-0.07185059;0.7711963;9.642349;-0.013847897;0.008401462;0.009063385;14.250001;58.050003;-43.95;345.6545;-5.0301037;-1.4921137;-;-;-;-;-;-
1531162833755;-;-;-0.086220704;0.7089258;9.599238;-0.02609844;-0.014501724;-0.0053176843;12.6;58.95;-42.15;345.61856;-5.0480814;-1.5350101;-;-;-;-;-;-
1531162833765;-;-;-0.17723145;0.6658155;9.901011;-0.03834898;-0.06936284;-0.012241904;12.6;58.95;-42.15;345.61856;-5.0480814;-1.5350101;-;-;-;-;-;-
1531162833776;-;-;-0.19160157;0.6610254;9.944121;-0.042077407;-0.08480918;-0.012241904;14.400001;58.350002;-42.45;345.61346;-5.0276074;-1.53293;-;-;-;-;-;-
1531162833786;-;-;-0.1341211;0.6610254;9.958491;-0.017576324;-0.06297126;-0.009046109;14.400001;58.350002;-42.45;345.61346;-5.0276074;-1.53293;-;-;-;-;-;-
1531162833796;-;-;-0.21076173;0.6993457;9.929751;-0.017576324;-0.043263867;-0.007448213;13.35;57.9;-42.15;345.63373;-4.9863167;-1.4557749;-;-;-;-;-;-
1531162833806;-;-;-0.25866213;0.71371585;9.857901;-0.0287616;-0.0065122405;-0.002654523;13.35;57.9;-42.15;345.63373;-4.9863167;-1.4557749;-;-;-;-;-;-
1531162833817;-;-;-0.2921924;0.6227051;9.896221;-0.05113215;0.03236991;0.015987605;13.650001;57.300003;-43.350002;345.65125;-4.960652;-1.385965;-;-;-;-;-;-
1531162833826;-;-;-0.2203418;0.613125;9.857901;-0.056991108;0.038761497;0.027172882;13.650001;57.300003;-43.350002;345.65125;-4.960652;-1.385965;-;-;-;-;-;-
1531162833836;-;-;-0.20597169;0.7424561;9.877061;-0.05539321;0.039294127;0.04102132;13.35;57.600002;-42.15;345.65125;-4.9222007;-1.3839493;-;-;-;-;-;-
1531162833847;-;-;-0.16765137;0.6945557;10.0063925;-0.05432795;0.008401462;0.039956056;13.35;57.600002;-42.15;345.65125;-4.9222007;-1.3839493;-;-;-;-;-;-
1531162833857;-;-;-0.086220704;0.7568262;9.968072;-0.022370012;-0.03048069;0.039956056;13.500001;57.750004;-42.75;345.61227;-4.861618;-1.4236795;-;-;-;-;-;-
1531162833867;-;-;0.038320314;0.7185059;10.020762;-0.011184736;-0.05391651;0.03622763;13.500001;57.750004;-42.75;345.61227;-4.861618;-1.4236795;-;-;-;-;-;-
1531162833878;-;-;0.05269043;0.7089258;9.996812;0.0010658051;-0.052318614;0.01971603;14.55;58.050003;-43.050003;345.56778;-4.810352;-1.4225936;-;-;-;-;-;-
1531162833888;-;-;0.028740235;0.7424561;9.877061;-0.007988943;-0.038470175;0.017585501;12.900001;57.15;-42.75;345.56778;-4.810352;-1.4225936;-;-;-;-;-;-
1531162833899;-;-;-0.086220704;0.7185059;9.843531;-0.039946876;0.0068035647;-0.00425242;12.900001;57.15;-42.75;345.53775;-4.7992454;-1.3610501;-;-;-;-;-;-
1531162833909;-;-;-0.100590825;0.7568262;9.934542;-0.058589004;0.009466726;0.009063385;14.85;58.050003;-43.050003;345.53232;-4.7815332;-1.3230401;-;-;-;-;-;-
1531162833919;-;-;-0.16286133;0.6945557;9.982442;-0.054860577;-0.0043817116;0.010128651;14.85;58.050003;-43.050003;345.53232;-4.7815332;-1.3230401;-;-;-;-;-;-
1531162833930;-;-;-0.16765137;0.5843848;10.063872;-0.038881615;-0.017164884;0.023977088;14.250001;57.750004;-42.300003;345.5274;-4.715381;-1.334209;-;-;-;-;-;-
1531162833940;-;-;-0.09101075;0.68018556;10.174044;-0.015445793;-0.023556473;0.018118134;14.250001;57.750004;-42.300003;345.5274;-4.715381;-1.334209;-;-;-;-;-;-
1531162833950;-;-;0.038320314;0.75203615;10.078242;0.003196334;-0.031545956;0.013324443;13.500001;58.050003;-43.5;345.5082;-4.6661043;-1.3152412;-;-;-;-;-;-
1531162833961;-;-;-0.019160157;0.74724615;9.85311;0.007458655;-0.020363513;0.0037290384;13.500001;58.050003;-43.5;345.5082;-4.6661043;-1.3152412;-;-;-;-;-;-
1531162833971;-;-;-0.028740235;0.7424561;9.958491;0.008523919;-0.015569823;0.005326935;13.950001;58.500004;-42.300003;345.48938;-4.6613812;-1.2789571;-;-;-;-;-;-
1531162833983;-;-;-0.086220704;0.7711963;9.79563;-0.015977163;-0.021428777;6.1269384E-7;13.950001;58.500004;-42.300003;345.48938;-4.6613812;-1.2789571;-;-;-;-;-;-
1531162833992;-;-;-0.14849122;0.79993653;9.81;-0.023434015;-0.013439294;0.002663774;13.200001;58.800003;-42.300003;345.486;-4.668101;-1.2582588;-;-;-;-;-;-
1531162834002;-;-;-0.09580079;0.7807764;9.977652;-0.024499279;-0.030483525;6.1269384E-7;13.200001;58.800003;-42.300003;345.486;-4.668101;-1.2582588;-;-;-;-;-;-
1531162834013;-;-;-0.06227051;0.75203615;9.963282;-0.017042428;-0.0267551;-0.002129916;12.6;58.65;-43.65;345.49344;-4.6437187;-1.2347884;-;-;-;-;-;-
1531162834023;-;-;-0.14370118;0.8286768;10.025552;-0.013314002;-0.013971927;-0.0101194;12.6;58.65;-43.65;345.49344;-4.6437187;-1.2347884;-;-;-;-;-;-
1531162834033;-;-;-0.16765137;0.7759864;10.193204;0.009589184;-0.017700352;-0.013847825;14.85;57.750004;-42.300003;345.50223;-4.6165786;-1.211725;-;-;-;-;-;-
1531162834044;-;-;-0.15328126;0.8430469;9.992022;0.029829208;-0.013439294;-0.009586767;14.85;57.750004;-42.300003;345.50223;-4.6165786;-1.211725;-;-;-;-;-;-
1531162834054;-;-;-0.19639161;0.82388675;10.135723;0.05592819;-0.014504559;-0.0026625483;12.900001;57.750004;-43.050003;345.51773;-4.61087;-1.1940409;-;-;-;-;-;-
1531162834064;-;-;-0.086220704;0.85741705;10.284214;0.08895139;-0.028885629;0.0031964062;12.900001;57.750004;-43.050003;345.51773;-4.61087;-1.1940409;-;-;-;-;-;-
1531162834074;-;-;-0.13891114;0.8765772;10.178833;0.111854576;-0.024624571;0.014914314;14.250001;59.550003;-43.5;345.53098;-4.6570797;-1.1753538;-;-;-;-;-;-
1531162834085;-;-;-0.043110352;0.91010743;9.891431;0.13795355;-0.020363513;0.005326935;14.250001;59.550003;-43.5;345.53098;-4.6570797;-1.1753538;-;-;-;-;-;-
1531162834094;-;-;-0.100590825;1.0346485;9.7142;0.11824616;-0.027287733;6.1269384E-7;14.1;57.9;-43.65;345.52554;-4.7684836;-1.1485221;-;-;-;-;-;-
1531162834104;-;-;-0.047900394;1.0681788;9.79563;0.08522296;-0.051788818;-0.0037278128;14.1;57.9;-43.65;345.52554;-4.7684836;-1.1485221;-;-;-;-;-;-
1531162834114;-;-;0.014370117;1.0298585;9.881851;0.07563558;-0.06403936;-0.0111846635;14.250001;57.750004;-43.050003;345.5194;-4.9212246;-1.1221602;-;-;-;-;-;-
1531162834125;-;-;-0.06227051;0.86220706;9.85311;0.06658083;-0.06510462;-0.013315192;14.250001;57.750004;-43.050003;345.5194;-4.9212246;-1.1221602;-;-;-;-;-;-
1531162834135;-;-;-0.16765137;0.852627;9.80521;0.05592819;-0.08374675;0.0031964062;14.400001;58.95;-43.65;345.5281;-5.021054;-1.0567856;-;-;-;-;-;-
1531162834145;-;-;0.043110352;0.91010743;9.7812605;0.027698679;-0.09439939;0.021838533;14.400001;58.95;-43.65;345.5281;-5.021054;-1.0567856;-;-;-;-;-;-
1531162834156;-;-;0.2682422;0.9484278;9.872271;0.0127849765;-0.07522464;0.019708004;14.55;58.500004;-42.75;345.54022;-5.0908523;-0.9694084;-;-;-;-;-;-
1531162834165;-;-;0.25387207;1.0202783;9.68067;-5.308284E-4;-0.04752776;-0.0111846635;14.55;58.500004;-42.75;345.54022;-5.0908523;-0.9694084;-;-;-;-;-;-
1531162834176;-;-;0.19639161;0.9053174;9.580078;-0.035684556;-0.060843565;-0.047403656;14.250001;57.15;-43.5;345.52594;-5.122182;-0.86595905;-;-;-;-;-;-
1531162834186;-;-;0.2203418;0.9388477;9.627979;-0.05592458;-0.082681485;-0.08149212;14.250001;57.15;-43.5;345.52594;-5.122182;-0.86595905;-;-;-;-;-;-
1531162834196;-;-;0.033530276;0.7568262;9.7142;-0.07509934;-0.08534465;-0.09960161;12.450001;57.750004;-44.7;345.5551;-5.1081586;-0.8064397;-;-;-;-;-;-
1531162834206;-;-;0.07664063;0.75203615;9.814791;-0.08095829;-0.06244146;-0.11025426;12.450001;57.750004;-44.7;345.5551;-5.1081586;-0.8064397;-;-;-;-;-;-
1531162834217;-;-;-0.10538086;0.6322852;9.963282;-0.08521935;-0.03740775;-0.10812373;13.200001;57.45;-44.25;345.6539;-5.0404696;-0.71701187;-;-;-;-;-;-
1531162834227;-;-;-0.16286133;0.6514453;9.881851;-0.088415146;-0.0017213855;-0.08841634;13.200001;57.45;-44.25;345.6539;-5.0404696;-0.71701187;-;-;-;-;-;-
1531162834237;-;-;-0.1820215;0.6706055;9.74294;-0.11344886;0.05207447;-0.07669843;13.200001;58.500004;-43.050003;345.78122;-4.9464164;-0.66436166;-;-;-;-;-;-
1531162834247;-;-;-0.3161426;0.7089258;9.637559;-0.13954784;0.07977134;-0.07776369;12.150001;58.800003;-41.850002;345.87967;-4.8343453;-0.6793527;-;-;-;-;-;-
1531162834257;-;-;-0.17723145;0.62749517;9.79084;-0.16830999;0.11652297;-0.059654195;12.150001;58.800003;-41.850002;345.87967;-4.8343453;-0.6793527;-;-;-;-;-;-
1531162834268;-;-;-0.16286133;0.6658155;9.877061;-0.18748474;0.12184929;-0.05113208;13.500001;57.45;-43.050003;345.87967;-4.8343453;-0.6793527;-;-;-;-;-;-
1531162834278;-;-;-0.09101075;0.6227051;9.877061;-0.18908264;0.105337694;-0.05379524;13.500001;57.45;-43.050003;345.94977;-4.6643167;-0.7825678;-;-;-;-;-;-
1531162834288;-;-;-0.05269043;0.6849756;9.891431;-0.1768321;0.10107663;-0.07350264;13.650001;57.300003;-42.9;346.0007;-4.4508724;-0.9198607;-;-;-;-;-;-
1531162834298;-;-;-0.3065625;0.60354495;9.944121;-0.17470157;0.07284713;-0.07030684;13.650001;57.300003;-42.9;346.0007;-4.4508724;-0.9198607;-;-;-;-;-;-
1531162834309;-;-;-0.2682422;0.6179151;9.977652;-0.16085313;0.032899708;-0.06071946;13.35;57.600002;-41.25;346.06854;-4.2440286;-1.0339779;-;-;-;-;-;-
1531162834318;-;-;-0.32572266;0.5221143;10.102193;-0.13688469;0.006268098;-0.045273125;13.35;57.600002;-41.25;346.06854;-4.2440286;-1.0339779;-;-;-;-;-;-
1531162834329;-;-;-0.29698244;0.5748047;10.078242;-0.11770992;-0.01929825;-0.04580576;14.250001;59.550003;-41.100002;346.13495;-4.061228;-1.0877628;-;-;-;-;-;-
1531162834338;-;-;-0.25387207;0.5221143;10.193204;-0.101198316;-0.0448646;-0.023967838;14.250001;59.550003;-41.100002;346.13495;-4.061228;-1.0877628;-;-;-;-;-;-
1531162834348;-;-;-0.21555176;0.49337405;10.284214;-0.09746989;-0.035277218;-0.026098367;14.250001;59.550003;-41.850002;346.18686;-3.92204;-1.0712377;-;-;-;-;-;-
1531162834359;-;-;-0.244292;0.43589357;10.308165;-0.086284615;-0.03794038;0.002663774;14.250001;59.550003;-41.850002;346.18686;-3.92204;-1.0712377;-;-;-;-;-;-
1531162834369;-;-;-0.25387207;0.47900394;10.365645;-0.07989303;-0.04060354;0.007457464;13.500001;58.800003;-42.75;346.2118;-3.8115642;-1.0310918;-;-;-;-;-;-
1531162834379;-;-;-0.21555176;0.46942386;10.399176;-0.061783534;-0.034211952;0.022903798;13.500001;58.800003;-42.75;346.2118;-3.8115642;-1.0310918;-;-;-;-;-;-
1531162834390;-;-;-0.21076173;0.49337405;10.451866;-0.048467726;-0.029950893;0.036219604;13.950001;58.050003;-43.050003;346.20462;-3.7203155;-0.9876713;-;-;-;-;-;-
1531162834400;-;-;-0.1101709;0.53169435;10.504556;-0.013314002;-0.025689835;0.042611193;13.950001;58.050003;-43.050003;346.20462;-3.7203155;-0.9876713;-;-;-;-;-;-
1531162834411;-;-;-0.05748047;0.45026368;10.442286;0.03036184;-0.023026675;0.04207856;12.3;58.350002;-41.7;346.16846;-3.6669695;-0.9482768;-;-;-;-;-;-
1531162834421;-;-;0.014370117;0.45984375;10.279425;0.060721878;-0.034211952;0.031425916;12.3;58.350002;-41.7;346.16846;-3.6669695;-0.9482768;-;-;-;-;-;-
1531162834432;-;-;0.11496094;0.51732427;10.049502;0.06711347;-0.022494042;0.011185889;14.55;58.800003;-42.75;346.12247;-3.689994;-0.91609013;-;-;-;-;-;-
1531162834441;-;-;0.038320314;0.5029541;9.920172;0.045275547;-0.0065150755;-0.010652032;14.55;58.800003;-42.75;346.12247;-3.689994;-0.91609013;-;-;-;-;-;-
1531162834451;-;-;-0.038320314;0.5125342;9.843531;0.017578667;0.005735466;-0.018108884;12.450001;58.050003;-43.5;346.09827;-3.7646246;-0.8856229;-;-;-;-;-;-
1531162834462;-;-;-0.07664063;0.45505372;10.011182;-0.0037213883;0.011582675;-0.024533719;12.450001;58.050003;-43.5;346.09827;-3.7646246;-0.8856229;-;-;-;-;-;-
1531162834472;-;-;-0.21076173;0.3305127;9.963282;-0.003188756;0.023300584;-0.0325232;12.6;58.95;-42.45;346.11465;-3.7936063;-0.88240594;-;-;-;-;-;-
1531162834483;-;-;-0.25866213;0.35925296;9.929751;0.01012705;0.028094275;-0.004826326;12.6;58.95;-42.45;346.11465;-3.7936063;-0.88240594;-;-;-;-;-;-
1531162834493;-;-;-0.35925296;0.3784131;9.920172;0.020779693;0.035018496;0.004228422;14.55;57.45;-41.850002;346.13797;-3.7912753;-0.9057072;-;-;-;-;-;-
1531162834503;-;-;-0.37362307;0.3879932;9.833951;0.029834442;0.025431115;0.012750538;14.55;57.45;-41.850002;346.13797;-3.7912753;-0.9057072;-;-;-;-;-;-
1531162834514;-;-;-0.3544629;0.45505372;9.83874;0.021312326;0.011582675;0.01594633;13.200001;57.750004;-43.050003;346.14117;-3.8062367;-0.94303936;-;-;-;-;-;-
1531162834524;-;-;-0.21555176;0.43110353;9.829161;0.04155235;-0.001200498;0.019142123;13.200001;57.750004;-43.050003;346.14117;-3.8062367;-0.94303936;-;-;-;-;-;-
1531162834534;-;-;-0.22992188;0.46463382;9.6758795;0.028769178;-0.020375257;0.007956848;13.500001;59.100002;-42.75;346.12448;-3.8356142;-0.969521;-;-;-;-;-;-
1531162834545;-;-;-0.17244141;0.48379397;9.666299;0.010659682;-0.03528896;0.00848948;13.500001;59.100002;-42.75;346.12448;-3.8356142;-0.969521;-;-;-;-;-;-
1531162834555;-;-;-0.05269043;0.45505372;9.74294;-0.007982446;-0.025168948;-0.010152649;13.05;59.4;-42.9;346.10843;-3.8728151;-0.9637919;-;-;-;-;-;-
1531162834565;-;-;-0.0047900393;0.5029541;9.82437;-0.029820368;-0.02144052;-0.014946338;13.05;59.4;-42.9;346.10843;-3.8728151;-0.9637919;-;-;-;-;-;-
1531162834576;-;-;-0.16286133;0.5125342;10.063872;-0.048462495;-0.014516304;-0.024533719;13.950001;58.050003;-43.050003;346.11008;-3.8783216;-0.92977715;-;-;-;-;-;-
1531162834586;-;-;-0.17244141;0.4742139;10.121353;-0.04207091;-0.0027983948;-0.020272661;13.950001;58.050003;-43.050003;346.11008;-3.8783216;-0.92977715;-;-;-;-;-;-
1531162834598;-;-;-0.22992188;0.3784131;10.245894;-0.0021234916;0.022767954;0.006358951;13.35;59.7;-42.15;346.12753;-3.8401575;-0.9119936;-;-;-;-;-;-
1531162834607;-;-;-0.17244141;0.39757326;10.169253;0.007996521;0.024898482;0.004761054;12.900001;57.750004;-43.050003;346.1438;-3.7991128;-0.9176186;-;-;-;-;-;-
1531162834617;-;-;-0.15328126;0.47900394;10.001602;0.017051268;0.02436585;0.015413698;12.900001;57.750004;-43.050003;346.1438;-3.7991128;-0.9176186;-;-;-;-;-;-
1531162834628;-;-;-0.16286133;0.49337405;9.924961;0.018649166;0.02436585;0.021272654;12.150001;58.800003;-42.75;346.13004;-3.8125713;-0.9433416;-;-;-;-;-;-
1531162834637;-;-;-0.028740235;0.52690434;9.881851;7.037248E-6;0.006256353;0.0303274;12.150001;58.800003;-42.75;346.13004;-3.8125713;-0.9433416;-;-;-;-;-;-
1531162834647;-;-;0.043110352;0.46463382;9.972861;0.004268095;0.012115308;0.0303274;13.05;57.300003;-42.15;346.10312;-3.8280797;-0.9660106;-;-;-;-;-;-
1531162834658;-;-;0.07185059;0.5364844;10.001602;-0.008515079;0.0019952953;0.013815802;13.05;57.300003;-42.15;346.10312;-3.8280797;-0.9660106;-;-;-;-;-;-
1531162834668;-;-;0.05748047;0.45984375;10.025552;0.0021375662;0.0019952953;4.9999636E-4;12.150001;59.100002;-41.850002;346.0768;-3.82851;-0.9706333;-;-;-;-;-;-
1531162834679;-;-;0.033530276;0.5412744;10.164463;0.0010723018;-0.010787878;-0.0042936937;12.150001;59.100002;-41.850002;346.0768;-3.82851;-0.9706333;-;-;-;-;-;-
1531162834689;-;-;-0.014370117;0.47900394;10.178833;0.017583901;-0.015581568;0.002097893;12.450001;59.100002;-41.850002;346.0776;-3.8265855;-0.96976954;-;-;-;-;-;-
1531162834700;-;-;-0.081430666;0.48379397;10.044712;0.02450812;-0.013451039;-0.0064242226;12.450001;59.100002;-41.850002;346.0776;-3.8265855;-0.96976954;-;-;-;-;-;-
1531162834709;-;-;-0.06706055;0.45984375;10.078242;0.022377592;-0.0065268204;-0.0016305326;12.150001;59.100002;-41.100002;346.08243;-3.8439121;-0.95784956;-;-;-;-;-;-
1531162834720;-;-;0.028740235;0.48379397;9.968072;0.004800727;0.018506896;-0.010152649;12.150001;59.100002;-41.100002;346.08243;-3.8439121;-0.95784956;-;-;-;-;-;-
1531162834730;-;-;-0.038320314;0.51732427;9.82437;0.0021375662;0.036083758;-5.652681E-4;13.650001;58.65;-41.7;346.08633;-3.8672235;-0.95739794;-;-;-;-;-;-
1531162834740;-;-;-0.014370117;0.5029541;9.987232;0.0021375662;0.04087745;0.0010326286;13.650001;58.65;-41.7;346.08633;-3.8672235;-0.95739794;-;-;-;-;-;-
1531162834751;-;-;-0.033530276;0.5508545;9.987232;0.019181797;0.019039527;-0.0037610615;12.150001;57.15;-42.300003;346.08743;-3.8691006;-0.99072254;-;-;-;-;-;-
1531162834761;-;-;0.043110352;0.52690434;10.044712;0.038356557;-0.0022657625;-0.009087384;12.150001;57.15;-42.300003;346.08743;-3.8691006;-0.99072254;-;-;-;-;-;-
1531162834772;-;-;-0.038320314;0.4406836;9.910591;0.063922904;-0.02144052;-0.010152649;13.05;59.4;-41.7;346.08762;-3.8838866;-1.0178176;-;-;-;-;-;-
1531162834782;-;-;0.033530276;0.5125342;9.905801;0.061259743;-0.036886856;-0.011217913;13.05;59.4;-41.7;346.08762;-3.8838866;-1.0178176;-;-;-;-;-;-
1531162834792;-;-;0.023950197;0.45984375;9.74773;0.0490092;-0.024103682;-0.017076867;12.3;59.7;-41.7;346.09995;-3.9415324;-1.0010023;-;-;-;-;-;-
1531162834802;-;-;-0.07185059;0.56522465;9.685459;0.030367075;-0.0027983948;-0.0176095;12.3;59.7;-41.7;346.09995;-3.9415324;-1.0010023;-;-;-;-;-;-
1531162834813;-;-;-0.05748047;0.56522465;9.570498;0.006931256;0.010517411;-0.021337925;12.450001;59.100002;-41.550003;346.11877;-4.005978;-0.96467364;-;-;-;-;-;-
1531162834823;-;-;-0.09580079;0.5556446;9.72378;-0.036211956;0.006788985;-0.019740028;12.450001;59.100002;-41.550003;346.11877;-4.005978;-0.96467364;-;-;-;-;-;-
1531162834834;-;-;-0.28261232;0.45984375;9.877061;-0.040473014;-0.010787878;-0.009620016;12.450001;59.850002;-43.050003;346.14377;-4.028521;-0.9734862;-;-;-;-;-;-
1531162834844;-;-;-0.25866213;0.4981641;10.221944;-0.018102458;-0.041147914;-0.0037610615;12.450001;59.850002;-43.050003;346.14377;-4.028521;-0.9734862;-;-;-;-;-;-
1531162834854;-;-;-0.19160157;0.4406836;10.341695;0.033562865;-0.07097532;0.010087376;13.650001;58.350002;-41.7;346.16516;-3.9923065;-0.9748719;-;-;-;-;-;-
1531162834865;-;-;-0.244292;0.45984375;10.3512745;0.069781855;-0.09387851;0.015413698;13.650001;58.350002;-41.7;346.16516;-3.9923065;-0.9748719;-;-;-;-;-;-
1531162834875;-;-;-0.25866213;0.5364844;10.303374;0.11132717;-0.08322586;0.028196871;13.200001;58.800003;-41.850002;346.1682;-3.9932272;-0.91373485;-;-;-;-;-;-
1531162834886;-;-;-0.28261232;0.52690434;10.059082;0.116653495;-0.06831216;0.04417584;14.55;58.050003;-42.300003;346.15002;-4.0909915;-0.8089866;-;-;-;-;-;-
1531162834896;-;-;-0.14849122;0.6227051;10.0063925;0.114522964;-0.052865822;0.06494849;14.55;58.050003;-42.300003;346.15002;-4.0909915;-0.8089866;-;-;-;-;-;-
1531162834906;-;-;-0.12454102;0.6945557;9.872271;0.09641347;-0.012385775;0.05802428;15.150001;58.350002;-42.45;346.09445;-4.226925;-0.7347255;-;-;-;-;-;-
1531162834916;-;-;0.043110352;0.7185059;9.78605;0.061259743;0.027561642;0.0766664;15.150001;58.350002;-42.45;346.09445;-4.226925;-0.7347255;-;-;-;-;-;-
1531162834927;-;-;0.081430666;0.74724615;9.848321;0.056998685;0.04087745;0.06920955;13.500001;58.800003;-42.75;346.0162;-4.3276734;-0.7280694;-;-;-;-;-;-
1531162834937;-;-;0.25866213;0.85741705;9.733359;0.052204993;0.050997462;0.063350596;13.500001;58.800003;-42.75;346.0162;-4.3276734;-0.7280694;-;-;-;-;-;-
1531162834947;-;-;0.23950197;0.8861573;9.862691;0.066053435;0.04886693;0.035121094;13.950001;58.800003;-42.75;345.93686;-4.391801;-0.7686591;-;-;-;-;-;-
1531162834959;-;-;0.14849122;0.93405765;9.73815;0.08948925;0.041942712;0.023935813;13.950001;58.800003;-42.75;345.93686;-4.391801;-0.7686591;-;-;-;-;-;-
1531162834969;-;-;0.09101075;0.91010743;9.455538;0.093219906;0.031285074;0.021258514;13.650001;57.9;-43.350002;345.8915;-4.472439;-0.8200087;-;-;-;-;-;-
1531162834979;-;-;0.100590825;1.0154883;9.441168;0.0767083;-0.015053931;0.008475339;13.650001;57.9;-43.350002;345.8915;-4.472439;-0.8200087;-;-;-;-;-;-
1531162834989;-;-;0.13891114;0.9196875;9.369317;0.06605566;-0.01931499;0.0042142817;12.6;58.65;-42.9;345.8714;-4.578826;-0.84727997;-;-;-;-;-;-
1531162835000;-;-;0.19160157;1.0442286;9.388477;0.0468809;-0.031032898;-0.012297317;12.6;58.65;-42.9;345.8714;-4.578826;-0.84727997;-;-;-;-;-;-
1531162835010;-;-;0.21076173;1.0873389;9.417217;0.033032462;-0.031032898;-0.026145754;13.200001;58.050003;-41.100002;345.8706;-4.656568;-0.8237641;-;-;-;-;-;-
1531162835020;-;-;0.11496094;1.1783496;9.570498;0.006933482;-0.030500265;-0.042124722;13.200001;58.050003;-41.100002;345.8706;-4.656568;-0.8237641;-;-;-;-;-;-
1531162835031;-;-;0.100590825;1.1256592;9.508228;-0.010110749;-0.039022382;-0.03147208;13.950001;58.050003;-43.95;345.89838;-4.6983113;-0.79073423;-;-;-;-;-;-
1531162835040;-;-;0.033530276;1.1879297;9.618399;-0.021828659;-0.06032767;-0.026145754;13.950001;58.050003;-43.95;345.89838;-4.6983113;-0.79073423;-;-;-;-;-;-
1531162835051;-;-;0.1101709;1.2981006;9.987232;-0.017567601;-0.10879721;-0.024547858;14.55;59.550003;-43.050003;345.94568;-4.6922684;-0.7497714;-;-;-;-;-;-
1531162835061;-;-;0.12933107;1.2741505;10.2315235;-0.0026538982;-0.15407094;-0.019754168;14.55;59.550003;-43.050003;345.94568;-4.6922684;-0.7497714;-;-;-;-;-;-
1531162835071;-;-;0.21076173;1.22625;10.250684;0.022379817;-0.16791938;-0.010699421;13.200001;57.45;-42.300003;345.98083;-4.670912;-0.6413903;-;-;-;-;-;-
1531162835081;-;-;0.23471193;1.2406201;10.336905;0.028238771;-0.17590886;-0.0032425695;13.200001;57.45;-42.300003;345.98083;-4.670912;-0.6413903;-;-;-;-;-;-
1531162835092;-;-;0.21076173;1.3555812;10.370435;0.045283005;-0.17963728;0.004746914;14.1;58.95;-42.45;346.0123;-4.684091;-0.4560684;-;-;-;-;-;-
1531162835102;-;-;0.14849122;1.2789404;10.509346;0.07191461;-0.18336572;0.020193249;14.1;58.95;-42.45;346.0123;-4.684091;-0.4560684;-;-;-;-;-;-
1531162835112;-;-;0.023950197;1.2981006;10.356065;0.12144941;-0.23076998;0.056944873;12.150001;58.050003;-42.300003;346.03305;-4.7299695;-0.25436446;-;-;-;-;-;-
1531162835122;-;-;0.09580079;1.456172;10.140513;0.17950633;-0.31758904;0.09156597;12.150001;58.050003;-42.300003;346.03305;-4.7299695;-0.25436446;-;-;-;-;-;-
1531162835133;-;-;0.22513184;1.590293;10.097403;0.21998638;-0.35860172;0.09582702;12.6;58.95;-43.65;346.00937;-4.842439;-0.011919747;-;-;-;-;-;-
1531162835143;-;-;0.40715334;1.5711329;9.77647;0.24235693;-0.35540593;0.08996807;12.6;58.95;-43.65;346.00937;-4.842439;-0.011919747;-;-;-;-;-;-
1531162835154;-;-;0.60833496;1.5807129;9.455538;0.2237148;-0.29415324;0.055346977;12.450001;58.800003;-44.25;345.9384;-5.073962;0.3782645;-;-;-;-;-;-
1531162835164;-;-;0.63707525;1.5376027;9.254355;0.17311473;-0.24621631;0.025519572;12.450001;58.800003;-44.25;345.9384;-5.073962;0.3782645;-;-;-;-;-;-
1531162835174;-;-;0.62749517;1.5711329;9.144185;0.08043673;-0.13596144;-0.008568892;13.200001;57.750004;-43.050003;345.88644;-5.352297;0.7697875;-;-;-;-;-;-
1531162835185;-;-;0.6562354;1.4705421;9.244776;0.023977714;-0.08589402;-0.027743652;12.0;57.9;-44.100002;345.89185;-5.5098276;0.99986875;-;-;-;-;-;-
1531162835195;-;-;0.60354495;1.3843213;9.64714;-0.025024451;-0.040087644;-0.052244734;12.0;57.9;-44.100002;345.89185;-5.5098276;0.99986875;-;-;-;-;-;-
1531162835205;-;-;0.49337405;1.346001;9.920172;-0.02715498;-0.030500265;-0.058103688;12.900001;57.45;-43.5;345.93875;-5.5135674;1.0719947;-;-;-;-;-;-
1531162835218;-;-;0.27303225;1.1927198;10.083033;0.03729352;-0.0022707572;-0.05597316;12.900001;57.45;-43.5;345.93875;-5.5135674;1.0719947;-;-;-;-;-;-
1531162835228;-;-;0.31135255;1.2693604;9.996812;0.07937147;0.012642945;-0.042657353;12.450001;57.45;-42.300003;346.00543;-5.507332;1.0839055;-;-;-;-;-;-
1531162835239;-;-;0.26345217;1.2549903;9.690249;0.11559045;0.023295589;-0.041059457;12.450001;57.45;-42.300003;346.00543;-5.507332;1.0839055;-;-;-;-;-;-
1531162835249;-;-;0.2203418;1.1975098;9.551338;0.10813361;0.052057732;-0.02987418;11.85;58.050003;-43.5;346.0577;-5.598047;1.0646703;-;-;-;-;-;-
1531162835259;-;-;0.244292;1.3172607;9.493857;0.09375253;0.09573357;-0.030406812;11.85;58.050003;-43.5;346.0577;-5.598047;1.0646703;-;-;-;-;-;-
1531162835269;-;-;0.119750984;1.3747413;9.388477;0.07883883;0.15165997;-0.024015225;12.6;57.9;-43.350002;346.08594;-5.724968;1.0047054;-;-;-;-;-;-
1531162835280;-;-;-0.05748047;1.2741505;9.479487;0.10174202;0.19586843;-0.012297317;12.6;57.9;-43.350002;346.08594;-5.724968;1.0047054;-;-;-;-;-;-
1531162835290;-;-;-0.34967285;1.4274317;9.244776;0.12304731;0.22782637;0.018595353;13.35;57.300003;-44.100002;346.09647;-5.825944;0.84267026;-;-;-;-;-;-
1531162835300;-;-;-0.5508545;1.5519727;8.823253;0.16086419;0.25445795;0.055346977;13.35;57.300003;-44.100002;346.09647;-5.825944;0.84267026;-;-;-;-;-;-
1531162835310;-;-;-0.6466553;1.7818946;8.267608;0.14222206;0.22036952;0.098490186;13.05;58.65;-43.65;346.04892;-5.967037;0.5910375;-;-;-;-;-;-
1531162835321;-;-;-0.5029541;1.9016455;8.037686;0.06765356;0.1324852;0.10008808;13.05;58.65;-43.65;346.04892;-5.967037;0.5910375;-;-;-;-;-;-
1531162835330;-;-;-0.34009278;1.9447559;7.8748245;-0.02023076;0.04779667;0.09316386;12.450001;57.15;-43.95;345.9294;-6.1341853;0.33959216;-;-;-;-;-;-
1531162835341;-;-;-0.4406836;2.1267774;8.358619;-0.17309621;-0.104536146;0.031378526;12.450001;57.15;-43.95;345.9294;-6.1341853;0.33959216;-;-;-;-;-;-
1531162835350;-;-;-0.57959473;2.0070264;8.938213;-0.24020787;-0.17271307;-0.0027099373;13.200001;56.4;-43.95;345.82516;-6.131517;0.27790904;-;-;-;-;-;-
1531162835360;-;-;-0.6658155;2.0166066;9.608819;-0.29986268;-0.23343314;-0.050114203;13.200001;56.4;-43.95;345.82516;-6.131517;0.27790904;-;-;-;-;-;-
1531162835371;-;-;-0.8765772;1.8585353;10.102193;-0.33554903;-0.25314054;-0.06928897;12.450001;58.050003;-43.95;345.84177;-5.9327674;0.41700095;-;-;-;-;-;-
1531162835381;-;-;-1.1687696;1.8585353;10.523716;-0.35525644;-0.24728158;-0.034135237;12.450001;58.050003;-43.95;345.84177;-5.9327674;0.41700095;-;-;-;-;-;-
1531162835392;-;-;-1.4418018;1.8633252;10.9644;-0.35951748;-0.1998773;0.025519572;12.450001;57.15;-44.25;345.93295;-5.7289476;0.56994426;-;-;-;-;-;-
1531162835401;-;-;-1.4753321;1.8250049;11.280542;-0.33235323;-0.15939726;0.12938285;12.450001;57.15;-44.25;345.93295;-5.7289476;0.56994426;-;-;-;-;-;-
1531162835411;-;-;-1.2837305;1.8106349;11.635005;-0.28068793;-0.1269067;0.22099559;13.200001;57.45;-42.300003;345.95044;-5.3213224;0.81059194;-;-;-;-;-;-
1531162835422;-;-;-0.8669971;1.8968556;11.826607;-0.21996784;-0.13010249;0.28810725;13.200001;57.45;-42.300003;345.95044;-5.3213224;0.81059194;-;-;-;-;-;-
1531162835432;-;-;-0.29698244;1.8441651;11.778707;-0.16936779;-0.14554882;0.3184673;10.950001;57.9;-43.350002;345.75305;-4.971075;0.9898006;-;-;-;-;-;-
1531162835443;-;-;0.12933107;1.7866846;11.716436;-0.1315509;-0.19348572;0.33231574;10.950001;57.9;-43.350002;345.75305;-4.971075;0.9898006;-;-;-;-;-;-
1531162835453;-;-;0.22513184;1.839375;11.769127;-0.08148347;-0.17910466;0.3051515;12.6;57.9;-45.0;345.40613;-4.751975;1.1847757;-;-;-;-;-;-
1531162835463;-;-;0.1820215;1.9255958;11.788286;-0.026620844;-0.13276903;0.30993563;12.6;57.9;-45.0;345.40613;-4.751975;1.1847757;-;-;-;-;-;-
1531162835474;-;-;0.17244141;1.9208057;11.472144;0.10334142;-0.037960492;0.33923042;12.150001;59.100002;-44.25;345.0555;-4.6186213;1.4266891;-;-;-;-;-;-
1531162835484;-;-;0.1580713;1.954336;11.064991;0.19016047;0.040336445;0.35733992;11.1;58.800003;-43.050003;344.69186;-4.655727;1.5482683;-;-;-;-;-;-
1531162835494;-;-;0.23950197;2.064507;9.987232;0.2998827;0.16976607;0.40580943;11.1;58.800003;-43.050003;344.69186;-4.655727;1.5482683;-;-;-;-;-;-
1531162835504;-;-;0.30177248;2.198628;9.268726;0.30361113;0.20598507;0.41113576;12.6;57.300003;-43.350002;344.24637;-4.968023;1.4676099;-;-;-;-;-;-
1531162835515;-;-;0.6514453;2.42376;8.344249;0.23117316;0.2597809;0.38556942;12.6;57.300003;-43.350002;344.24637;-4.968023;1.4676099;-;-;-;-;-;-
1531162835525;-;-;0.8095166;2.4525;8.085587;0.1741815;0.2512588;0.35307884;14.250001;57.45;-43.5;343.76898;-5.5604553;1.2573158;-;-;-;-;-;-
1531162835536;-;-;0.82388675;2.567461;8.052056;0.051143464;0.1836145;0.26732507;14.250001;57.45;-43.5;343.76898;-5.5604553;1.2573158;-;-;-;-;-;-
1531162835546;-;-;0.8286768;2.4956105;8.1143265;-0.0106418785;0.13407971;0.21885552;12.150001;58.050003;-44.25;343.37802;-5.704566;1.0372663;-;-;-;-;-;-
1531162835556;-;-;0.6945557;2.4956105;8.602911;-0.067633525;0.037673283;0.14162384;12.150001;58.050003;-44.25;343.37802;-5.704566;1.0372663;-;-;-;-;-;-
1531162835567;-;-;0.6322852;2.327959;8.804092;-0.06443773;-0.002274132;0.11605749;12.900001;57.750004;-44.25;343.1469;-5.67195;0.94066757;-;-;-;-;-;-
1531162835577;-;-;0.52690434;2.2177882;9.187295;-0.0106418785;-0.057667885;0.059065845;12.900001;57.750004;-44.25;343.1469;-5.67195;0.94066757;-;-;-;-;-;-
1531162835588;-;-;0.45984375;2.208208;9.2256155;-5.2186544E-4;-0.07364685;0.03136897;12.900001;58.500004;-44.7;343.04227;-5.790647;1.0236135;-;-;-;-;-;-
1531162835598;-;-;0.05269043;2.1603076;9.211246;0.009065514;-0.058200516;0.020716326;12.900001;58.500004;-44.7;343.04227;-5.790647;1.0236135;-;-;-;-;-;-
1531162835608;-;-;-0.07664063;2.1315675;9.340576;-0.013837671;-0.053939458;0.01965106;12.900001;58.500004;-44.25;343.0202;-5.995035;1.1391639;-;-;-;-;-;-
1531162835619;-;-;-0.038320314;2.184258;9.369317;-0.041001912;-0.039025757;0.030836336;12.900001;58.500004;-44.25;343.0202;-5.995035;1.1391639;-;-;-;-;-;-
1531162835629;-;-;-0.028740235;2.2225783;9.541759;-0.08307986;-0.012926777;0.039891087;12.150001;56.4;-43.95;343.00943;-6.1239038;1.1758995;-;-;-;-;-;-
1531162835639;-;-;0.09580079;2.2656887;10.0063925;-0.10704831;0.011041673;0.039358452;12.150001;56.4;-43.95;343.00943;-6.1239038;1.1758995;-;-;-;-;-;-
1531162835650;-;-;0.1101709;2.3854396;10.442286;-0.07295985;0.045130137;0.043619514;12.900001;56.7;-43.95;342.97635;-6.308034;1.1444304;-;-;-;-;-;-
1531162835660;-;-;0.25387207;2.2944288;10.557246;-0.013305039;0.062707;0.033499498;12.900001;56.7;-43.95;342.97635;-6.308034;1.1444304;-;-;-;-;-;-
1531162835670;-;-;0.35925296;2.3998096;10.504556;0.04368661;0.087208085;0.028173177;13.650001;57.300003;-44.100002;342.92822;-6.218407;1.1083496;-;-;-;-;-;-
1531162835681;-;-;0.4406836;2.562671;10.356065;0.075644545;0.12928602;0.016455268;13.650001;57.300003;-44.100002;342.92822;-6.218407;1.1083496;-;-;-;-;-;-
1531162835690;-;-;0.40715334;2.6297317;10.207574;0.09268878;0.13621025;-0.01869846;13.200001;56.4;-43.95;342.88312;-6.241493;1.0224689;-;-;-;-;-;-
1531162835700;-;-;0.44547364;2.668052;10.130933;0.09481931;0.13674287;-0.060776405;13.200001;56.4;-43.95;342.88312;-6.241493;1.0224689;-;-;-;-;-;-
1531162835711;-;-;0.4023633;2.6009912;10.126143;0.08789509;0.13407971;-0.111376464;12.900001;56.7;-43.050003;342.87598;-6.361095;0.869937;-;-;-;-;-;-
1531162835721;-;-;0.28740236;2.6009912;10.083033;0.097482465;0.12289444;-0.16197653;12.900001;56.7;-43.050003;342.87598;-6.361095;0.869937;-;-;-;-;-;-
1531162835732;-;-;0.22992188;2.5051906;10.226734;0.09375404;0.08667545;-0.19233656;13.35;57.600002;-44.100002;342.96893;-6.508447;0.71351415;-;-;-;-;-;-
1531162835742;-;-;0.1341211;2.43813;10.241104;0.066589795;0.054717515;-0.23388188;13.35;57.600002;-44.100002;342.96893;-6.508447;0.71351415;-;-;-;-;-;-
1531162835752;-;-;-0.07185059;2.4045997;10.250684;0.0053370893;0.0461954;-0.24613242;13.05;57.600002;-45.300003;343.16934;-6.637645;0.58103704;-;-;-;-;-;-
1531162835762;-;-;-0.15328126;2.3327491;10.514136;-0.02821874;0.04353224;-0.25039348;13.05;57.600002;-45.300003;343.16934;-6.637645;0.58103704;-;-;-;-;-;-
1531162835773;-;-;-0.32572266;2.3854396;11.644586;-0.028751373;0.02702064;-0.22855556;13.35;57.600002;-44.550003;343.44098;-6.6854663;0.49779323;-;-;-;-;-;-
1531162835783;-;-;-0.244292;2.3806496;12.410992;0.049012933;0.033412226;-0.21044606;13.05;57.300003;-45.0;343.51093;-6.678988;0.4770795;-;-;-;-;-;-
1531162835793;-;-;-0.3544629;2.2848487;12.674444;0.29881743;0.09306704;-0.15878074;13.05;57.300003;-45.0;343.7091;-6.653053;0.42784983;-;-;-;-;-;-
1531162835804;-;-;-0.3879932;2.2896388;12.310401;0.4255839;0.096262835;-0.1252249;12.900001;58.500004;-44.7;343.91068;-6.8749795;0.32030177;-;-;-;-;-;-
1531162835814;-;-;-0.17723145;2.1603076;10.94524;0.5187946;0.049391195;-0.030949;12.900001;58.500004;-44.7;343.91068;-6.8749795;0.32030177;-;-;-;-;-;-
1531162835825;-;-;0.119750984;2.1363575;10.241104;0.48257557;0.044064872;0.020716326;13.500001;55.65;-45.15;343.98935;-7.431617;0.22297196;-;-;-;-;-;-
1531162835834;-;-;0.7041358;1.9974464;9.513018;0.31266588;-0.004937293;0.05746795;13.500001;55.65;-45.15;343.98935;-7.431617;0.22297196;-;-;-;-;-;-
1531162835845;-;-;1.0825489;1.8920655;9.292676;0.1656594;-0.04275418;0.03882582;13.500001;56.100002;-44.7;343.94446;-7.9215794;0.21075107;-;-;-;-;-;-
1531162835855;-;-;1.8872755;1.8010547;9.407638;-0.093732506;-0.0811037;-0.061309036;13.500001;56.100002;-44.7;343.94446;-7.9215794;0.21075107;-;-;-;-;-;-
1531162835865;-;-;2.193838;1.5280225;9.74773;-0.25245693;-0.075777374;-0.16890074;14.250001;55.65;-43.5;343.94443;-8.271852;1.131509;-;-;-;-;-;-
1531162835875;-;-;2.5147705;1.0394385;10.298584;-0.48095614;-0.07204895;-0.38887784;14.250001;55.65;-43.5;343.94443;-8.271852;1.131509;-;-;-;-;-;-
1531162835886;-;-;2.2129982;0.82388675;10.811119;-0.59121096;0.00784588;-0.562516;13.05;56.850002;-44.100002;344.2418;-7.913229;1.4758445;-;-;-;-;-;-
1531162835896;-;-;1.2789404;0.45984375;11.218272;-0.6716384;0.11383969;-0.6951414;13.05;56.850002;-44.100002;344.2418;-7.913229;1.4758445;-;-;-;-;-;-
1531162835907;-;-;0.60354495;0.3065625;11.385923;-0.6689753;0.19639769;-0.7223056;14.1;56.550003;-44.550003;344.898;-7.234068;1.3611087;-;-;-;-;-;-
1531162835917;-;-;-0.49337405;0.14849122;11.673326;-0.54433936;0.32316417;-0.64880234;14.1;56.550003;-44.550003;344.898;-7.234068;1.3611087;-;-;-;-;-;-
1531162835926;-;-;-1.101709;0.023950197;11.749967;-0.43142134;0.3631116;-0.5417433;12.450001;58.800003;-44.7;345.6719;-6.5116706;1.012552;-;-;-;-;-;-
1531162835936;-;-;-1.5232325;0.1101709;11.299703;-0.16084416;0.39613476;-0.2924714;12.450001;58.800003;-44.7;345.6719;-6.5116706;1.012552;-;-;-;-;-;-
1531162835947;-;-;-1.2885206;0.19160157;10.854229;-0.0031850266;0.37429684;-0.1465302;12.3;58.95;-44.550003;346.1822;-6.0925565;0.5304669;-;-;-;-;-;-
1531162835958;-;-;-0.7568262;0.46463382;9.987232;0.18909521;0.2592483;0.058000583;12.3;58.95;-44.550003;346.1822;-6.0925565;0.5304669;-;-;-;-;-;-
1531162835968;-;-;-0.28740236;0.8382569;9.3309965;0.26047075;0.19053239;0.11018058;14.400001;58.65;-44.100002;346.26117;-6.121627;0.11686749;-;-;-;-;-;-
1531162835978;-;-;0.32093263;1.0729688;8.828042;0.31639713;0.06642908;0.15279116;14.400001;58.65;-44.100002;346.26117;-6.121627;0.11686749;-;-;-;-;-;-
1531162835989;-;-;0.8143067;1.3747413;8.54064;0.31373397;-0.047554217;0.10698479;14.85;57.45;-45.15;346.1067;-6.4322357;-0.06636069;-;-;-;-;-;-
1531162835998;-;-;1.1831397;1.7292042;8.358619;0.28177604;-0.1396996;0.007915191;14.85;57.45;-45.15;346.1067;-6.4322357;-0.06636069;-;-;-;-;-;-
1531162836008;-;-;1.1975098;1.8729054;8.291558;0.2594055;-0.1743207;-0.0943502;13.35;56.850002;-44.550003;346.00293;-6.786705;-0.001094431;-;-;-;-;-;-
1531162836018;-;-;1.2166699;1.9734962;8.214917;0.18323909;-0.2238555;-0.27065146;13.35;56.850002;-44.550003;346.00293;-6.786705;-0.001094431;-;-;-;-;-;-
1531162836029;-;-;1.1687696;2.0070264;8.258028;0.11080109;-0.22918181;-0.36439472;14.55;57.45;-44.25;346.17447;-7.065643;0.19701356;-;-;-;-;-;-
1531162836039;-;-;1.21188;1.8968556;8.095166;0.02771047;-0.21373548;-0.4597359;14.55;57.45;-44.25;346.17447;-7.065643;0.19701356;-;-;-;-;-;-
1531162836049;-;-;1.2310401;1.7244141;8.267608;-0.053782262;-0.20041968;-0.530576;14.250001;57.750004;-45.15;346.59494;-7.2117767;0.40616465;-;-;-;-;-;-
1531162836060;-;-;0.8909473;1.465752;8.48316;-0.19599506;-0.18231018;-0.63816774;14.250001;57.750004;-45.15;346.59494;-7.2117767;0.40616465;-;-;-;-;-;-
1531162836070;-;-;0.6993457;1.2406201;8.952583;-0.2860099;-0.17165753;-0.68983305;13.500001;57.15;-45.15;347.23016;-7.1449676;0.55398303;-;-;-;-;-;-
1531162836080;-;-;0.45026368;0.9627979;9.513018;-0.31690258;-0.18231018;-0.7106057;13.500001;57.15;-45.15;347.23016;-7.1449676;0.55398303;-;-;-;-;-;-
1531162836091;-;-;0.16286133;0.8047266;10.174044;-0.28494465;-0.1743207;-0.69942045;12.6;58.65;-44.550003;348.0225;-6.8541927;0.65944797;-;-;-;-;-;-
1531162836102;-;-;-0.16765137;0.85741705;10.327325;-0.21783298;-0.12851432;-0.67491937;12.900001;58.050003;-45.15;348.64273;-6.597394;0.74516404;-;-;-;-;-;-
1531162836111;-;-;-0.41194338;0.8669971;10.480606;-0.06550017;-0.05075001;-0.62059087;12.900001;58.050003;-45.15;348.84616;-6.5243683;0.7681014;-;-;-;-;-;-
1531162836121;-;-;-0.5843848;0.97237796;10.312955;0.049015757;-0.009204695;-0.55933815;12.900001;58.050003;-45.15;348.84616;-6.5243683;0.7681014;-;-;-;-;-;-
1531162836132;-;-;-0.5987549;0.9532178;9.77168;0.24822022;0.055243805;-0.47731277;12.150001;58.500004;-45.15;349.5821;-6.397563;0.7757774;-;-;-;-;-;-
1531162836142;-;-;-0.5029541;0.96758795;9.254355;0.33024555;0.07867962;-0.4267127;10.8;57.45;-45.15;350.0222;-6.5215144;0.7058433;-;-;-;-;-;-
1531162836152;-;-;-0.31135255;1.0538087;8.262817;0.36966035;0.06376592;-0.4000811;10.8;57.45;-45.15;350.15002;-6.603293;0.67338204;-;-;-;-;-;-
1531162836162;-;-;-0.33530274;1.0538087;7.9849954;0.33184347;0.04938485;-0.3936895;12.450001;58.800003;-44.7;350.4962;-6.912433;0.57070535;-;-;-;-;-;-
1531162836173;-;-;-0.18681154;1.3124708;7.6305327;0.21200122;0.051515378;-0.37238422;12.450001;58.800003;-44.7;350.60635;-7.0167284;0.5403788;-;-;-;-;-;-
1531162836183;-;-;-0.11496094;1.346001;7.549102;0.13263902;0.057906967;-0.37238422;11.25;58.350002;-44.100002;350.9272;-7.2594123;0.45741406;-;-;-;-;-;-
1531162836193;-;-;-0.15328126;1.4226416;7.798184;0.02291678;0.042993262;-0.38250422;11.25;58.350002;-44.100002;351.03024;-7.3103757;0.42936796;-;-;-;-;-;-
1531162836204;-;-;-0.22513184;1.2645704;8.052056;-0.008508522;0.02807956;-0.3920916;12.6;58.65;-45.0;351.34122;-7.3839498;0.34647143;-;-;-;-;-;-
1531162836214;-;-;-0.40715334;1.2741505;8.253238;0.0058725486;0.030210089;-0.38783056;12.6;58.65;-45.0;351.4491;-7.3904777;0.32051256;-;-;-;-;-;-
1531162836228;-;-;-0.53169435;1.3220508;8.837623;0.041026272;-0.031042617;-0.35960105;11.85;57.15;-46.350002;351.88553;-7.3944836;0.22847734;-;-;-;-;-;-
1531162836235;-;-;-0.613125;1.3268409;8.923843;0.11080109;-0.10561113;-0.33509997;11.85;57.15;-46.350002;351.88553;-7.3944836;0.22847734;-;-;-;-;-;-
1531162836244;-;-;-0.5556446;1.2789404;8.966953;0.15447694;-0.14129749;-0.3244473;11.400001;58.500004;-45.600002;352.1957;-7.437108;0.22438192;-;-;-;-;-;-
1531162836254;-;-;-0.60354495;1.3891114;8.914263;0.20720753;-0.21639864;-0.27704304;11.400001;58.500004;-45.600002;352.29535;-7.4701853;0.24352312;-;-;-;-;-;-
