TimeStamp[ms];Prox[Cm];Lux[lux];AccX[m/s^2];AccY[m/s^2];AccZ[m/s^2];GyroX[rad/s];GyroY[rad/s];GyroZ[rad/s];MagnX[uT];MagnY[uT];MagnZ[uT];OrienYaw[degrees];OrienPitch[degrees];OrienRoll[degrees];Press[Pa];Temp[C°];Batt[%];Lat;Lng;Speed[m/s]
1531162909325;-;-;-0.16286133;0.6179151;9.565708;-0.10806252;0.07008114;-0.035593208;-6.15;25.95;-39.300003;12.449116;-3.347515;-1.8806909;-;-;-;-;-;-
1531162909343;-;-;-0.48379397;0.50774413;10.207574;-0.10220357;0.1489107;-0.013222653;-6.15;25.95;-39.300003;12.449116;-3.347515;-1.8806909;-;-;-;-;-;-
1531162909342;-;-;-0.48379397;0.50774413;10.207574;-0.10220357;0.1489107;-0.013222653;-6.15;25.95;-39.300003;12.449116;-3.347515;-1.8806909;-;-;-;-;-;-
1531162909351;-;-;-0.43110353;0.5556446;10.183623;-0.07344143;0.13293174;0.009680533;-5.1000004;25.650002;-39.600002;12.466475;-3.2454362;-1.9128621;-;-;-;-;-;-
1531162909362;-;-;-0.3161426;0.5748047;10.030342;-0.06119089;0.103636965;0.01820265;-5.1000004;25.650002;-39.600002;12.466475;-3.2454362;-1.9128621;-;-;-;-;-;-
1531162909372;-;-;-0.18681154;0.57001466;10.044712;-0.06225615;0.09351695;0.0064847386;-6.3;25.800001;-39.9;12.483808;-3.1199486;-2.0612912;-;-;-;-;-;-
1531162909382;-;-;-0.2921924;0.5508545;9.953702;-0.07930038;0.07008114;-0.01961424;-6.3;25.800001;-39.9;12.483808;-3.1199486;-2.0612912;-;-;-;-;-;-
1531162909392;-;-;-0.40715334;0.45026368;9.992022;-0.08835513;0.036525305;-0.04091953;-6.3;26.250002;-39.45;12.457053;-3.0456085;-2.1993055;-;-;-;-;-;-
1531162909402;-;-;-0.5364844;0.5556446;10.054293;-0.10912779;-0.0018242147;-0.040386897;-6.3;26.250002;-39.45;12.457053;-3.0456085;-2.1993055;-;-;-;-;-;-
1531162909412;-;-;-0.5939649;0.6993457;10.087823;-0.12990044;0.01841581;-0.024407929;-4.8;25.650002;-38.850002;12.459254;-2.9658794;-2.2934065;-;-;-;-;-;-
1531162909423;-;-;-0.62749517;0.7759864;10.221944;-0.117649905;0.02587266;-0.005765802;-4.8;25.650002;-38.850002;12.459254;-2.9658794;-2.2934065;-;-;-;-;-;-
1531162909433;-;-;-0.6322852;0.6466553;10.370435;-0.08835513;-0.007683169;0.041105833;-6.0;25.2;-39.0;12.499141;-2.8562174;-2.312152;-;-;-;-;-;-
1531162909443;-;-;-0.5987549;0.5460645;10.360855;-0.046809815;-0.020466343;0.061345857;-5.55;25.2;-40.2;12.521142;-2.7114081;-2.335929;-;-;-;-;-;-
1531162909454;-;-;-0.48379397;0.5125342;10.279425;-0.010058194;-0.051891647;0.058150064;-5.55;25.2;-40.2;12.521142;-2.7114081;-2.335929;-;-;-;-;-;-
1531162909464;-;-;-0.37362307;0.5508545;10.188414;0.018703947;-0.049228486;0.050693214;-4.9500003;25.500002;-37.800003;12.472308;-2.6273117;-2.3172348;-;-;-;-;-;-
1531162909474;-;-;-0.38320315;0.6322852;10.164463;0.03361765;-0.041239;0.030453188;-4.9500003;25.500002;-37.800003;12.472308;-2.6273117;-2.3172348;-;-;-;-;-;-
1531162909484;-;-;-0.5556446;0.6945557;10.202784;0.04799872;-0.03804321;0.036312144;-5.55;25.800001;-39.0;12.472308;-2.6273117;-2.3172348;-;-;-;-;-;-
1531162909494;-;-;-0.46463382;0.4981641;10.174044;0.080489285;-0.044967428;0.050693214;-5.55;25.800001;-39.0;12.416495;-2.633525;-2.259173;-;-;-;-;-;-
1531162909505;-;-;-0.45984375;0.613125;10.202784;0.11511038;-0.040173735;0.067737445;-5.25;24.750002;-38.7;12.377312;-2.6808116;-2.2112985;-;-;-;-;-;-
1531162909514;-;-;-0.3544629;0.5604346;10.207574;0.13588303;-0.021531606;0.07839009;-5.25;24.750002;-38.7;12.377312;-2.6808116;-2.2112985;-;-;-;-;-;-
1531162909525;-;-;-0.29698244;0.5412744;10.375225;0.15132937;-0.01993371;0.08478168;-5.25;27.6;-39.0;12.311112;-2.7865934;-2.1617978;-;-;-;-;-;-
1531162909534;-;-;-0.12454102;0.5460645;10.619517;0.22429998;-2.2631802E-4;0.067737445;-5.25;27.6;-39.0;12.311112;-2.7865934;-2.1617978;-;-;-;-;-;-
1531162909545;-;-;-0.21076173;0.5221143;10.744058;0.28022635;0.010426327;0.053889006;-6.6000004;25.2;-39.45;12.218332;-2.9507704;-2.12651;-;-;-;-;-;-
1531162909554;-;-;-0.15328126;0.49337405;10.581197;0.3851549;-0.0012915825;0.037377406;-6.6000004;25.2;-39.45;12.218332;-2.9507704;-2.12651;-;-;-;-;-;-
1531162909564;-;-;-0.07185059;0.4167334;10.346485;0.40592757;-0.01247686;0.01873528;-7.05;26.550001;-39.45;12.141147;-3.2168202;-2.1233242;-;-;-;-;-;-
1531162909575;-;-;0.07664063;0.38320315;9.992022;0.41178653;-0.044434793;-0.057963762;-7.05;26.550001;-39.45;12.141147;-3.2168202;-2.1233242;-;-;-;-;-;-
1531162909585;-;-;0.11496094;0.42152345;9.72857;0.36651278;-0.060946394;-0.13253228;-6.4500003;25.35;-38.850002;12.101546;-3.6470938;-2.1147633;-;-;-;-;-;-
1531162909595;-;-;0.11496094;0.51732427;9.335787;0.2562579;-0.09450222;-0.22307976;-6.4500003;25.35;-38.850002;12.101546;-3.6470938;-2.1147633;-;-;-;-;-;-
1531162909605;-;-;0.019160157;0.6610254;9.302257;0.15931885;-0.12379699;-0.25343978;-6.6000004;26.550001;-39.0;12.187348;-4.100279;-2.069987;-;-;-;-;-;-
1531162909615;-;-;-0.33530274;0.79993653;9.364527;0.028291326;-0.16640759;-0.2518419;-6.6000004;26.550001;-39.0;12.187348;-4.100279;-2.069987;-;-;-;-;-;-
1531162909626;-;-;-0.37362307;0.9053174;9.369317;-0.044679288;-0.21274658;-0.22467765;-7.3500004;25.2;-38.25;12.444405;-4.369649;-1.9703327;-;-;-;-;-;-
1531162909636;-;-;-0.5029541;0.9244776;9.484278;-0.1512054;-0.26654315;-0.15650299;-7.3500004;25.2;-38.25;12.444405;-4.369649;-1.9703327;-;-;-;-;-;-
1531162909646;-;-;-0.4263135;0.9580079;9.565708;-0.22257812;-0.2857179;-0.11389242;-6.0;24.45;-37.800003;12.743197;-4.388165;-1.7935051;-;-;-;-;-;-
1531162909656;-;-;-0.37362307;0.89573735;9.580078;-0.2646561;-0.26015157;-0.062227096;-6.0;24.45;-37.800003;12.743197;-4.388165;-1.7935051;-;-;-;-;-;-
1531162909666;-;-;-0.2921924;0.78556645;9.637559;-0.26252556;-0.20955148;-0.043052334;-6.6000004;26.250002;-38.7;12.943206;-4.205589;-1.5070233;-;-;-;-;-;-
1531162909676;-;-;-0.1820215;0.78556645;9.872271;-0.23323077;-0.11900401;-0.017485986;-6.6000004;26.250002;-38.7;12.943206;-4.205589;-1.5070233;-;-;-;-;-;-
1531162909687;-;-;-0.18681154;0.74724615;10.001602;-0.17890228;-0.022597576;0.014471945;-6.3;26.250002;-39.0;13.0452795;-3.9138083;-1.2161659;-;-;-;-;-;-
1531162909697;-;-;-0.028740235;0.7711963;10.250684;-0.077702165;0.057829894;0.04749514;-6.3;26.250002;-39.0;13.0452795;-3.9138083;-1.2161659;-;-;-;-;-;-
1531162909707;-;-;-0.05269043;0.6706055;10.394385;0.009116891;0.0860594;0.05388673;-6.7500005;24.6;-37.65;13.069325;-3.6542957;-1.0873915;-;-;-;-;-;-
1531162909717;-;-;-0.09580079;0.51732427;10.3512745;0.08315277;0.08392887;0.0533541;-6.7500005;24.6;-37.65;13.069325;-3.6542957;-1.0873915;-;-;-;-;-;-
1531162909727;-;-;-0.14370118;0.5412744;10.092612;0.11351281;0.08020044;0.033114072;-5.55;25.500002;-37.050003;13.022809;-3.5495393;-1.1346463;-;-;-;-;-;-
1531162909738;-;-;-0.1820215;0.64186525;9.987232;0.13108967;0.07487412;0.011808786;-5.55;25.500002;-37.050003;13.022809;-3.5495393;-1.1346463;-;-;-;-;-;-
1531162909748;-;-;-0.3065625;0.82388675;9.81958;0.11084964;0.06528674;-0.003637549;-7.5000005;26.7;-39.600002;12.960917;-3.6271539;-1.2298101;-;-;-;-;-;-
1531162909759;-;-;-0.32093263;0.82388675;9.83874;0.074630655;0.048775144;0.0043519344;-7.5000005;26.7;-39.600002;12.960917;-3.6271539;-1.2298101;-;-;-;-;-;-
1531162909768;-;-;-0.34488282;0.7759864;9.79084;0.05918432;0.044514086;0.030983547;-6.6000004;25.2;-39.0;12.944683;-3.7707565;-1.3162493;-;-;-;-;-;-
1531162909778;-;-;-0.23950197;0.7711963;9.843531;0.025628489;0.005631933;0.04003829;-6.6000004;25.2;-39.0;12.944683;-3.7707565;-1.3162493;-;-;-;-;-;-
1531162909788;-;-;-0.07185059;0.6562354;9.74773;-0.012188398;-0.013542827;0.030983547;-5.25;25.500002;-38.25;12.924656;-3.8765013;-1.3808078;-;-;-;-;-;-
1531162909798;-;-;0.0047900393;0.5891748;9.627979;-0.038287375;-0.0018249184;0.023526695;-5.25;25.500002;-38.25;12.924656;-3.8765013;-1.3808078;-;-;-;-;-;-
1531162909809;-;-;-0.019160157;0.5604346;9.733359;-0.072908476;0.028535118;0.009145624;-6.7500005;24.300001;-40.050003;12.877184;-3.9120495;-1.391845;-;-;-;-;-;-
1531162909819;-;-;-0.16765137;0.6466553;9.848321;-0.07610427;0.054101467;0.0048845666;-6.7500005;24.300001;-40.050003;12.877184;-3.9120495;-1.391845;-;-;-;-;-;-
1531162909829;-;-;-0.29698244;0.6610254;10.126143;-0.06811479;0.053568836;0.008612991;-7.8;25.650002;-40.050003;12.846057;-3.8769517;-1.3795853;-;-;-;-;-;-
1531162909839;-;-;-0.32093263;0.6993457;10.293795;-0.051603183;0.055699363;0.016069844;-7.8;25.650002;-40.050003;12.846057;-3.8769517;-1.3795853;-;-;-;-;-;-
1531162909850;-;-;-0.26345217;0.6322852;10.365645;-0.018579986;0.048775144;0.03258144;-7.05;25.500002;-40.2;12.842906;-3.7975926;-1.4306169;-;-;-;-;-;-
1531162909859;-;-;-0.28261232;0.60354495;10.322535;0.006986362;0.030133015;0.034179337;-7.05;25.500002;-40.2;12.842906;-3.7975926;-1.4306169;-;-;-;-;-;-
1531162909869;-;-;-0.19160157;0.5364844;10.207574;0.02829165;0.009892991;0.031516176;-6.3;25.800001;-39.45;12.827822;-3.7320821;-1.4908794;-;-;-;-;-;-
1531162909879;-;-;-0.11496094;0.46942386;10.097403;0.03787903;-0.013010195;0.01074352;-6.3;25.800001;-39.45;12.827822;-3.7320821;-1.4908794;-;-;-;-;-;-
1531162909889;-;-;-0.28261232;0.5460645;10.035132;0.045335885;-0.015673356;-0.0068333424;-6.0;27.6;-39.45;12.791171;-3.7253032;-1.5307356;-;-;-;-;-;-
1531162909900;-;-;-0.3544629;0.6562354;9.934542;0.043205354;0.0013708749;-0.019083884;-6.0;27.6;-39.45;12.791171;-3.7253032;-1.5307356;-;-;-;-;-;-
1531162909910;-;-;-0.33530274;0.68018556;9.857901;0.040542193;0.0050993003;-0.010561769;-6.3;25.500002;-39.0;12.766839;-3.7651126;-1.5266421;-;-;-;-;-;-
1531162909920;-;-;-0.28261232;0.728086;9.896221;0.0373464;0.015219312;0.0070150956;-6.3;25.500002;-39.0;12.766839;-3.7651126;-1.5266421;-;-;-;-;-;-
1531162909930;-;-;-0.17244141;0.6514453;9.656719;0.024563225;0.0045666685;0.0139393145;-5.8500004;25.95;-38.100002;12.781684;-3.810968;-1.5259566;-;-;-;-;-;-
1531162909940;-;-;-0.081430666;0.5748047;9.599238;0.012312684;0.01681721;0.0139393145;-5.8500004;25.95;-38.100002;12.781684;-3.810968;-1.5259566;-;-;-;-;-;-
1531162909951;-;-;-0.100590825;0.57001466;9.68067;-0.01964525;0.046644617;-0.008963872;-6.4500003;25.650002;-38.4;12.783674;-3.8531618;-1.5366266;-;-;-;-;-;-
1531162909960;-;-;-0.3065625;0.613125;9.814791;-0.027634734;0.048242513;-0.020149147;-6.4500003;25.650002;-38.4;12.783674;-3.8531618;-1.5366266;-;-;-;-;-;-
1531162909970;-;-;-0.3879932;0.5556446;9.977652;-0.034026317;0.039720397;-0.018018618;-4.9500003;24.45;-39.0;12.772227;-3.8714693;-1.5519996;-;-;-;-;-;-
1531162909980;-;-;-0.3161426;0.5364844;9.996812;-0.02923263;0.029600384;-0.017485986;-4.9500003;24.45;-39.0;12.772227;-3.8714693;-1.5519996;-;-;-;-;-;-
1531162909991;-;-;-0.21076173;0.46463382;10.049502;-0.016449457;0.0066971965;-0.029736528;-4.8;26.7;-38.100002;12.787036;-3.8419335;-1.6074523;-;-;-;-;-;-
1531162910001;-;-;-0.17244141;0.46463382;9.987232;-0.016449457;-0.011944931;-0.035062853;-4.8;26.7;-38.100002;12.787036;-3.8419335;-1.6074523;-;-;-;-;-;-
1531162910011;-;-;-0.10538086;0.488584;9.910591;-0.010590502;-0.020467047;-0.07021658;-5.8500004;25.050001;-39.300003;12.805707;-3.8079405;-1.6483158;-;-;-;-;-;-
1531162910021;-;-;-0.24908204;0.5412744;9.944121;-0.012188398;-0.022597576;-0.07980396;-5.8500004;25.050001;-39.300003;12.805707;-3.8079405;-1.6483158;-;-;-;-;-;-
1531162910032;-;-;-0.34009278;0.5748047;9.920172;-0.008992605;-0.030587059;-0.09152187;-7.8;25.35;-39.600002;12.842588;-3.788053;-1.6516145;-;-;-;-;-;-
1531162910042;-;-;-0.45505372;0.6993457;9.82437;-0.002068386;-0.032184955;-0.067553416;-6.0;25.2;-40.2;12.925981;-3.7737164;-1.6316514;-;-;-;-;-;-
1531162910052;-;-;-0.45984375;0.728086;9.929751;-0.004198915;-0.023130208;-0.047313392;-6.0;25.2;-40.2;12.925981;-3.7737164;-1.6316514;-;-;-;-;-;-
1531162910062;-;-;-0.35925296;0.67539555;9.843531;-0.0036662826;0.0029687716;-0.032932322;-7.05;24.45;-39.45;13.015526;-3.7646468;-1.6047695;-;-;-;-;-;-
1531162910072;-;-;-0.36883304;0.6179151;9.80521;-0.008459973;0.033861443;-0.035062853;-7.05;24.45;-39.45;13.015526;-3.7646468;-1.6047695;-;-;-;-;-;-
1531162910083;-;-;-0.34967285;0.5987549;9.944121;-0.016449457;0.065819375;-0.03453022;-6.15;27.000002;-39.300003;13.060992;-3.7607732;-1.6046022;-;-;-;-;-;-
1531162910093;-;-;-0.32572266;0.60354495;10.116563;0.012312684;0.09404888;-0.027073367;-6.15;27.000002;-39.300003;13.060992;-3.7607732;-1.6046022;-;-;-;-;-;-
1531162910103;-;-;-0.45026368;0.613125;10.217154;0.033617973;0.11002785;-0.033464953;-6.0;25.500002;-39.45;13.090394;-3.7539656;-1.6603209;-;-;-;-;-;-
1531162910113;-;-;-0.4023633;0.6466553;10.193204;0.047999043;0.10416889;-0.028671263;-6.0;25.500002;-39.45;13.090394;-3.7539656;-1.6603209;-;-;-;-;-;-
1531162910123;-;-;-0.45505372;0.7376661;10.236314;0.06664117;0.07540675;-0.023344941;-7.05;24.750002;-39.45;13.090394;-3.7539656;-1.6603209;-;-;-;-;-;-
1531162910134;-;-;-0.4167334;0.6514453;10.121353;0.0607827;0.050904617;-0.008967285;-7.05;24.750002;-39.45;13.118312;-3.7729993;-1.7726945;-;-;-;-;-;-
1531162910143;-;-;-0.4406836;0.5843848;10.073453;0.051195323;0.045045663;-0.010565182;-7.2000003;25.95;-39.300003;13.118312;-3.7729993;-1.7726945;-;-;-;-;-;-
1531162910153;-;-;-0.47900394;0.63707525;9.953702;0.019770022;0.034393016;-0.01961993;-7.2000003;25.95;-39.300003;13.135331;-3.8402357;-1.8702722;-;-;-;-;-;-
1531162910163;-;-;-0.488584;0.6849756;9.963282;0.018172126;0.0258709;-0.008967285;-6.0;24.750002;-39.45;13.141078;-3.9044912;-1.9309794;-;-;-;-;-;-
1531162910174;-;-;-0.42152345;0.6849756;9.934542;-0.0041984282;0.00882667;-0.008434653;-6.0;24.750002;-39.45;13.141078;-3.9044912;-1.9309794;-;-;-;-;-;-
1531162910184;-;-;-0.41194338;0.7089258;9.929751;-0.005796325;0.00882667;-0.003108331;-6.3;23.400002;-37.800003;13.141078;-3.9044912;-1.9309794;-;-;-;-;-;-
1531162910194;-;-;-0.27303225;0.7232959;9.924961;-0.023373188;-0.001825974;8.746248E-5;-6.3;23.400002;-37.800003;13.147007;-3.9334836;-1.9743775;-;-;-;-;-;-
1531162910204;-;-;-0.25387207;0.6706055;9.82437;-0.022840556;0.0040329807;-0.0100325495;-6.0;25.500002;-39.0;13.147007;-3.9334836;-1.9743775;-;-;-;-;-;-
1531162910214;-;-;-0.32572266;0.7041358;9.939331;-0.023373188;0.028534062;-0.02441362;-6.0;25.500002;-39.0;13.147267;-3.930514;-1.9891481;-;-;-;-;-;-
1531162910225;-;-;-0.35925296;0.6610254;9.862691;-0.024438452;0.043447766;-0.019087298;-6.4500003;24.6;-39.600002;13.150234;-3.9044664;-1.9877476;-;-;-;-;-;-
1531162910235;-;-;-0.42152345;0.6993457;9.982442;-0.011122648;0.06528569;-0.018554665;-6.4500003;24.6;-39.600002;13.150234;-3.9044664;-1.9877476;-;-;-;-;-;-
1531162910245;-;-;-0.4742139;0.728086;10.097403;0.0048563196;0.08446045;0.0032832557;-7.05;25.500002;-39.9;13.17206;-3.8771088;-2.0248766;-;-;-;-;-;-
1531162910255;-;-;-0.4263135;0.60833496;10.030342;0.02403108;0.06901412;0.017131694;-7.05;25.500002;-39.9;13.17206;-3.8771088;-2.0248766;-;-;-;-;-;-
1531162910265;-;-;-0.34967285;0.62749517;9.987232;0.02616161;0.06315516;0.014468532;-7.3500004;25.2;-38.25;13.17206;-3.8771088;-2.0248766;-;-;-;-;-;-
1531162910276;-;-;-0.364043;0.60833496;9.872271;0.02403108;0.04664356;-0.0036409632;-7.3500004;25.2;-38.25;13.177505;-3.871228;-2.112525;-;-;-;-;-;-
1531162910285;-;-;-0.3305127;0.6466553;9.877061;0.0117805395;0.055165675;-0.007902021;-5.1000004;25.650002;-39.600002;13.163674;-3.8946574;-2.193503;-;-;-;-;-;-
1531162910295;-;-;-0.3161426;0.68018556;9.924961;0.001127894;0.055698305;-0.0020430665;-5.1000004;25.650002;-39.600002;13.163674;-3.8946574;-2.193503;-;-;-;-;-;-
1531162910305;-;-;-0.364043;0.5891748;9.996812;-0.0047310605;0.022675108;0.010207475;-5.1000004;25.650002;-39.600002;13.163674;-3.8946574;-2.193503;-;-;-;-;-;-
1531162910315;-;-;-0.35925296;0.6322852;9.872271;-0.016448969;0.029599328;0.02086012;-6.7500005;25.95;-39.300003;13.162318;-3.9190607;-2.2509296;-;-;-;-;-;-
1531162910326;-;-;-0.29698244;0.6658155;9.982442;-0.022307923;0.017881418;0.011805372;-6.4500003;24.300001;-37.65;13.152986;-3.914457;-2.2948933;-;-;-;-;-;-
1531162910336;-;-;-0.21076173;0.5843848;9.872271;-0.018579498;0.010957199;0.007544314;-6.4500003;24.300001;-37.65;13.152986;-3.914457;-2.2948933;-;-;-;-;-;-
1531162910346;-;-;-0.2203418;0.57959473;9.901011;-0.02603635;0.028534062;-0.007902021;-5.8500004;26.400002;-40.050003;13.1313;-3.8915696;-2.3178349;-;-;-;-;-;-
1531162910356;-;-;-0.26345217;0.5748047;10.063872;-0.019644761;0.053035144;-0.014293607;-5.8500004;26.400002;-40.050003;13.1313;-3.8915696;-2.3178349;-;-;-;-;-;-
1531162910367;-;-;-0.29698244;0.67539555;10.063872;-0.013785807;0.048774086;-0.011097814;-7.8;25.35;-40.5;13.1313;-3.8915696;-2.3178349;-;-;-;-;-;-
1531162910377;-;-;-0.15328126;0.5460645;10.030342;0.010182641;0.04930672;-0.02707678;-7.8;25.35;-40.5;13.122877;-3.8666565;-2.3345268;-;-;-;-;-;-
1531162910387;-;-;-0.21555176;0.46942386;9.8866415;0.011247907;0.055698305;-0.027609413;-6.15;25.050001;-38.850002;13.130353;-3.8503618;-2.3893154;-;-;-;-;-;-
1531162910397;-;-;-0.20118165;0.52690434;9.833951;0.013378436;0.07114465;-0.052643128;-6.15;25.050001;-38.850002;13.130353;-3.8503618;-2.3893154;-;-;-;-;-;-
1531162910408;-;-;-0.3161426;0.6466553;9.905801;0.010182641;0.07114465;-0.069154724;-6.7500005;24.300001;-40.050003;13.151898;-3.8584094;-2.4540093;-;-;-;-;-;-
1531162910418;-;-;-0.488584;0.6706055;9.982442;0.003258423;0.06422043;-0.0686221;-6.7500005;24.300001;-40.050003;13.151898;-3.8584094;-2.4540093;-;-;-;-;-;-
1531162910428;-;-;-0.5364844;0.6610254;9.896221;0.003258423;0.06422043;-0.0686221;-6.0;26.250002;-37.800003;13.20207;-3.878179;-2.531906;-;-;-;-;-;-
1531162910438;-;-;-0.51732427;0.7711963;9.896221;0.0048563196;0.06741622;-0.032935735;-6.0;26.250002;-37.800003;13.20207;-3.878179;-2.531906;-;-;-;-;-;-
1531162910448;-;-;-0.39278322;0.7807764;9.920172;0.025096344;0.100439414;-0.021750458;-6.3;24.750002;-39.9;13.271834;-3.8848474;-2.6137855;-;-;-;-;-;-
1531162910459;-;-;-0.31135255;0.6993457;9.843531;0.029357402;0.11215732;-0.008967285;-6.3;24.750002;-39.9;13.271834;-3.8848474;-2.6137855;-;-;-;-;-;-
1531162910469;-;-;-0.1580713;0.4742139;9.920172;0.06664166;0.2043027;-0.04145785;-4.9500003;25.2;-39.45;13.307004;-3.8909485;-2.695269;-;-;-;-;-;-
1531162910479;-;-;-0.25866213;0.6322852;10.111773;0.10765434;0.27620807;-0.061165243;-4.9500003;25.2;-39.45;13.307004;-3.8909485;-2.695269;-;-;-;-;-;-
1531162910489;-;-;-0.44547364;0.6562354;10.212363;0.12842698;0.2836649;-0.07448105;-6.0;25.800001;-37.800003;13.321526;-3.931423;-2.8473017;-;-;-;-;-;-
1531162910500;-;-;-0.8095166;0.7041358;10.279425;0.18541864;0.23892379;-0.05477366;-6.0;25.800001;-37.800003;13.321526;-3.931423;-2.8473017;-;-;-;-;-;-
1531162910510;-;-;-0.8286768;0.8382569;10.035132;0.17902705;0.17394266;-0.042523116;-6.0;25.2;-39.0;13.371261;-4.042047;-3.1401803;-;-;-;-;-;-
1531162910520;-;-;-0.8047266;0.81909674;10.001602;0.16091755;0.15103947;-0.023880988;-6.0;25.2;-39.0;13.371261;-4.042047;-3.1401803;-;-;-;-;-;-
1531162910530;-;-;-0.7185059;0.8430469;9.910591;0.10765434;0.10363521;-0.0100325495;-6.3;25.2;-39.45;13.429197;-4.2430162;-3.429319;-;-;-;-;-;-
1531162910541;-;-;-0.6322852;0.8095166;9.77168;0.027226875;0.029599328;-0.016956769;-6.3;25.2;-39.45;13.429197;-4.2430162;-3.429319;-;-;-;-;-;-
1531162910551;-;-;-0.68018556;0.732876;9.814791;-0.021775292;0.0035003484;-0.024946252;-5.8500004;25.050001;-40.050003;13.452029;-4.419818;-3.5987253;-;-;-;-;-;-
1531162910561;-;-;-0.7376661;0.8047266;9.862691;-0.07077745;-0.02685969;-0.03133784;-5.8500004;25.050001;-40.050003;13.452029;-4.419818;-3.5987253;-;-;-;-;-;-
1531162910571;-;-;-0.852627;0.852627;10.078242;-0.083027996;-0.039110232;-0.008967285;-4.8;24.300001;-39.600002;13.46817;-4.4716134;-3.6526124;-;-;-;-;-;-
1531162910581;-;-;-0.8669971;0.852627;10.217154;-0.072907984;-0.03644707;0.0070116813;-5.1000004;24.6;-38.4;13.46817;-4.4716134;-3.6526124;-;-;-;-;-;-
1531162910592;-;-;-0.8095166;0.8143067;10.322535;-0.019644761;-0.035914436;0.058677007;-5.1000004;24.6;-38.4;13.499869;-4.407454;-3.6351836;-;-;-;-;-;-
1531162910601;-;-;-0.8143067;0.8334668;10.269844;-0.011122648;-0.04390392;0.05654648;-6.6000004;25.2;-39.0;13.496853;-4.3244214;-3.5944965;-;-;-;-;-;-
1531162910611;-;-;-0.6945557;0.728086;10.087823;0.009117378;-0.05828499;0.081047565;-6.6000004;25.2;-39.0;13.496853;-4.3244214;-3.5944965;-;-;-;-;-;-
1531162910622;-;-;-0.71371585;0.71371585;10.068663;0.012845803;-0.054556567;0.0783844;-5.25;25.2;-39.45;13.43844;-4.306153;-3.5446868;-;-;-;-;-;-
1531162910631;-;-;-0.5748047;0.75203615;10.020762;-0.003665796;-0.054023933;0.07092755;-5.25;25.2;-39.45;13.43844;-4.306153;-3.5446868;-;-;-;-;-;-
1531162910642;-;-;-0.57001466;0.6610254;9.972861;-0.010056409;-0.060417634;0.069322824;-6.0;24.750002;-39.0;13.354832;-4.320601;-3.4749744;-;-;-;-;-;-
1531162910652;-;-;-0.5460645;0.6945557;10.078242;-0.025502745;-0.0747987;0.06293124;-6.0;24.750002;-39.0;13.354832;-4.320601;-3.4749744;-;-;-;-;-;-
1531162910662;-;-;-0.5412744;0.6466553;10.140513;-0.011654305;-0.06680922;0.06293124;-7.2000003;25.050001;-38.850002;13.282356;-4.3139915;-3.4009578;-;-;-;-;-;-
1531162910673;-;-;-0.39278322;0.6849756;10.121353;0.0027267642;-0.08012503;0.04695227;-7.2000003;25.050001;-38.850002;13.282356;-4.3139915;-3.4009578;-;-;-;-;-;-
1531162910682;-;-;-0.36883304;0.6227051;10.030342;0.0165752;-0.06947238;0.043223847;-6.15;24.6;-38.4;13.213883;-4.296493;-3.3151433;-;-;-;-;-;-
1531162910692;-;-;-0.60354495;0.7089258;9.996812;0.033619434;-0.058287103;0.028310142;-6.15;24.6;-38.4;13.213883;-4.296493;-3.3151433;-;-;-;-;-;-
1531162910702;-;-;-0.613125;0.7232959;10.0063925;0.043739446;-0.034851287;0.02032066;-5.8500004;25.050001;-40.050003;13.169805;-4.3035946;-3.2287233;-;-;-;-;-;-
1531162910712;-;-;-0.7232959;0.79035646;10.083033;0.06504473;-0.015143891;0.035766993;-5.8500004;25.050001;-40.050003;13.169805;-4.3035946;-3.2287233;-;-;-;-;-;-
1531162910723;-;-;-0.7711963;0.7807764;10.087823;0.07409948;-0.010882833;0.044821743;-5.25;23.1;-39.45;13.142414;-4.355296;-3.1779628;-;-;-;-;-;-
1531162910732;-;-;-0.6514453;0.728086;10.025552;0.086350024;-0.03857971;0.050680697;-5.25;23.1;-39.45;13.142414;-4.355296;-3.1779628;-;-;-;-;-;-
1531162910742;-;-;-0.5748047;0.74724615;10.0063925;0.09327424;-0.03378602;0.04428911;-6.0;24.150002;-39.45;13.098248;-4.4396653;-3.1548455;-;-;-;-;-;-
1531162910753;-;-;-0.60354495;0.74724615;9.857901;0.09806793;-0.047101825;0.042691212;-6.0;24.150002;-39.45;13.098248;-4.4396653;-3.1548455;-;-;-;-;-;-
1531162910763;-;-;-0.5843848;0.7568262;9.81;0.09114371;-0.061482895;0.0490828;-5.55;25.500002;-37.5;13.048307;-4.54558;-3.1100523;-;-;-;-;-;-
1531162910773;-;-;-0.5125342;0.7664063;9.656719;0.05918578;-0.04869972;0.031505935;-5.55;25.500002;-37.5;13.048307;-4.54558;-3.1100523;-;-;-;-;-;-
1531162910783;-;-;-0.5412744;0.8143067;9.72378;0.02829311;-0.057221837;0.021918556;-6.4500003;24.300001;-40.050003;13.000703;-4.652199;-3.0447798;-;-;-;-;-;-
1531162910793;-;-;-0.60354495;0.847837;9.642349;0.006987822;-0.035383917;0.020853292;-6.4500003;24.300001;-40.050003;13.000703;-4.652199;-3.0447798;-;-;-;-;-;-
1531162910804;-;-;-0.6227051;0.87178713;9.604029;-0.00792588;-0.01248073;0.022451188;-5.55;25.2;-38.7;12.969059;-4.712014;-2.9780738;-;-;-;-;-;-
1531162910813;-;-;-0.5748047;0.8430469;9.627979;-0.023904847;-0.013545994;0.035766993;-5.55;25.2;-38.7;12.969059;-4.712014;-2.9780738;-;-;-;-;-;-
1531162910823;-;-;-0.57001466;0.86220706;9.575289;-0.047340665;0.0040308693;0.03736489;-6.4500003;24.6;-38.100002;12.9451475;-4.718549;-2.9388936;-;-;-;-;-;-
1531162910834;-;-;-0.5508545;0.7664063;9.690249;-0.061189104;0.016281411;0.054941755;-6.4500003;24.6;-38.100002;12.9451475;-4.718549;-2.9388936;-;-;-;-;-;-
1531162910843;-;-;-0.60354495;0.6993457;9.74294;-0.06917859;0.022140365;0.052278593;-6.3;25.2;-39.0;12.901292;-4.6818414;-2.9237514;-;-;-;-;-;-
1531162910853;-;-;-0.57959473;0.76161623;10.116563;-0.05586278;0.03865196;0.05334386;-6.3;25.2;-39.0;12.901292;-4.6818414;-2.9237514;-;-;-;-;-;-
1531162910863;-;-;-0.5508545;0.7089258;10.188414;-0.043612238;0.013085617;0.06293124;-5.25;24.750002;-37.800003;12.835856;-4.609695;-2.9391518;-;-;-;-;-;-
1531162910874;-;-;-0.45505372;0.6179151;10.135723;-0.0020669259;-0.021002846;0.059202813;-5.25;24.750002;-37.800003;12.835856;-4.609695;-2.9391518;-;-;-;-;-;-
1531162910884;-;-;-0.45026368;0.67539555;10.020762;0.020303627;-0.049232356;0.054941755;-6.6000004;24.750002;-39.0;12.769594;-4.55044;-2.9633136;-;-;-;-;-;-
1531162910894;-;-;-0.43110353;0.6562354;9.944121;0.024564685;-0.053493414;0.034169096;-6.6000004;24.750002;-39.0;12.769594;-4.55044;-2.9633136;-;-;-;-;-;-
1531162910905;-;-;-0.364043;0.7185059;9.72378;0.010183616;-0.06201553;0.027244877;-5.4;25.050001;-40.050003;12.7021475;-4.5537066;-2.931957;-;-;-;-;-;-
1531162910914;-;-;-0.3544629;0.7376661;9.642349;-0.010589042;-0.060950264;0.019788027;-5.4;25.050001;-40.050003;12.7021475;-4.5537066;-2.931957;-;-;-;-;-;-
1531162910924;-;-;-0.31135255;0.78556645;9.584868;-0.037220653;-0.04071024;0.026712246;-6.3;25.2;-38.25;12.66402;-4.5829654;-2.8642976;-;-;-;-;-;-
1531162910935;-;-;-0.23950197;0.6610254;9.560919;-0.059058573;-0.023133375;0.02032066;-6.3;25.2;-38.25;12.66402;-4.5829654;-2.8642976;-;-;-;-;-;-
1531162910945;-;-;-0.364043;0.5987549;9.80521;-0.06811333;-0.028992329;0.00860275;-4.9500003;25.500002;-39.0;12.63822;-4.5722165;-2.8010068;-;-;-;-;-;-
1531162910955;-;-;-0.3784131;0.6466553;9.891431;-0.06704806;-0.017807052;0.00860275;-4.9500003;25.500002;-39.0;12.63822;-4.5722165;-2.8010068;-;-;-;-;-;-
1531162910966;-;-;-0.5508545;0.7041358;9.996812;-0.055330146;-0.020470213;0.0070048533;-4.9500003;24.45;-37.800003;12.618669;-4.5054073;-2.7661335;-;-;-;-;-;-
1531162910976;-;-;-0.5029541;0.732876;10.044712;-0.035622757;-0.013545994;0.016592234;-4.9500003;24.45;-37.800003;12.618669;-4.5054073;-2.7661335;-;-;-;-;-;-
1531162910986;-;-;-0.488584;0.71371585;9.944121;-0.01698063;0.010422456;0.024581717;-5.8500004;25.050001;-37.2;12.613229;-4.4306974;-2.736918;-;-;-;-;-;-
1531162910996;-;-;-0.50774413;0.68018556;9.958491;-0.006327984;0.02533616;0.03310383;-5.8500004;25.050001;-37.2;12.613229;-4.4306974;-2.736918;-;-;-;-;-;-
1531162911006;-;-;-0.2778223;0.6179151;9.800421;-0.007393248;0.002965605;0.037897523;-6.0;26.250002;-38.7;12.602736;-4.38685;-2.7241652;-;-;-;-;-;-
1531162911017;-;-;-0.33530274;0.53169435;9.829161;-0.01964379;0.012020353;0.021918556;-6.0;26.250002;-38.7;12.602736;-4.38685;-2.7241652;-;-;-;-;-;-
1531162911026;-;-;-0.43589357;0.60354495;9.833951;-0.0462754;-0.0050238785;-0.0015172622;-6.15;26.400002;-39.300003;12.568254;-4.376045;-2.7349253;-;-;-;-;-;-
1531162911036;-;-;-0.48379397;0.7376661;9.877061;-0.07610281;-0.025263904;0.0016785312;-6.15;26.400002;-39.300003;12.568254;-4.376045;-2.7349253;-;-;-;-;-;-
1531162911047;-;-;-0.3879932;0.7376661;9.814791;-0.108593374;-0.04763446;0.0064722206;-4.9500003;25.2;-38.25;12.544973;-4.3535266;-2.737018;-;-;-;-;-;-
1531162911056;-;-;-0.28261232;0.7568262;9.939331;-0.12244181;-0.0268618;0.010200647;-4.9500003;25.2;-38.25;12.544973;-4.3535266;-2.737018;-;-;-;-;-;-
1531162911066;-;-;-0.2203418;0.6849756;9.977652;-0.12776813;-0.027927065;0.005939589;-5.55;23.85;-39.9;12.543153;-4.271746;-2.7104173;-;-;-;-;-;-
1531162911076;-;-;-0.086220704;0.6658155;9.939331;-0.12190918;-0.04071024;-0.021757286;-5.55;23.85;-39.9;12.543153;-4.271746;-2.7104173;-;-;-;-;-;-
1531162911087;-;-;-0.20118165;0.6945557;10.073453;-0.11285443;-0.023133375;-0.037736256;-5.1000004;25.95;-38.850002;12.537455;-4.1335797;-2.673461;-;-;-;-;-;-
1531162911097;-;-;-0.26345217;0.728086;10.183623;-0.10752811;-0.016741788;-0.0633026;-5.1000004;25.95;-38.850002;12.537455;-4.1335797;-2.673461;-;-;-;-;-;-
1531162911108;-;-;-0.39278322;0.8382569;10.284214;-0.08142913;-0.009817569;-0.07608577;-6.15;25.35;-38.4;12.560359;-3.9939883;-2.640438;-;-;-;-;-;-
1531162911118;-;-;-0.4742139;0.852627;10.370435;-0.05586278;-7.628208E-4;-0.067031026;-6.15;25.35;-38.4;12.560359;-3.9939883;-2.640438;-;-;-;-;-;-
1531162911128;-;-;-0.40715334;0.8430469;10.341695;-0.00792588;0.021075102;-0.06543312;-5.25;25.800001;-39.9;12.629671;-3.869025;-2.6262496;-;-;-;-;-;-
1531162911138;-;-;-0.51732427;0.7759864;10.312955;0.0123141445;0.014683513;-0.064900495;-5.25;25.800001;-39.9;12.629671;-3.869025;-2.6262496;-;-;-;-;-;-
1531162911149;-;-;-0.5556446;0.89573735;10.250684;0.030956272;0.005628766;-0.05850891;-6.15;25.95;-39.300003;12.711507;-3.799689;-2.6370678;-;-;-;-;-;-
1531162911159;-;-;-0.71371585;0.7376661;10.097403;0.03415207;0.00669403;-0.060106806;-5.8500004;25.95;-36.75;12.711507;-3.799689;-2.6370678;-;-;-;-;-;-
1531162911169;-;-;-0.79993653;0.7711963;10.044712;0.029358374;8.3507586E-4;-0.047856268;-5.8500004;25.95;-36.75;12.782572;-3.8105683;-2.6617146;-;-;-;-;-;-
1531162911179;-;-;-0.8765772;0.7041358;10.059082;0.0165752;-0.0071544074;-0.036138356;-4.9500003;25.800001;-39.0;12.845726;-3.8462431;-2.6781454;-;-;-;-;-;-
1531162911190;-;-;-0.7041358;0.7951465;9.934542;-0.00792588;-0.018872317;-0.007908849;-4.9500003;25.800001;-39.0;12.845726;-3.8462431;-2.6781454;-;-;-;-;-;-
1531162911200;-;-;-0.63707525;0.732876;10.030342;-0.010056409;-0.027394433;0.001145899;-5.55;24.750002;-39.9;12.888336;-3.8656921;-2.6762786;-;-;-;-;-;-
1531162911210;-;-;-0.4023633;0.60354495;9.924961;-0.023904847;-0.028992329;0.0048743244;-5.55;24.750002;-39.9;12.888336;-3.8656921;-2.6762786;-;-;-;-;-;-
1531162911221;-;-;-0.44547364;0.5460645;9.891431;-0.03455749;-0.0119480975;-0.007376217;-4.8;25.95;-36.45;12.892593;-3.854459;-2.649928;-;-;-;-;-;-
1531162911232;-;-;-0.44547364;0.45505372;10.049502;-0.037220653;0.00669403;-0.0153657;-4.8;25.95;-36.45;12.892593;-3.854459;-2.649928;-;-;-;-;-;-
1531162911242;-;-;-0.3305127;0.49337405;10.164463;-0.029763803;0.03332564;-0.03667099;-4.8;25.650002;-40.5;12.893544;-3.816142;-2.6296258;-;-;-;-;-;-
1531162911252;-;-;-0.36883304;0.4406836;10.284214;-0.004197455;0.048771974;-0.024420448;-4.8;25.650002;-40.5;12.893544;-3.816142;-2.6296258;-;-;-;-;-;-
1531162911262;-;-;-0.38320315;0.36883304;10.384805;0.0165752;0.04504355;-0.028148875;-6.15;25.95;-39.300003;12.920974;-3.7764149;-2.6570659;-;-;-;-;-;-
1531162911272;-;-;-0.29698244;0.32093263;10.4566555;0.03788049;0.010955088;-0.039866783;-6.15;25.95;-39.300003;12.920974;-3.7764149;-2.6570659;-;-;-;-;-;-
1531162911283;-;-;-0.33530274;0.3161426;10.403965;0.0511963;-0.02206811;-0.056378383;-5.25;24.750002;-40.2;12.946229;-3.7824125;-2.713689;-;-;-;-;-;-
1531162911293;-;-;-0.34967285;0.34488282;10.308165;0.067707896;-0.04816709;-0.0915321;-5.25;24.750002;-40.2;12.946229;-3.7824125;-2.713689;-;-;-;-;-;-
1531162911303;-;-;-0.34967285;0.45026368;10.197993;0.09274161;-0.059352368;-0.108576335;-3.9;25.2;-38.7;13.00443;-3.8256366;-2.7200541;-;-;-;-;-;-
1531162911313;-;-;-0.34967285;0.50774413;9.987232;0.10712268;-0.068939745;-0.109641604;-3.9;25.2;-38.7;13.00443;-3.8256366;-2.7200541;-;-;-;-;-;-
1531162911324;-;-;-0.5556446;0.6179151;9.642349;0.11191637;-0.056689207;-0.11230476;-5.25;25.2;-39.9;13.115991;-3.9064987;-2.6704638;-;-;-;-;-;-
1531162911334;-;-;-0.71371585;0.71371585;9.474698;0.096470036;-0.0449713;-0.09419527;-5.25;25.2;-39.9;13.115991;-3.9064987;-2.6704638;-;-;-;-;-;-
1531162911345;-;-;-0.6658155;0.732876;9.498648;0.071436316;-0.028459696;-0.0782163;-7.2000003;27.000002;-38.850002;13.250847;-4.024896;-2.6077342;-;-;-;-;-;-
1531162911355;-;-;-0.63707525;0.7424561;9.493857;0.03042364;-0.01248073;-0.052117325;-7.2000003;27.000002;-38.850002;13.250847;-4.024896;-2.6077342;-;-;-;-;-;-
1531162911365;-;-;-0.50774413;0.728086;9.613608;0.002194132;0.0045635016;-0.04359521;-4.05;25.35;-40.95;13.362572;-4.132414;-2.5647802;-;-;-;-;-;-
1531162911376;-;-;-0.44547364;0.6706055;9.78605;-0.004197455;0.012552985;-0.03720362;-4.05;25.35;-40.95;13.362572;-4.132414;-2.5647802;-;-;-;-;-;-
1531162911386;-;-;-0.43110353;0.56522465;9.905801;-0.00792588;-0.006089143;-0.043062575;-5.4;25.050001;-37.65;13.418933;-4.1669717;-2.5622287;-;-;-;-;-;-
1531162911397;-;-;-0.5748047;0.5987549;9.992022;0.0043246606;-0.010350201;-0.052649956;-5.4;25.050001;-37.65;13.418933;-4.1669717;-2.5622287;-;-;-;-;-;-
1531162911406;-;-;-0.56522465;0.67539555;10.063872;0.028825743;-0.014078626;-0.047323633;-6.3;26.550001;-39.45;13.459116;-4.1631565;-2.573409;-;-;-;-;-;-
1531162911416;-;-;-0.60833496;0.6610254;9.992022;0.042674184;-0.034851287;-0.032942563;-6.3;26.550001;-39.45;13.459116;-4.1631565;-2.573409;-;-;-;-;-;-
1531162911427;-;-;-0.6562354;0.7041358;9.81958;0.045337345;-0.009284936;-0.0153657;-6.7500005;25.35;-40.050003;13.51483;-4.1721816;-2.571408;-;-;-;-;-;-
1531162911437;-;-;-0.62749517;0.6466553;9.843531;0.043739446;0.0072266627;8.063449E-5;-6.7500005;25.35;-40.050003;13.51483;-4.1721816;-2.571408;-;-;-;-;-;-
1531162911447;-;-;-0.53169435;0.6610254;9.862691;0.048533138;0.01841194;0.0107332785;-5.4;24.6;-40.050003;13.557454;-4.2201047;-2.551161;-;-;-;-;-;-
1531162911458;-;-;-0.50774413;0.5891748;9.80521;0.03734786;0.016814044;0.023516452;-5.4;24.6;-40.050003;13.557454;-4.2201047;-2.551161;-;-;-;-;-;-
1531162911468;-;-;-0.364043;0.49337405;9.77168;0.021901524;0.01841194;0.008070118;-4.8;25.650002;-37.2;13.561568;-4.2761745;-2.5584722;-;-;-;-;-;-
1531162911478;-;-;-0.34967285;0.5508545;9.848321;0.0043246606;0.0072266627;-0.0063109524;-6.15;25.650002;-40.95;13.546381;-4.3210464;-2.5820355;-;-;-;-;-;-
1531162911489;-;-;-0.45984375;0.5843848;9.910591;-0.017513262;-0.015676523;-0.015898332;-6.15;25.650002;-40.95;13.546381;-4.3210464;-2.5820355;-;-;-;-;-;-
1531162911498;-;-;-0.53169435;0.6322852;10.0063925;-0.03189433;-0.0268618;-0.02015939;-6.3;24.45;-40.2;13.549254;-4.328232;-2.5898054;-;-;-;-;-;-
1531162911508;-;-;-0.45984375;0.67539555;9.987232;-0.05106909;-0.050297618;-0.0148330685;-6.3;24.45;-40.2;13.549254;-4.328232;-2.5898054;-;-;-;-;-;-
1531162911518;-;-;-0.43589357;0.68018556;10.011182;-0.043612238;-0.053493414;-0.007376217;-6.3;24.750002;-39.45;13.549254;-4.328232;-2.5898054;-;-;-;-;-;-
1531162911529;-;-;-0.32572266;0.5412744;9.996812;-0.018578526;-0.034318652;-0.011637274;-6.3;24.750002;-39.45;13.573231;-4.288955;-2.5597394;-;-;-;-;-;-
1531162911539;-;-;-0.34488282;0.5125342;10.049502;-0.014317467;-0.03165549;-0.010572011;-5.55;25.2;-39.45;13.588123;-4.236884;-2.506783;-;-;-;-;-;-
1531162911549;-;-;-0.3784131;0.5460645;10.011182;0.008053087;-0.023666007;-0.025485713;-5.55;25.2;-39.45;13.588123;-4.236884;-2.506783;-;-;-;-;-;-
1531162911560;-;-;-0.36883304;0.5508545;9.963282;0.010716247;-0.024731271;-0.025485713;-6.3;25.500002;-38.7;13.610121;-4.2189784;-2.4713058;-;-;-;-;-;-
1531162911570;-;-;-0.43589357;0.63707525;9.80521;0.021901524;-0.014611259;-0.03720362;-6.3;25.500002;-38.7;13.610121;-4.2189784;-2.4713058;-;-;-;-;-;-
1531162911580;-;-;-0.40715334;0.6514453;9.704619;0.018705731;0.010422456;-0.04146468;-4.65;25.2;-38.7;13.647228;-4.2321734;-2.4445004;-;-;-;-;-;-
1531162911590;-;-;-0.51732427;0.6562354;9.733359;0.0059225573;0.024803527;-0.03454046;-4.65;25.2;-38.7;13.647228;-4.2321734;-2.4445004;-;-;-;-;-;-
1531162911601;-;-;-0.5364844;0.6658155;9.704619;0.0064551895;0.031195113;-0.022822551;-5.8500004;25.35;-40.5;13.688237;-4.2507915;-2.448994;-;-;-;-;-;-
1531162911610;-;-;-0.4263135;0.62749517;9.718989;-0.007393248;0.02533616;-0.0148330685;-5.8500004;25.35;-40.5;13.688237;-4.2507915;-2.448994;-;-;-;-;-;-
1531162911620;-;-;-0.4981641;0.6466553;9.80521;-0.004197455;0.017879307;-0.016430965;-6.3;24.750002;-39.9;13.715938;-4.258621;-2.4818022;-;-;-;-;-;-
1531162911631;-;-;-0.62749517;0.68976563;9.733359;-0.018578526;0.003498237;-0.013767803;-6.3;24.750002;-39.9;13.715938;-4.258621;-2.4818022;-;-;-;-;-;-
1531162911641;-;-;-0.4981641;0.62749517;9.7621;-0.023904847;-0.010882833;-0.0047130557;-6.3;24.750002;-39.9;13.715938;-4.258621;-2.4818022;-;-;-;-;-;-
1531162911651;-;-;-0.47900394;0.68976563;9.618399;-0.053731225;-0.004493475;0.0128566;-6.4500003;25.35;-38.100002;13.730098;-4.247565;-2.5024674;-;-;-;-;-;-
1531162911662;-;-;-0.43589357;0.7568262;9.623189;-0.05479649;0.007224434;0.016052395;-5.25;25.800001;-38.25;13.736897;-4.217205;-2.4923828;-;-;-;-;-;-
1531162911671;-;-;-0.49337405;0.7041358;9.75731;-0.08622179;0.017344445;0.023509245;-5.25;25.800001;-38.25;13.736897;-4.217205;-2.4923828;-;-;-;-;-;-
1531162911681;-;-;-0.42152345;0.6466553;9.896221;-0.099537596;0.023736034;0.033629257;-6.3;24.750002;-40.65;13.725895;-4.1551085;-2.4901536;-;-;-;-;-;-
1531162911691;-;-;-0.34488282;0.5939649;10.102193;-0.099537596;-0.004493475;0.037890315;-6.3;24.750002;-40.65;13.725895;-4.1551085;-2.4901536;-;-;-;-;-;-
1531162911702;-;-;-0.34009278;0.49337405;10.020762;-0.09314601;-0.033255614;0.035759784;-5.8500004;24.6;-39.300003;13.690513;-4.049965;-2.5077791;-;-;-;-;-;-
1531162911712;-;-;-0.2778223;0.45984375;9.996812;-0.0814281;-0.04390826;0.016052395;-5.8500004;24.6;-39.300003;13.690513;-4.049965;-2.5077791;-;-;-;-;-;-
1531162911723;-;-;-0.33530274;0.5460645;10.015972;-0.07290599;-0.042310365;-0.0031223663;-6.15;25.050001;-40.95;13.647829;-3.9420593;-2.4837952;-;-;-;-;-;-
1531162911733;-;-;-0.32093263;0.60833496;9.867481;-0.05959018;-0.028994557;-4.5920513E-4;-6.15;25.050001;-40.95;13.647829;-3.9420593;-2.4837952;-;-;-;-;-;-
1531162911743;-;-;-0.2778223;0.5939649;9.915381;-0.06438387;-0.0082219;0.0011386916;-5.4;24.6;-39.600002;13.639633;-3.8521197;-2.4302843;-;-;-;-;-;-
1531162911753;-;-;-0.27303225;0.63707525;9.924961;-0.06172071;0.040780265;-0.002589734;-5.4;24.6;-39.600002;13.639633;-3.8521197;-2.4302843;-;-;-;-;-;-
1531162911764;-;-;-0.43589357;0.6466553;10.063872;-0.057992283;0.058357127;0.0075302785;-4.8;25.050001;-40.050003;13.645074;-3.778495;-2.4083686;-;-;-;-;-;-
1531162911774;-;-;-0.3784131;0.62749517;10.236314;-0.04467648;0.048769746;0.0016713238;-4.8;25.050001;-40.050003;13.645074;-3.778495;-2.4083686;-;-;-;-;-;-
1531162911784;-;-;-0.33530274;0.5939649;10.217154;-0.022838555;0.040780265;-0.007916057;-6.6000004;25.500002;-39.0;13.640848;-3.7127912;-2.4573262;-;-;-;-;-;-
1531162911795;-;-;-0.32572266;0.57001466;10.111773;-0.021773292;0.03332341;-0.019633966;-6.6000004;25.500002;-39.0;13.640848;-3.7127912;-2.4573262;-;-;-;-;-;-
1531162911805;-;-;-0.44547364;0.5891748;10.083033;-0.021773292;0.027464457;-0.030286608;-5.25;24.750002;-40.2;13.638199;-3.665269;-2.5163505;-;-;-;-;-;-
1531162911815;-;-;-0.41194338;0.7232959;10.140513;-0.024969084;0.02533393;-0.034547668;-5.25;24.750002;-40.2;13.638199;-3.665269;-2.5163505;-;-;-;-;-;-
1531162911826;-;-;-0.4263135;0.6610254;10.140513;-0.027099613;0.019474976;-0.027623449;-5.4;25.650002;-39.300003;13.659327;-3.6354778;-2.552041;-;-;-;-;-;-
1531162911835;-;-;-0.52690434;0.7089258;10.140513;-0.01911013;0.029062357;-0.017503435;-5.4;25.650002;-39.300003;13.659327;-3.6354778;-2.552041;-;-;-;-;-;-
1531162911846;-;-;-0.5748047;0.7089258;10.154883;-0.012718543;0.046106584;-0.0020571018;-6.6000004;25.500002;-39.9;13.693102;-3.6063013;-2.5764027;-;-;-;-;-;-
1531162911856;-;-;-0.5125342;0.67539555;10.111773;-0.0105880145;0.050367642;0.02191135;-6.6000004;25.500002;-39.9;13.693102;-3.6063013;-2.5764027;-;-;-;-;-;-
1531162911865;-;-;-0.5125342;0.6179151;10.236314;-0.008457486;0.043976057;0.021378716;-5.4;25.35;-41.25;13.709915;-3.586382;-2.619685;-;-;-;-;-;-
1531162911875;-;-;-0.51732427;0.5748047;10.193204;-0.013251175;0.023203399;0.019248188;-5.4;25.35;-41.25;13.709915;-3.586382;-2.619685;-;-;-;-;-;-
1531162911886;-;-;-0.4167334;0.5556446;10.217154;-0.012185911;-0.0012976816;0.012323968;-6.6000004;24.45;-39.45;13.692645;-3.5741978;-2.6713474;-;-;-;-;-;-
1531162911896;-;-;-0.38320315;0.5460645;10.197993;-0.011653278;-0.01940718;0.011791336;-6.6000004;24.45;-39.45;13.692645;-3.5741978;-2.6713474;-;-;-;-;-;-
1531162911906;-;-;-0.3784131;0.5460645;10.059082;6.463047E-5;-0.05136511;-0.0015244696;-6.15;24.6;-39.600002;13.674752;-3.5638945;-2.6971414;-;-;-;-;-;-
1531162911917;-;-;-0.3784131;0.5412744;10.001602;-0.016446969;-0.056691434;-0.020166596;-6.15;24.6;-39.600002;13.674752;-3.5638945;-2.6971414;-;-;-;-;-;-
1531162911927;-;-;-0.36883304;0.60354495;10.015972;-0.0031311628;-0.038049307;-0.030286608;-6.6000004;24.750002;-40.2;13.668168;-3.554693;-2.6699545;-;-;-;-;-;-
1531162911937;-;-;-0.5029541;0.62749517;10.025552;0.013380436;-0.028461926;-0.029221345;-6.7500005;24.300001;-38.100002;13.692779;-3.5476298;-2.6131964;-;-;-;-;-;-
1531162911948;-;-;-0.56522465;0.6227051;9.901011;0.019772023;-2.3241714E-4;-0.004720263;-6.7500005;24.300001;-38.100002;13.692779;-3.5476298;-2.6131964;-;-;-;-;-;-
1531162911957;-;-;-0.47900394;0.68018556;9.872271;0.033620458;0.005093905;-0.0015244696;-4.9500003;24.45;-39.0;13.720662;-3.561622;-2.590029;-;-;-;-;-;-
1531162911967;-;-;-0.45505372;0.6179151;9.75731;0.027228875;0.020540241;0.0038018527;-4.9500003;24.45;-39.0;13.720662;-3.561622;-2.590029;-;-;-;-;-;-
1531162911978;-;-;-0.3879932;0.6562354;9.833951;0.01178254;0.020540241;-4.5920513E-4;-5.4;25.050001;-40.5;13.723686;-3.5963151;-2.6000247;-;-;-;-;-;-
1531162911988;-;-;-0.5221143;0.64186525;9.929751;0.013380436;0.026931826;-0.015905539;-5.4;25.050001;-40.5;13.723686;-3.5963151;-2.6000247;-;-;-;-;-;-
1531162911999;-;-;-0.48379397;0.6514453;9.992022;0.015510965;0.026399195;-0.014307643;-5.4;25.050001;-41.7;13.724792;-3.6163177;-2.6294158;-;-;-;-;-;-
1531162912009;-;-;-0.5939649;0.7041358;9.857901;0.018174127;0.0066918014;-0.008981321;-5.4;25.050001;-41.7;13.724792;-3.6163177;-2.6294158;-;-;-;-;-;-
1531162912020;-;-;-0.5460645;0.6993457;10.073453;0.02403308;0.005093905;0.0016713238;-5.8500004;24.6;-39.600002;13.736645;-3.632153;-2.6544886;-;-;-;-;-;-
1531162912029;-;-;-0.5508545;0.6993457;9.862691;0.01178254;-0.01993981;0.009128175;-5.8500004;24.6;-39.600002;13.736645;-3.632153;-2.6544886;-;-;-;-;-;-
1531162912039;-;-;-0.5125342;0.7185059;9.814791;-0.0010006339;-0.014613488;0.0053997496;-5.55;24.45;-40.65;13.734044;-3.6529007;-2.6537373;-;-;-;-;-;-
1531162912050;-;-;-0.5125342;0.79993653;9.857901;-0.020175394;0.010952859;0.0053997496;-5.55;24.45;-40.65;13.734044;-3.6529007;-2.6537373;-;-;-;-;-;-
1531162912060;-;-;-0.5364844;0.728086;9.924961;-0.01911013;0.007224434;0.014454496;-5.8500004;24.300001;-39.300003;13.72461;-3.6598969;-2.638699;-;-;-;-;-;-
1531162912070;-;-;-0.60833496;0.71371585;9.968072;-0.019642761;0.004561273;0.018715555;-5.8500004;24.300001;-39.300003;13.72461;-3.6598969;-2.638699;-;-;-;-;-;-
1531162912081;-;-;-0.52690434;0.6610254;10.025552;-0.011120646;0.0029633762;0.025639774;-6.7500005;24.6;-38.100002;13.715069;-3.6423066;-2.6470513;-;-;-;-;-;-
1531162912092;-;-;-0.52690434;0.6993457;9.968072;-0.0047290595;-0.007156636;0.033629257;-6.7500005;24.6;-38.100002;13.715069;-3.6423066;-2.6470513;-;-;-;-;-;-
1531162912101;-;-;-0.46463382;0.6945557;9.958491;-0.0068595884;3.002151E-4;0.02670504;-6.3;25.800001;-40.65;13.687833;-3.6262553;-2.649564;-;-;-;-;-;-
1531162912111;-;-;-0.45984375;0.6993457;9.8866415;0.005390953;0.013616021;0.022443982;-6.3;25.800001;-40.65;13.687833;-3.6262553;-2.649564;-;-;-;-;-;-
1531162912122;-;-;-0.53169435;0.63707525;9.910591;0.01178254;0.042910792;0.030966097;-6.15;25.35;-40.5;13.655698;-3.6231253;-2.646134;-;-;-;-;-;-
1531162912133;-;-;-0.5460645;0.64186525;9.910591;0.011249907;0.063150816;0.040020842;-6.15;25.35;-40.5;13.655698;-3.6231253;-2.646134;-;-;-;-;-;-
1531162912143;-;-;-0.60354495;0.6993457;10.039923;0.009121325;0.05036342;0.053855628;-4.05;24.6;-40.95;13.621881;-3.633051;-2.6778667;-;-;-;-;-;-
1531162912153;-;-;-0.5029541;0.6706055;9.968072;0.0117844865;0.04024341;0.06291037;-4.05;24.6;-40.95;13.621881;-3.633051;-2.6778667;-;-;-;-;-;-
1531162912164;-;-;-0.34009278;0.6322852;9.958491;0.0075234286;0.040776044;0.063443005;-4.3500004;24.6;-38.850002;13.566504;-3.6475534;-2.7393432;-;-;-;-;-;-
1531162912173;-;-;-0.34009278;0.5556446;10.126143;0.006458164;0.03225393;0.05225773;-4.3500004;24.6;-38.850002;13.566504;-3.6475534;-2.7393432;-;-;-;-;-;-
1531162912183;-;-;-0.34009278;0.52690434;10.039923;0.014980279;0.022666547;0.045333512;-6.4500003;24.6;-39.600002;13.493375;-3.6612685;-2.7833455;-;-;-;-;-;-
1531162912194;-;-;-0.39757326;0.5843848;10.087823;0.019241337;0.012546534;0.024028221;-6.4500003;24.6;-39.600002;13.493375;-3.6612685;-2.7833455;-;-;-;-;-;-
1531162912204;-;-;-0.40715334;0.5508545;10.049502;0.010719221;0.009883373;0.017104002;-4.3500004;25.35;-40.5;13.436871;-3.6774023;-2.8133042;-;-;-;-;-;-
1531162912214;-;-;-0.4023633;0.5604346;9.948912;0.0053928997;-0.00982402;0.020832429;-4.3500004;25.35;-40.5;13.436871;-3.6774023;-2.8133042;-;-;-;-;-;-
1531162912225;-;-;-0.34488282;0.5748047;9.987232;0.0032623706;0.0013612572;0.013375577;-5.55;25.500002;-39.45;13.409792;-3.6958518;-2.8222377;-;-;-;-;-;-
1531162912234;-;-;-0.39757326;0.5556446;9.8866415;-0.0031292161;0.00935074;0.010179783;-5.55;25.500002;-39.45;13.409792;-3.6958518;-2.8222377;-;-;-;-;-;-
1531162912244;-;-;-0.5460645;0.57959473;9.910591;-0.0020639517;0.01893812;-0.0020707576;-6.7500005;24.6;-39.600002;13.390439;-3.7020144;-2.819815;-;-;-;-;-;-
1531162912255;-;-;-0.44547364;0.5748047;9.862691;-0.0041944804;0.012013902;0.009647151;-6.7500005;24.6;-39.600002;13.390439;-3.7020144;-2.819815;-;-;-;-;-;-
1531162912264;-;-;-0.43110353;0.5939649;9.81;-0.007922906;0.023731811;0.0032555647;-5.1000004;25.95;-37.65;13.379585;-3.7012866;-2.8322368;-;-;-;-;-;-
1531162912274;-;-;-0.48379397;0.5748047;9.75731;-0.0111187;0.019470753;0.0069839903;-5.1000004;25.95;-37.65;13.379585;-3.7012866;-2.8322368;-;-;-;-;-;-
1531162912285;-;-;-0.39278322;0.6658155;9.80521;-0.024434505;0.024797076;0.0011250357;-5.55;25.800001;-39.9;13.371444;-3.6965747;-2.8489432;-;-;-;-;-;-
1531162912295;-;-;-0.45505372;0.60354495;9.79563;-0.032956623;0.041841306;-0.008994977;-5.55;25.800001;-39.9;13.371444;-3.6965747;-2.8489432;-;-;-;-;-;-
1531162912305;-;-;-0.488584;0.613125;9.920172;-0.030293461;0.060483437;-0.0036686542;-5.8500004;26.400002;-40.050003;13.363059;-3.6827145;-2.8737113;-;-;-;-;-;-
1531162912316;-;-;-0.5364844;0.6466553;10.116563;-0.019108184;0.053559218;-4.72861E-4;-5.8500004;26.400002;-40.050003;13.363059;-3.6827145;-2.8737113;-;-;-;-;-;-
1531162912326;-;-;-0.5364844;0.5748047;10.025552;-0.009520803;0.04929816;0.009647151;-6.4500003;23.550001;-40.050003;13.367823;-3.6473358;-2.9294124;-;-;-;-;-;-
1531162912335;-;-;-0.53169435;0.6562354;10.092612;0.0011318417;0.063679226;0.016038738;-6.4500003;23.550001;-40.050003;13.367823;-3.6473358;-2.9294124;-;-;-;-;-;-
1531162912345;-;-;-0.41194338;0.53169435;10.054293;0.005925532;0.046635;0.009647151;-5.1000004;23.550001;-39.600002;13.359355;-3.625638;-2.992777;-;-;-;-;-;-
1531162912356;-;-;-0.42152345;0.5029541;10.063872;0.018708706;0.04237394;5.9240346E-4;-3.15;24.150002;-39.9;13.359355;-3.625638;-2.992777;-;-;-;-;-;-
1531162912366;-;-;-0.5987549;0.51732427;10.020762;0.010719221;0.034384456;-0.010060241;-3.15;24.150002;-39.9;13.339275;-3.626419;-3.050956;-;-;-;-;-;-
1531162912376;-;-;-0.5364844;0.6227051;9.944121;0.005925532;0.030123398;-0.0068644476;-4.65;25.500002;-37.5;13.341395;-3.640293;-3.0995958;-;-;-;-;-;-
1531162912386;-;-;-0.57959473;0.5987549;9.963282;0.015512912;0.031188663;-0.0047339187;-4.65;25.500002;-37.5;13.341395;-3.640293;-3.0995958;-;-;-;-;-;-
1531162912397;-;-;-0.5843848;0.5748047;9.901011;0.012317118;0.024264444;0.0021903003;-6.0;25.800001;-40.2;13.348147;-3.652326;-3.132767;-;-;-;-;-;-
1531162912407;-;-;-0.64186525;0.5748047;9.78605;0.006458164;0.05941817;0.0027229325;-6.0;25.800001;-40.2;13.348147;-3.652326;-3.132767;-;-;-;-;-;-
1531162912417;-;-;-0.46942386;0.5748047;9.704619;-0.005792377;0.060483437;0.016038738;-4.65;25.500002;-40.2;13.3462;-3.6671834;-3.174163;-;-;-;-;-;-
1531162912427;-;-;-0.4167334;0.56522465;9.833951;-0.021771345;0.0615487;0.003788197;-4.65;25.500002;-40.2;13.3462;-3.6671834;-3.174163;-;-;-;-;-;-
1531162912438;-;-;-0.488584;0.5125342;9.79563;-0.029760828;0.06261396;-0.011658138;-4.8;24.6;-39.300003;13.332166;-3.6579063;-3.2455018;-;-;-;-;-;-
1531162912447;-;-;-0.49337405;0.5843848;9.948912;-0.033489253;0.062081333;-0.024441311;-4.8;24.6;-39.300003;13.332166;-3.6579063;-3.2455018;-;-;-;-;-;-
1531162912458;-;-;-0.5604346;0.5748047;9.982442;-0.04467453;0.039178144;-0.028702369;-5.55;26.250002;-39.0;13.341429;-3.623432;-3.316076;-;-;-;-;-;-
1531162912468;-;-;-0.6706055;0.6322852;10.001602;-0.039348207;0.03598235;-0.021245519;-5.55;26.250002;-39.0;13.341429;-3.623432;-3.316076;-;-;-;-;-;-
1531162912478;-;-;-0.5221143;0.6179151;10.092612;-0.038815577;0.034384456;-0.017517092;-5.1000004;24.6;-39.600002;13.370615;-3.576104;-3.3754768;-;-;-;-;-;-
1531162912489;-;-;-0.6658155;0.64186525;9.977652;-0.04201137;0.063679226;-0.008994977;-5.1000004;24.6;-39.600002;13.370615;-3.576104;-3.3754768;-;-;-;-;-;-
1531162912499;-;-;-0.6227051;0.60833496;10.083033;-0.023901872;0.06634238;-0.005266551;-6.15;24.300001;-39.300003;13.386376;-3.5303228;-3.427251;-;-;-;-;-;-
1531162912509;-;-;-0.6610254;0.60833496;10.274634;-0.0111187;0.057820275;-0.0068644476;-6.15;24.300001;-39.300003;13.386376;-3.5303228;-3.427251;-;-;-;-;-;-
1531162912519;-;-;-0.6993457;0.5556446;10.207574;0.014980279;0.046635;-0.008462344;-5.55;24.750002;-41.100002;13.388369;-3.5013795;-3.5053575;-;-;-;-;-;-
1531162912530;-;-;-0.6658155;0.68976563;10.025552;0.028828718;0.030123398;-0.012723403;-5.55;24.750002;-41.100002;13.388369;-3.5013795;-3.5053575;-;-;-;-;-;-
1531162912540;-;-;-0.728086;0.68976563;9.948912;0.03149188;0.021601282;-0.011658138;-4.8;24.6;-39.300003;13.391615;-3.5097563;-3.5632865;-;-;-;-;-;-
1531162912551;-;-;-0.76161623;0.6993457;9.82437;0.027763452;0.005622315;-0.0020707576;-4.8;24.6;-39.300003;13.391615;-3.5097563;-3.5632865;-;-;-;-;-;-
1531162912561;-;-;-0.6514453;0.7711963;9.7812605;0.021371866;-0.010889284;0.009647151;-5.8500004;25.650002;-41.25;13.400229;-3.5430853;-3.5878465;-;-;-;-;-;-
1531162912572;-;-;-0.5939649;0.847837;9.6758795;-0.008455539;0.010416005;0.03574613;-5.8500004;25.650002;-41.25;13.400229;-3.5430853;-3.5878465;-;-;-;-;-;-
1531162912582;-;-;-0.50774413;0.82388675;9.68067;-0.02816293;0.017872857;0.041072454;-4.3500004;25.35;-38.4;13.390702;-3.5710359;-3.585272;-;-;-;-;-;-
1531162912592;-;-;-0.51732427;0.5987549;9.829161;-0.043609265;0.02586234;0.039474558;-4.3500004;25.35;-38.4;13.390702;-3.5710359;-3.585272;-;-;-;-;-;-
1531162912603;-;-;-0.38320315;0.5364844;10.044712;-0.051066115;0.026394973;0.013908209;-5.4;25.650002;-39.600002;13.351111;-3.5581381;-3.5934772;-;-;-;-;-;-
1531162912613;-;-;-0.45026368;0.5364844;10.097403;-0.053196646;-0.0018345362;-0.00739708;-5.4;25.650002;-39.600002;13.351111;-3.5581381;-3.5934772;-;-;-;-;-;-
1531162912623;-;-;-0.39278322;0.57001466;10.111773;-0.028695563;-0.008758755;-0.0063318154;-4.8;25.650002;-39.300003;13.31601;-3.5036461;-3.616861;-;-;-;-;-;-
1531162912633;-;-;-0.5125342;0.60354495;10.097403;-0.005259745;-0.0018345362;5.9240346E-4;-4.8;25.650002;-39.300003;13.31601;-3.5036461;-3.616861;-;-;-;-;-;-
1531162912644;-;-;-0.52690434;0.5604346;10.083033;0.013915015;0.017340224;-0.0010054932;-4.05;25.35;-40.050003;13.32094;-3.45422;-3.6136878;-;-;-;-;-;-
1531162912653;-;-;-0.48379397;0.5029541;10.063872;0.03468767;0.025329709;0.005918726;-4.05;25.35;-40.050003;13.32094;-3.45422;-3.6136878;-;-;-;-;-;-
1531162912663;-;-;-0.5939649;0.57959473;10.097403;0.050134007;0.02586234;0.013375577;-5.55;26.250002;-39.9;13.322139;-3.4539502;-3.6161969;-;-;-;-;-;-
1531162912673;-;-;-0.6227051;0.5891748;10.044712;0.09594038;0.053559218;0.016038738;-5.55;26.250002;-39.9;13.322139;-3.4539502;-3.6161969;-;-;-;-;-;-
1531162912684;-;-;-0.5748047;0.4981641;10.073453;0.13482253;0.06740765;0.030419806;-4.8;23.550001;-40.95;13.308852;-3.5073206;-3.645668;-;-;-;-;-;-
1531162912694;-;-;-0.45505372;0.53169435;9.948912;0.14387727;0.077527665;0.041072454;-4.8;23.550001;-40.95;13.308852;-3.5073206;-3.645668;-;-;-;-;-;-
1531162912704;-;-;-0.35925296;0.4167334;9.877061;0.13908358;0.07007081;0.025093487;-5.4;25.650002;-40.050003;13.276479;-3.6322987;-3.708025;-;-;-;-;-;-
1531162912715;-;-;-0.4023633;0.488584;9.73815;0.12523516;0.05728764;0.012842944;-5.4;25.650002;-40.050003;13.276479;-3.6322987;-3.708025;-;-;-;-;-;-
1531162912725;-;-;-0.488584;0.52690434;9.699829;0.077298254;0.026927605;-0.02177815;-5.25;26.85;-39.0;13.232215;-3.796233;-3.7938654;-;-;-;-;-;-
1531162912735;-;-;-0.50774413;0.6179151;9.656719;0.06078665;0.034384456;-0.014853932;-5.1000004;24.6;-40.5;13.232215;-3.796233;-3.7938654;-;-;-;-;-;-
1531162912746;-;-;-0.5939649;0.6945557;9.704619;0.013382383;0.04024341;-0.02657184;-5.1000004;24.6;-40.5;13.226047;-3.921144;-3.846997;-;-;-;-;-;-
1531162912756;-;-;-0.6849756;0.6514453;9.72857;0.00805606;0.055689745;-0.020180253;-5.55;24.750002;-39.9;13.249467;-3.974017;-3.8873768;-;-;-;-;-;-
1531162912766;-;-;-0.8334668;0.76161623;9.872271;-0.014847126;0.058352906;-0.018049724;-5.55;24.750002;-39.9;13.249467;-3.974017;-3.8873768;-;-;-;-;-;-
1531162912777;-;-;-0.8286768;0.7424561;9.8866415;-0.0073902733;0.05036342;-0.012723403;-4.8;25.650002;-40.95;13.2697525;-3.9727929;-3.9525595;-;-;-;-;-;-
1531162912787;-;-;-0.82388675;0.7807764;9.934542;0.0048602675;0.046102364;-0.0026033898;-4.8;25.650002;-40.95;13.2697525;-3.9727929;-3.9525595;-;-;-;-;-;-
1531162912798;-;-;-0.89573735;0.7376661;9.929751;0.014980279;0.04770026;0.004320829;-5.55;26.250002;-39.9;13.277593;-3.9610515;-4.009951;-;-;-;-;-;-
1531162912808;-;-;-0.8286768;0.75203615;9.733359;0.020306602;0.07113608;0.023495588;-5.55;26.250002;-39.9;13.277593;-3.9610515;-4.009951;-;-;-;-;-;-
1531162912819;-;-;-0.728086;0.7951465;9.75252;-9.986872E-4;0.085517146;0.04000719;-3.7500002;24.6;-39.300003;13.265625;-3.9747438;-4.0606585;-;-;-;-;-;-
1531162912828;-;-;-0.728086;0.7951465;9.901011;-0.020173447;0.085517146;0.043735616;-3.7500002;24.6;-39.300003;13.265625;-3.9747438;-4.0606585;-;-;-;-;-;-
1531162912839;-;-;-0.6658155;0.728086;9.848321;-0.040413473;0.059950802;0.053855628;-4.3500004;24.300001;-39.600002;13.218854;-3.980695;-4.1440716;-;-;-;-;-;-
1531162912849;-;-;-0.7424561;0.7424561;9.934542;-0.054794542;0.046102364;0.048529305;-4.3500004;24.300001;-39.600002;13.218854;-3.980695;-4.1440716;-;-;-;-;-;-
1531162912859;-;-;-0.7089258;0.78556645;9.968072;-0.057457704;0.038112883;0.054920893;-4.9500003;24.45;-39.9;13.156073;-3.9448383;-4.221223;-;-;-;-;-;-
1531162912870;-;-;-0.5939649;0.732876;9.992022;-0.057990335;0.02586234;0.06717143;-4.9500003;24.45;-39.9;13.156073;-3.9448383;-4.221223;-;-;-;-;-;-
1531162912880;-;-;-0.613125;0.7089258;9.83874;-0.055859808;0.05409185;0.077291444;-4.05;25.95;-38.850002;13.085902;-3.8846195;-4.2587147;-;-;-;-;-;-
1531162912890;-;-;-0.5987549;0.7711963;9.905801;-0.063849285;0.068472914;0.08687882;-4.05;25.95;-38.850002;13.085902;-3.8846195;-4.2587147;-;-;-;-;-;-
1531162912901;-;-;-0.35925296;0.6706055;9.968072;-0.055327173;0.0913761;0.08634619;-4.3500004;25.35;-39.300003;13.000985;-3.8251538;-4.2970243;-;-;-;-;-;-
1531162912912;-;-;-0.3784131;0.6227051;9.982442;-0.06651245;0.09670242;0.07409565;-4.3500004;25.35;-39.300003;13.000985;-3.8251538;-4.2970243;-;-;-;-;-;-
1531162912922;-;-;-0.3879932;0.6562354;10.121353;-0.05639244;0.09830032;0.06450827;-4.2000003;25.500002;-39.9;12.898489;-3.7612984;-4.379043;-;-;-;-;-;-
1531162912933;-;-;-0.488584;0.6658155;10.327325;-0.043609265;0.09190873;0.05705142;-4.2000003;25.500002;-39.9;12.898489;-3.7612984;-4.379043;-;-;-;-;-;-
1531162912943;-;-;-0.5364844;0.7568262;10.250684;-0.021238713;0.092441365;0.041605085;-3.3000002;25.95;-40.050003;12.812469;-3.7022922;-4.4873295;-;-;-;-;-;-
1531162912953;-;-;-0.57001466;0.7232959;10.226734;-0.014847126;0.06527712;0.047996674;-3.3000002;25.95;-40.050003;12.812469;-3.7022922;-4.4873295;-;-;-;-;-;-
1531162912964;-;-;-0.7041358;0.7185059;10.150093;-0.0073902733;0.060483437;0.04959457;-4.65;25.2;-40.65;12.749594;-3.6647437;-4.5958676;-;-;-;-;-;-
1531162912974;-;-;-0.6658155;0.78556645;10.030342;-0.014847126;0.045037102;0.05438826;-4.65;25.2;-40.65;12.749594;-3.6647437;-4.5958676;-;-;-;-;-;-
1531162912984;-;-;-0.6610254;0.847837;9.7621;-0.019640815;0.022133915;0.065573536;-4.8;25.95;-40.050003;12.694787;-3.6551154;-4.6671653;-;-;-;-;-;-
1531162912995;-;-;-0.7041358;0.82388675;9.70941;-0.038815577;0.010416005;0.06397564;-4.65;26.550001;-41.100002;12.625941;-3.641638;-4.7038336;-;-;-;-;-;-
1531162913004;-;-;-0.7568262;0.9244776;9.508228;-0.061718762;0.014677062;0.060247216;-4.65;26.550001;-41.100002;12.625941;-3.641638;-4.7038336;-;-;-;-;-;-
1531162913015;-;-;-0.9244776;0.98195803;9.522598;-0.06811035;0.029058134;0.07196512;-3.7500002;25.95;-38.4;12.55036;-3.5960214;-4.7073946;-;-;-;-;-;-
1531162913025;-;-;-1.0250684;1.0106983;9.503438;-0.092611425;0.04983079;0.09699883;-3.7500002;25.95;-38.4;12.55036;-3.5960214;-4.7073946;-;-;-;-;-;-
1531162913035;-;-;-1.0059083;1.0442286;9.513018;-0.10273144;0.056222375;0.11351043;-4.05;25.95;-40.050003;12.55036;-3.5960214;-4.7073946;-;-;-;-;-;-
1531162913046;-;-;-1.0490186;1.0633887;9.651929;-0.09101353;0.08391925;0.16038206;-4.05;25.95;-40.050003;12.4615345;-3.5146956;-4.7405086;-;-;-;-;-;-
1531162913055;-;-;-1.0154883;1.0633887;9.632769;-0.08408931;0.08658241;0.17795894;-4.9500003;26.550001;-39.9;12.31049;-3.422577;-4.807877;-;-;-;-;-;-
1531162913065;-;-;-0.96758795;0.9388477;9.733359;-0.06970824;0.121203505;0.20991686;-4.9500003;26.550001;-39.9;12.31049;-3.422577;-4.807877;-;-;-;-;-;-
1531162913076;-;-;-0.8382569;0.8861573;9.877061;-0.05639244;0.13398668;0.21684109;-5.55;27.6;-38.25;12.085073;-3.349;-4.912025;-;-;-;-;-;-
1531162913085;-;-;-0.7089258;0.79993653;10.073453;-0.0276303;0.15635724;0.20512317;-5.55;27.6;-38.25;12.085073;-3.349;-4.912025;-;-;-;-;-;-
1531162913095;-;-;-0.7711963;0.75203615;10.092612;0.0021971061;0.1638141;0.18594842;-5.8500004;25.050001;-39.600002;11.832793;-3.315231;-5.0614586;-;-;-;-;-;-
1531162913106;-;-;-0.8765772;0.7376661;10.269844;0.044807684;0.16434672;0.1641105;-5.8500004;25.050001;-39.600002;11.832793;-3.315231;-5.0614586;-;-;-;-;-;-
1531162913115;-;-;-0.9484278;0.6993457;10.269844;0.06291718;0.1574225;0.15771891;-5.4;26.400002;-40.5;11.615547;-3.3392231;-5.2338347;-;-;-;-;-;-
1531162913125;-;-;-1.1112891;0.74724615;10.317744;0.078363515;0.13292143;0.14546837;-5.4;26.400002;-40.5;11.615547;-3.3392231;-5.2338347;-;-;-;-;-;-
1531162913136;-;-;-1.2358302;0.7759864;10.150093;0.09114669;0.123334035;0.15505575;-4.05;25.35;-39.600002;11.433703;-3.4294107;-5.399118;-;-;-;-;-;-
1531162913146;-;-;-1.2741505;0.8861573;9.929751;0.073038116;0.10522255;0.17475669;-4.05;25.35;-39.600002;11.433703;-3.4294107;-5.399118;-;-;-;-;-;-
1531162913156;-;-;-1.2022998;0.8813672;9.881851;0.06451599;0.10255939;0.19925778;-4.3500004;25.050001;-40.5;11.245779;-3.5473764;-5.5222335;-;-;-;-;-;-
1531162913166;-;-;-1.1543995;0.8765772;9.877061;-4.651356E-4;0.07859094;0.23334624;-4.3500004;25.050001;-40.5;11.245779;-3.5473764;-5.5222335;-;-;-;-;-;-
1531162913177;-;-;-1.2358302;0.8334668;9.968072;-0.031357802;0.043969844;0.23813993;-3.9;25.800001;-39.45;11.008464;-3.618244;-5.61866;-;-;-;-;-;-
1531162913188;-;-;-1.0346485;0.6945557;10.063872;-0.053195726;0.017870862;0.25837997;-3.9;25.800001;-39.45;11.008464;-3.618244;-5.61866;-;-;-;-;-;-
1531162913199;-;-;-0.977168;0.6322852;10.073453;-0.032423068;0.0018918954;0.24879257;-4.9500003;25.800001;-40.2;10.727705;-3.614413;-5.658171;-;-;-;-;-;-
1531162913209;-;-;-0.7568262;0.6322852;10.054293;-0.012183045;-0.019946026;0.23760729;-4.9500003;25.800001;-40.2;10.727705;-3.614413;-5.658171;-;-;-;-;-;-
1531162913220;-;-;-0.6706055;0.67539555;9.877061;0.01072014;-0.019413395;0.22695464;-4.05;25.95;-40.050003;10.442272;-3.5947766;-5.6463785;-;-;-;-;-;-
1531162913230;-;-;-0.56522465;0.6658155;9.75731;0.028829638;-0.026870245;0.1816809;-4.05;25.95;-40.050003;10.442272;-3.5947766;-5.6463785;-;-;-;-;-;-
1531162913241;-;-;-0.56522465;0.8334668;9.580078;0.051732823;-0.003967059;0.14812508;-6.3;26.550001;-41.100002;10.1843815;-3.620375;-5.608105;-;-;-;-;-;-
1531162913250;-;-;-0.79035646;0.9532178;9.546548;0.06824442;0.004555057;0.1252219;-6.3;26.550001;-41.100002;10.1843815;-3.620375;-5.608105;-;-;-;-;-;-
1531162913260;-;-;-0.9484278;1.1687696;9.369317;0.07836443;0.01254454;0.12788506;-6.15;26.7;-40.5;9.993258;-3.68286;-5.5817723;-;-;-;-;-;-
1531162913270;-;-;-1.0442286;1.2022998;9.292676;0.0661139;0.021066656;0.13427664;-6.15;26.7;-40.5;9.993258;-3.68286;-5.5817723;-;-;-;-;-;-
1531162913281;-;-;-1.0873389;1.2549903;9.096285;0.0464065;0.041306682;0.17102826;-4.9500003;26.85;-39.0;9.848974;-3.7823591;-5.580903;-;-;-;-;-;-
1531162913291;-;-;-1.1160791;1.1975098;9.1202345;0.0021980256;0.076460406;0.18647459;-4.9500003;26.85;-39.0;9.848974;-3.7823591;-5.580903;-;-;-;-;-;-
1531162913301;-;-;-1.0681788;1.0585986;9.206455;-0.05639152;0.13078889;0.19765988;-5.8500004;25.95;-40.050003;9.664099;-3.870048;-5.6026125;-;-;-;-;-;-
