TimeStamp[ms];Prox[Cm];Lux[lux];AccX[m/s^2];AccY[m/s^2];AccZ[m/s^2];GyroX[rad/s];GyroY[rad/s];GyroZ[rad/s];MagnX[uT];MagnY[uT];MagnZ[uT];OrienYaw[degrees];OrienPitch[degrees];OrienRoll[degrees];Press[Pa];Temp[C°];Batt[%];Lat;Lng;Speed[m/s]
1531162991214;-;-;-0.6706055;0.4023633;9.79084;-0.05298671;0.053268112;0.0164696;15.450001;57.600002;-41.25;347.59247;-5.606515;-4.628083;-;-;-;-;-;-
1531162991215;-;-;-0.6706055;0.4023633;9.79084;-0.05298671;0.053268112;0.0164696;15.450001;57.600002;-41.25;347.59247;-5.606515;-4.628083;-;-;-;-;-;-
1531162991237;-;-;-0.6945557;0.44547364;9.637559;-0.15258893;-0.0037235357;0.06920019;14.85;58.500004;-43.5;347.55838;-5.5922422;-4.671241;-;-;-;-;-;-
1531162991237;-;-;-0.6945557;0.44547364;9.637559;-0.15258893;-0.0037235357;0.06920019;14.85;58.500004;-43.5;347.55838;-5.5922422;-4.671241;-;-;-;-;-;-
1531162991242;-;-;-0.6227051;0.52690434;9.589659;-0.17495948;-0.027691986;0.07346125;14.85;58.500004;-43.5;347.55838;-5.5922422;-4.671241;-;-;-;-;-;-
1531162991252;-;-;-0.4263135;0.60354495;9.843531;-0.20851532;-0.09853207;0.05961281;13.950001;58.800003;-43.5;347.51672;-5.5035324;-4.7156763;-;-;-;-;-;-
1531162991263;-;-;-0.28261232;0.6849756;10.322535;-0.19147108;-0.17363322;0.03085067;13.950001;58.800003;-43.5;347.51672;-5.5035324;-4.7156763;-;-;-;-;-;-
1531162991273;-;-;-0.07664063;0.6706055;10.619517;-0.10358677;-0.20346063;-0.020282025;14.1;59.7;-41.7;347.4407;-5.319986;-4.678903;-;-;-;-;-;-
1531162991283;-;-;-0.19160157;0.6993457;10.595567;-0.04606249;-0.1880143;-0.042652577;14.1;59.7;-41.7;347.4407;-5.319986;-4.678903;-;-;-;-;-;-
1531162991293;-;-;-0.29698244;0.5748047;10.193204;0.0018744095;-0.19014482;-0.054370485;15.3;56.7;-44.25;347.41986;-5.106141;-4.4967775;-;-;-;-;-;-
1531162991303;-;-;-0.32093263;0.5987549;9.982442;0.002939674;-0.1864164;-0.0479789;15.3;56.7;-44.25;347.41986;-5.106141;-4.4967775;-;-;-;-;-;-
1531162991313;-;-;-0.2921924;0.5412744;9.766891;-0.027952995;-0.16191532;-0.05969681;14.55;56.100002;-41.850002;347.47723;-5.033125;-4.2780027;-;-;-;-;-;-
1531162991323;-;-;-0.35925296;0.5221143;9.718989;-0.048721995;-0.14327858;-0.08420689;14.55;56.100002;-41.850002;347.47723;-5.033125;-4.2780027;-;-;-;-;-;-
1531162991334;-;-;-0.488584;0.45505372;9.465117;-0.095593624;-0.12516908;-0.093794264;16.050001;57.600002;-41.7;347.55847;-5.026335;-4.074665;-;-;-;-;-;-
1531162991344;-;-;-0.6514453;0.50774413;9.402847;-0.16323793;-0.11504907;-0.08047846;16.050001;57.600002;-41.7;347.55847;-5.026335;-4.074665;-;-;-;-;-;-
1531162991354;-;-;-0.6562354;0.5939649;9.527389;-0.23407802;-0.11025538;-0.059705798;14.55;58.500004;-44.25;347.66232;-4.9662437;-3.912562;-;-;-;-;-;-
1531162991365;-;-;-0.60354495;0.52690434;9.7621;-0.28361282;-0.09800484;-0.045324728;13.500001;58.800003;-42.75;347.66232;-4.9662437;-3.912562;-;-;-;-;-;-
1531162991375;-;-;-0.45505372;0.5029541;10.289004;-0.3033202;-0.10705959;-0.025084702;13.500001;58.800003;-42.75;347.76825;-4.782339;-3.785548;-;-;-;-;-;-
1531162991385;-;-;-0.4023633;0.41194338;10.566827;-0.26763386;-0.11664697;-0.027215231;14.1;58.65;-42.45;347.83017;-4.4627576;-3.675255;-;-;-;-;-;-
1531162991395;-;-;-0.2203418;0.5029541;10.768008;-0.15897687;-0.10279853;-0.030411024;14.1;58.65;-42.45;347.83017;-4.4627576;-3.675255;-;-;-;-;-;-
1531162991405;-;-;-0.21555176;0.48379397;10.700948;-0.095061;-0.08309114;-0.046389993;15.3;60.600002;-43.5;347.8689;-4.1382685;-3.549901;-;-;-;-;-;-
1531162991415;-;-;-0.28261232;0.47900394;10.399176;-0.04019988;-0.058057424;-0.044259463;15.3;60.600002;-43.5;347.8689;-4.1382685;-3.549901;-;-;-;-;-;-
1531162991426;-;-;-0.3544629;0.45505372;10.183623;-0.024220912;-0.046872146;-0.03893314;13.650001;58.350002;-42.15;347.92108;-3.9872751;-3.445071;-;-;-;-;-;-
1531162991436;-;-;-0.28740236;0.5412744;10.106983;-0.02368828;-0.043143723;-0.016029954;13.650001;58.350002;-42.15;347.92108;-3.9872751;-3.445071;-;-;-;-;-;-
1531162991446;-;-;-0.25387207;0.51732427;10.150093;-0.031677764;-0.03835003;-0.015497322;14.55;58.050003;-41.850002;347.96973;-3.94628;-3.3897576;-;-;-;-;-;-
1531162991456;-;-;-0.16286133;0.49337405;10.083033;-0.043928307;-0.026632123;-0.04372683;14.55;58.050003;-41.850002;347.96973;-3.94628;-3.3897576;-;-;-;-;-;-
1531162991466;-;-;-0.23471193;0.488584;10.169253;-0.045526203;-0.011185788;-0.051716313;14.55;58.800003;-43.5;347.9947;-3.9126642;-3.3472033;-;-;-;-;-;-
1531162991476;-;-;-0.25387207;0.50774413;10.538086;-0.022623016;-0.024501594;-0.059173163;14.55;58.800003;-43.5;347.9947;-3.9126642;-3.3472033;-;-;-;-;-;-
1531162991487;-;-;-0.18681154;0.4981641;10.629097;0.032770734;0.011717398;-0.04212893;15.450001;57.9;-41.7;348.04694;-3.8615122;-3.3282068;-;-;-;-;-;-
1531162991497;-;-;-0.28261232;0.46942386;10.624307;0.11160031;0.03568585;-0.01762785;15.450001;57.9;-41.7;348.04694;-3.8615122;-3.3282068;-;-;-;-;-;-
1531162991508;-;-;-0.3065625;0.5125342;10.432706;0.15367825;0.027163733;-0.009638367;14.700001;59.4;-41.25;348.098;-3.874718;-3.3317528;-;-;-;-;-;-
1531162991518;-;-;-0.3784131;0.53169435;10.197993;0.20960464;0.005858443;-5.0987815E-5;14.700001;59.4;-41.25;348.098;-3.874718;-3.3317528;-;-;-;-;-;-
1531162991528;-;-;-0.39278322;0.40715334;9.85311;0.20214778;-0.019175272;0.008471128;13.35;58.350002;-44.100002;348.1136;-4.012846;-3.3711748;-;-;-;-;-;-
1531162991538;-;-;-0.2921924;0.5412744;9.704619;0.1760488;-0.025034226;0.0015469089;13.35;58.350002;-44.100002;348.1136;-4.012846;-3.3711748;-;-;-;-;-;-
1531162991549;-;-;-0.28261232;0.5556446;9.69504;0.1446235;-0.025034226;0.0036774378;13.950001;59.100002;-42.300003;348.11353;-4.2413883;-3.368284;-;-;-;-;-;-
1531162991559;-;-;-0.23950197;0.52690434;9.79563;0.1147961;0.0063910754;0.0068732314;13.950001;59.100002;-42.300003;348.11353;-4.2413883;-3.368284;-;-;-;-;-;-
1531162991569;-;-;-0.1580713;0.5460645;9.75731;0.081240274;0.048469022;-0.012301529;12.450001;59.850002;-43.050003;348.1127;-4.4331994;-3.33445;-;-;-;-;-;-
1531162991580;-;-;-0.11496094;0.5412744;9.484278;0.034901265;0.10492804;-0.01496469;12.450001;59.850002;-43.050003;348.1127;-4.4331994;-3.33445;-;-;-;-;-;-
1531162991590;-;-;-0.1580713;0.6227051;9.642349;-0.017296694;0.104395404;-0.021356277;14.55;57.15;-40.65;348.11377;-4.5546336;-3.3498583;-;-;-;-;-;-
1531162991600;-;-;-0.15328126;0.56522465;9.718989;-0.037004087;0.08575328;-0.019758381;14.55;57.15;-40.65;348.11377;-4.5546336;-3.3498583;-;-;-;-;-;-
1531162991610;-;-;-0.2778223;0.5556446;9.987232;-0.03274303;0.04527323;-0.032008924;14.1;58.65;-43.350002;348.12296;-4.590593;-3.4537742;-;-;-;-;-;-
1531162991620;-;-;-0.27303225;0.5460645;10.245894;0.009334919;-0.027164755;-0.04106367;14.1;58.65;-43.350002;348.12296;-4.590593;-3.4537742;-;-;-;-;-;-
1531162991630;-;-;-0.22513184;0.5508545;10.226734;0.061000243;-0.07510166;-0.03893314;14.400001;59.7;-41.7;348.1478;-4.547158;-3.5490503;-;-;-;-;-;-
1531162991640;-;-;-0.24908204;0.5029541;10.030342;0.0998824;-0.10333116;-0.039998405;14.400001;59.7;-41.7;348.1478;-4.547158;-3.5490503;-;-;-;-;-;-
1531162991651;-;-;-0.22992188;0.50774413;9.7621;0.100415036;-0.111320645;-0.039998405;15.150001;57.9;-42.15;348.19244;-4.5547543;-3.5291603;-;-;-;-;-;-
1531162991661;-;-;-0.24908204;0.49337405;9.6758795;0.06898973;-0.09587431;-0.028813127;15.150001;57.9;-42.15;348.19244;-4.5547543;-3.5291603;-;-;-;-;-;-
1531162991671;-;-;-0.22513184;0.51732427;9.651929;0.037564427;-0.06338375;-0.027747864;15.6;58.800003;-43.95;348.24402;-4.6595225;-3.41342;-;-;-;-;-;-
1531162991682;-;-;-0.32572266;0.47900394;9.80521;0.005073861;-0.043676354;-0.02242154;15.6;58.800003;-43.95;348.24402;-4.6595225;-3.41342;-;-;-;-;-;-
1531162991692;-;-;-0.20597169;0.5412744;9.939331;0.005073861;-0.026632123;-0.018160483;13.950001;58.500004;-42.300003;348.28354;-4.7375565;-3.3061619;-;-;-;-;-;-
1531162991702;-;-;-0.2203418;0.5987549;10.015972;0.017324401;-5.114125E-7;-0.028813127;13.950001;58.500004;-42.300003;348.28354;-4.7375565;-3.3061619;-;-;-;-;-;-
1531162991712;-;-;-0.24908204;0.5556446;9.69504;-2.5246112E-4;0.0761659;-0.042661566;13.500001;57.45;-41.550003;348.306;-4.747222;-3.2516167;-;-;-;-;-;-
1531162991722;-;-;-0.2682422;0.6179151;9.541759;-0.027416706;0.0761659;-0.032008924;13.500001;57.45;-41.550003;348.306;-4.747222;-3.2516167;-;-;-;-;-;-
1531162991733;-;-;-0.2921924;0.6610254;9.666299;-0.08334309;0.061252195;-0.016029954;14.250001;58.800003;-41.550003;348.33575;-4.7571445;-3.2594023;-;-;-;-;-;-
1531162991742;-;-;-0.24908204;0.60833496;9.75731;-0.08813678;0.03195742;-0.020823644;14.250001;58.800003;-41.550003;348.33575;-4.7571445;-3.2594023;-;-;-;-;-;-
1531162991752;-;-;-0.14849122;0.5891748;10.0063925;-0.08813678;-0.018110007;-0.03147629;13.500001;59.550003;-41.850002;348.36743;-4.7190695;-3.3471923;-;-;-;-;-;-
1531162991762;-;-;-0.20597169;0.6179151;10.140513;-0.06523359;-0.019707903;-0.046922624;13.500001;59.550003;-41.850002;348.36743;-4.7190695;-3.3471923;-;-;-;-;-;-
1531162991773;-;-;-0.3544629;0.67539555;10.159674;-0.04818936;-0.023968961;-0.05278158;15.450001;58.350002;-42.9;348.3885;-4.6177564;-3.379181;-;-;-;-;-;-
1531162991782;-;-;-0.45026368;0.5843848;10.130933;-0.043395672;-0.03728477;-0.0415963;15.450001;58.350002;-42.9;348.3885;-4.6177564;-3.379181;-;-;-;-;-;-
1531162991792;-;-;-0.40715334;0.5221143;10.236314;-0.01197037;-0.039947927;-0.010703633;14.1;58.350002;-42.9;348.44043;-4.528936;-3.3609712;-;-;-;-;-;-
1531162991802;-;-;-0.35925296;0.50774413;10.250684;0.01412861;-0.03728477;-5.8362004E-4;14.1;58.350002;-42.9;348.44043;-4.528936;-3.3609712;-;-;-;-;-;-
1531162991813;-;-;-0.3161426;0.4981641;10.207574;0.041825484;-0.020240536;0.007405864;15.750001;58.350002;-41.7;348.48764;-4.4840493;-3.3265808;-;-;-;-;-;-
1531162991823;-;-;-0.2778223;0.5029541;10.303374;0.05034251;-0.0117109055;0.015940486;15.750001;58.350002;-41.7;348.48764;-4.4840493;-3.3265808;-;-;-;-;-;-
1531162991833;-;-;-0.28261232;0.5029541;10.106983;0.060462523;0.016518602;0.03138682;14.250001;58.050003;-42.300003;348.49203;-4.496965;-3.287568;-;-;-;-;-;-
1531162991843;-;-;-0.2921924;0.45984375;10.020762;0.06365831;0.021312293;0.047365785;13.05;57.9;-42.9;348.49203;-4.496965;-3.287568;-;-;-;-;-;-
1531162991853;-;-;-0.20597169;0.5029541;9.963282;0.073778324;7.003313E-6;0.061746858;13.05;57.9;-42.9;348.47748;-4.5550847;-3.2788737;-;-;-;-;-;-
1531162991864;-;-;0.0;0.5987549;9.920172;0.07963728;-0.010113009;0.06600791;14.85;59.100002;-42.75;348.47748;-4.5550847;-3.2788737;-;-;-;-;-;-
1531162991874;-;-;0.19160157;0.57959473;9.848321;0.06738674;-0.014374067;0.023397336;14.85;59.100002;-42.75;348.4252;-4.6299706;-3.2967224;-;-;-;-;-;-
1531162991884;-;-;0.14849122;0.613125;9.81;0.053005673;-0.009580377;0.0058204723;14.400001;57.9;-43.65;348.35577;-4.7222695;-3.2782009;-;-;-;-;-;-
1531162991894;-;-;0.09580079;0.5508545;9.82437;0.048744615;-0.0058519514;-0.020278506;14.400001;57.9;-43.65;348.35577;-4.7222695;-3.2782009;-;-;-;-;-;-
1531162991905;-;-;-0.009580079;0.57001466;9.85311;0.042353027;0.008529119;-0.026670093;13.950001;58.500004;-43.5;348.35577;-4.7222695;-3.2782009;-;-;-;-;-;-
1531162991915;-;-;-0.081430666;0.52690434;9.81;0.03383091;-0.012243538;-0.038920633;13.950001;58.500004;-43.5;348.34244;-4.7882123;-3.2557163;-;-;-;-;-;-
1531162991925;-;-;-0.086220704;0.5364844;9.77647;0.029037222;-0.01277617;-0.039453268;13.650001;58.95;-40.95;348.34244;-4.7882123;-3.2557163;-;-;-;-;-;-
1531162991935;-;-;-0.1101709;0.50774413;9.766891;0.008264565;0.04261758;-0.05223644;13.650001;58.95;-40.95;348.37732;-4.8335156;-3.2505271;-;-;-;-;-;-
1531162991945;-;-;-0.14849122;0.51732427;9.704619;2.7508126E-4;0.048476536;-0.045844853;16.35;58.050003;-42.300003;348.4234;-4.86119;-3.2460887;-;-;-;-;-;-
1531162991955;-;-;-0.244292;0.5508545;9.79084;-0.023693368;0.08203237;-0.055432234;16.35;58.050003;-42.300003;348.4234;-4.86119;-3.2460887;-;-;-;-;-;-
1531162991966;-;-;-0.34009278;0.488584;9.814791;-0.026889162;0.078836575;-0.038388003;14.55;57.15;-42.300003;348.4234;-4.86119;-3.2460887;-;-;-;-;-;-
1531162991976;-;-;-0.45984375;0.51732427;9.85311;-0.0071817692;0.023975452;-0.01388692;14.55;57.15;-42.300003;348.4742;-4.8536553;-3.3051486;-;-;-;-;-;-
1531162991986;-;-;-0.39757326;0.5221143;9.800421;0.0018729779;0.011724913;-0.009625862;12.900001;59.550003;-41.850002;348.4742;-4.8536553;-3.3051486;-;-;-;-;-;-
1531162991996;-;-;-0.31135255;0.5364844;9.685459;0.012525623;-0.033016194;0.0010267821;12.900001;59.550003;-41.850002;348.51654;-4.8206577;-3.394321;-;-;-;-;-;-
1531162992006;-;-;-0.17723145;0.53169435;9.651929;0.008797197;-0.03621199;-5.711146E-4;14.85;58.500004;-42.75;348.52603;-4.8197885;-3.4112527;-;-;-;-;-;-
1531162992017;-;-;-0.10538086;0.5891748;9.594449;-0.0034533443;-0.023428816;-0.008560598;14.85;58.500004;-42.75;348.52603;-4.8197885;-3.4112527;-;-;-;-;-;-
1531162992027;-;-;-0.24908204;0.5939649;9.656719;-0.019964943;-0.019167759;-0.028800622;13.650001;58.65;-41.25;348.53052;-4.8326;-3.3750367;-;-;-;-;-;-
1531162992038;-;-;-0.39757326;0.5508545;9.79563;-0.051390246;-0.020233022;-0.038920633;13.650001;58.65;-41.25;348.53052;-4.8326;-3.3750367;-;-;-;-;-;-
1531162992048;-;-;-0.4981641;0.5508545;9.915381;-0.044466026;-0.025559343;-0.027735358;13.650001;56.850002;-43.350002;348.5614;-4.8049254;-3.3488398;-;-;-;-;-;-
1531162992058;-;-;-0.4167334;0.5412744;9.968072;-0.037009176;-0.039407782;-0.00429954;13.650001;56.850002;-43.350002;348.5614;-4.8049254;-3.3488398;-;-;-;-;-;-
1531162992068;-;-;-0.39278322;0.5748047;9.896221;-0.032748118;-0.035146724;0.013277323;14.85;57.45;-43.050003;348.59833;-4.7516894;-3.3243515;-;-;-;-;-;-
1531162992078;-;-;-0.31135255;0.6227051;9.910591;-0.039672334;-0.028755138;0.01966891;14.85;57.45;-43.050003;348.59833;-4.7516894;-3.3243515;-;-;-;-;-;-
1531162992089;-;-;-0.21076173;0.7185059;10.011182;-0.039672334;-0.056452014;0.017538382;13.950001;59.100002;-43.050003;348.603;-4.714345;-3.285978;-;-;-;-;-;-
1531162992098;-;-;-0.19160157;0.63707525;10.068663;-0.029019691;-0.061245702;0.011146794;13.950001;59.100002;-43.050003;348.603;-4.714345;-3.285978;-;-;-;-;-;-
1531162992109;-;-;-0.18681154;0.62749517;10.111773;-0.018367046;-0.054321487;0.017005749;13.500001;59.550003;-41.550003;348.58823;-4.673432;-3.2334225;-;-;-;-;-;-
1531162992119;-;-;-0.12454102;0.71371585;9.996812;-0.022628104;-0.056984644;0.0058204723;13.500001;59.550003;-41.550003;348.58823;-4.673432;-3.2334225;-;-;-;-;-;-
1531162992129;-;-;-0.019160157;0.6466553;9.948912;-0.028487058;-0.03887515;-0.009093231;13.950001;60.15;-42.300003;348.57755;-4.6418858;-3.1654108;-;-;-;-;-;-
1531162992139;-;-;-0.06706055;0.7376661;9.901011;-0.039139703;-0.0021235256;-0.020811139;13.950001;60.15;-42.300003;348.57755;-4.6418858;-3.1654108;-;-;-;-;-;-
1531162992149;-;-;0.014370117;0.7185059;9.958491;-0.046063922;0.0058659576;-0.022409035;14.1;59.4;-43.350002;348.57758;-4.6157517;-3.1067975;-;-;-;-;-;-
1531162992160;-;-;0.086220704;0.6610254;10.068663;-0.051390246;0.0026701645;-0.037322737;14.1;59.4;-43.350002;348.57758;-4.6157517;-3.1067975;-;-;-;-;-;-
1531162992170;-;-;-0.033530276;0.68018556;10.126143;-0.04766182;0.016518602;-0.049040645;14.85;59.550003;-44.25;348.59805;-4.5631194;-3.099106;-;-;-;-;-;-
1531162992180;-;-;-0.20597169;0.68018556;10.135723;-0.038074438;-0.0074498476;-0.052769072;14.85;59.550003;-44.25;348.59805;-4.5631194;-3.099106;-;-;-;-;-;-
1531162992190;-;-;-0.20597169;0.7424561;10.121353;-0.021030208;-0.023428816;-0.04957328;13.500001;59.850002;-40.65;348.64352;-4.50041;-3.1113114;-;-;-;-;-;-
1531162992200;-;-;-0.16286133;0.6562354;10.083033;-0.008247035;-0.013308802;-0.04318169;13.500001;59.850002;-40.65;348.64352;-4.50041;-3.1113114;-;-;-;-;-;-
1531162992211;-;-;-0.1580713;0.6993457;10.063872;-0.0071817692;-0.014374067;-0.034659576;13.950001;58.500004;-43.5;348.70236;-4.455945;-3.113759;-;-;-;-;-;-
1531162992224;-;-;-0.086220704;0.732876;9.929751;-0.010377564;-0.009580377;-0.041051164;14.85;58.050003;-42.300003;348.7554;-4.4399366;-3.0995455;-;-;-;-;-;-
1531162992232;-;-;-0.07664063;0.728086;10.020762;-0.014638621;-0.0058519514;-0.044779588;14.85;58.050003;-42.300003;348.7554;-4.4399366;-3.0995455;-;-;-;-;-;-
1531162992242;-;-;0.023950197;0.732876;9.920172;-0.029552324;-0.0037214223;-0.045312222;14.85;58.050003;-42.300003;348.7554;-4.4399366;-3.0995455;-;-;-;-;-;-
1531162992252;-;-;0.047900394;0.7424561;10.083033;-0.054053407;0.034095466;-0.061291188;14.250001;59.100002;-43.050003;348.80237;-4.4269266;-3.092852;-;-;-;-;-;-
1531162992262;-;-;0.09580079;0.732876;10.078242;-0.046596553;0.05380286;-0.06821541;13.950001;59.100002;-43.95;348.85834;-4.383712;-3.1038873;-;-;-;-;-;-
1531162992272;-;-;0.05269043;0.7232959;10.097403;-0.05511867;0.060194444;-0.07727016;13.950001;59.100002;-43.95;348.85834;-4.383712;-3.1038873;-;-;-;-;-;-
1531162992283;-;-;0.0;0.7951465;10.063872;-0.032215483;0.034628097;-0.073009096;13.950001;59.550003;-41.550003;348.9347;-4.323762;-3.1687222;-;-;-;-;-;-
1531162992293;-;-;-0.023950197;0.7185059;9.896221;-0.01676915;0.027171247;-0.08206385;13.950001;59.550003;-41.550003;348.9347;-4.323762;-3.1687222;-;-;-;-;-;-
1531162992303;-;-;0.023950197;0.6658155;9.848321;-0.014638621;0.02344282;-0.08259647;13.950001;59.550003;-41.550003;348.9347;-4.323762;-3.1687222;-;-;-;-;-;-
1531162992314;-;-;0.009580079;0.732876;9.924961;-0.022095472;-0.015971964;-0.101771235;15.900001;58.500004;-41.850002;349.01575;-4.282526;-3.2258139;-;-;-;-;-;-
1531162992324;-;-;0.033530276;0.7568262;9.862691;-0.023693368;-0.017037228;-0.095912285;13.650001;58.65;-42.15;349.11575;-4.2576523;-3.2459595;-;-;-;-;-;-
1531162992334;-;-;0.038320314;0.7424561;10.015972;-0.023152784;-0.02450582;-0.09113814;13.650001;58.65;-42.15;349.11575;-4.2576523;-3.2459595;-;-;-;-;-;-
1531162992345;-;-;-0.023950197;0.732876;9.939331;-0.005043288;-0.005331061;-0.08794234;13.500001;59.850002;-41.100002;349.22797;-4.2210245;-3.2247005;-;-;-;-;-;-
1531162992355;-;-;0.023950197;0.728086;9.79084;-0.023152784;0.011180538;-0.10125815;13.500001;59.850002;-41.100002;349.22797;-4.2210245;-3.2247005;-;-;-;-;-;-
1531162992365;-;-;-0.009580079;0.6849756;9.642349;-0.02954437;-0.0069289575;-0.10658447;14.400001;59.7;-40.95;349.33627;-4.1965466;-3.2158597;-;-;-;-;-;-
1531162992375;-;-;0.05269043;0.7089258;9.642349;-0.052447557;-0.011722648;-0.11563922;14.400001;59.7;-40.95;349.33627;-4.1965466;-3.2158597;-;-;-;-;-;-
1531162992386;-;-;0.06227051;0.78556645;9.82437;-0.059904408;-0.009059486;-0.11883501;14.250001;58.050003;-41.100002;349.46063;-4.163277;-3.218296;-;-;-;-;-;-
1531162992395;-;-;0.07185059;0.79035646;9.910591;-0.06682862;-0.0063963253;-0.12309607;14.250001;58.050003;-41.100002;349.46063;-4.163277;-3.218296;-;-;-;-;-;-
1531162992405;-;-;-0.07185059;0.76161623;10.087823;-0.054045454;-0.0037331642;-0.12416133;13.35;59.4;-41.7;349.59113;-4.0913086;-3.210147;-;-;-;-;-;-
1531162992416;-;-;-0.06706055;0.7232959;10.059082;-0.021022255;5.2789366E-4;-0.11670448;13.35;59.4;-41.7;349.59113;-4.0913086;-3.210147;-;-;-;-;-;-
1531162992426;-;-;0.043110352;0.7376661;9.963282;-0.009304346;-0.011190015;-0.10232341;12.900001;59.550003;-42.300003;349.73016;-4.0129766;-3.2081773;-;-;-;-;-;-
1531162992436;-;-;0.10538086;0.7711963;9.75731;-0.005043288;-0.020777397;-0.103388675;12.900001;59.550003;-42.300003;349.73016;-4.0129766;-3.2081773;-;-;-;-;-;-
1531162992446;-;-;0.29698244;0.74724615;9.618399;-0.033805426;-0.04101742;-0.11563922;13.35;58.95;-40.95;349.8565;-3.9838848;-3.2073312;-;-;-;-;-;-
1531162992457;-;-;0.31135255;0.7185059;9.627979;-0.06256757;-0.037288997;-0.13055292;13.35;58.95;-40.95;349.8565;-3.9838848;-3.2073312;-;-;-;-;-;-
1531162992466;-;-;0.33530274;0.6849756;9.862691;-0.086003385;-0.055931125;-0.15239084;12.150001;60.600002;-41.850002;349.9838;-3.9570775;-3.1751323;-;-;-;-;-;-
1531162992476;-;-;0.27303225;0.6610254;9.924961;-0.08760128;-0.05752902;-0.1715656;12.150001;60.600002;-41.850002;349.9838;-3.9570775;-3.1751323;-;-;-;-;-;-
1531162992486;-;-;0.21555176;0.53169435;10.097403;-0.076948635;-0.06285534;-0.17902245;14.250001;60.15;-42.300003;350.1441;-3.869781;-3.1133583;-;-;-;-;-;-
1531162992496;-;-;0.17723145;0.50774413;10.150093;-0.068959154;-0.07031219;-0.16570665;14.250001;60.15;-42.300003;350.1441;-3.869781;-3.1133583;-;-;-;-;-;-
1531162992507;-;-;0.12933107;0.5891748;10.217154;-0.045523338;-0.07457325;-0.1534561;14.1;60.000004;-43.350002;350.3423;-3.7625093;-3.0511613;-;-;-;-;-;-
1531162992516;-;-;0.19639161;0.6466553;10.140513;-0.025815945;-0.091084845;-0.14120556;14.1;60.000004;-43.350002;350.3423;-3.7625093;-3.0511613;-;-;-;-;-;-
1531162992526;-;-;0.2778223;0.60833496;10.106983;0.0040114596;-0.0985417;-0.14493398;13.200001;57.45;-42.300003;350.53613;-3.6837018;-2.9766495;-;-;-;-;-;-
1531162992536;-;-;0.3161426;0.62749517;10.039923;0.028512543;-0.083628;-0.15026031;13.200001;57.45;-42.300003;350.53613;-3.6837018;-2.9766495;-;-;-;-;-;-
1531162992547;-;-;0.27303225;0.67539555;9.7812605;0.03224097;-0.07350799;-0.17689192;14.250001;59.550003;-42.300003;350.70596;-3.663692;-2.8842926;-;-;-;-;-;-
1531162992557;-;-;0.19160157;0.6322852;9.623189;0.013066207;-0.04048479;-0.18328351;14.250001;59.550003;-42.300003;350.70596;-3.663692;-2.8842926;-;-;-;-;-;-
1531162992567;-;-;0.06706055;0.6706055;9.6758795;-0.0114348745;-0.036756363;-0.19074036;11.85;61.2;-42.300003;350.89996;-3.6867912;-2.8037968;-;-;-;-;-;-
1531162992578;-;-;0.09101075;0.63707525;9.5561285;-0.037001222;-0.038886894;-0.19340353;11.85;61.2;-42.300003;350.89996;-3.6867912;-2.8037968;-;-;-;-;-;-
1531162992588;-;-;0.033530276;0.62749517;9.532178;-0.057241246;-0.04101742;-0.19446878;13.35;59.7;-42.15;351.12067;-3.6843853;-2.7640107;-;-;-;-;-;-
1531162992598;-;-;0.019160157;0.6945557;9.589659;-0.076948635;-0.03782163;-0.19606668;13.35;59.7;-42.15;351.12067;-3.6843853;-2.7640107;-;-;-;-;-;-
1531162992609;-;-;-0.07185059;0.64186525;9.77647;-0.09559076;-0.049006905;-0.20192564;14.250001;59.550003;-42.75;351.3458;-3.6298897;-2.7319267;-;-;-;-;-;-
1531162992618;-;-;-0.09580079;0.6993457;9.857901;-0.086003385;-0.0506048;-0.21044776;14.250001;59.550003;-42.75;351.3458;-3.6298897;-2.7319267;-;-;-;-;-;-
1531162992628;-;-;-0.21076173;0.6610254;9.948912;-0.08067706;-0.053800594;-0.19872984;13.35;58.95;-41.25;351.57935;-3.5277023;-2.6949384;-;-;-;-;-;-
1531162992639;-;-;-0.22513184;0.7089258;9.953702;-0.06523073;-0.053267963;-0.19500142;13.35;58.95;-41.25;351.57935;-3.5277023;-2.6949384;-;-;-;-;-;-
1531162992649;-;-;-0.25387207;0.60833496;9.867481;-0.050317027;-0.04155005;-0.18594667;14.400001;59.4;-42.15;351.81818;-3.4201276;-2.650077;-;-;-;-;-;-
1531162992659;-;-;-0.3544629;0.62749517;9.79563;-0.06256757;-0.056996386;-0.17795719;14.400001;59.4;-42.15;351.81818;-3.4201276;-2.650077;-;-;-;-;-;-
1531162992669;-;-;-0.3161426;0.63707525;9.623189;-0.08067706;-0.051670067;-0.1731635;12.0;60.750004;-42.45;352.04694;-3.3396583;-2.6097844;-;-;-;-;-;-
1531162992680;-;-;-0.4406836;0.6706055;9.77168;-0.090797074;-0.04794164;-0.17050034;12.0;60.750004;-42.45;352.04694;-3.3396583;-2.6097844;-;-;-;-;-;-
1531162992690;-;-;-0.42152345;0.6562354;9.920172;-0.09878656;-0.050072167;-0.14972769;12.450001;59.850002;-41.100002;352.2532;-3.2518957;-2.562723;-;-;-;-;-;-
1531162992700;-;-;-0.44547364;0.6562354;9.81958;-0.09931919;-0.0506048;-0.14493398;12.0;60.000004;-42.45;352.4433;-3.136782;-2.5169315;-;-;-;-;-;-
1531162992710;-;-;-0.34488282;0.6849756;9.843531;-0.109971836;-0.04155005;-0.13215081;12.0;60.000004;-42.45;352.4433;-3.136782;-2.5169315;-;-;-;-;-;-
1531162992721;-;-;-0.2921924;0.7089258;9.905801;-0.11796132;-0.034625836;-0.12895502;11.400001;58.050003;-42.300003;352.607;-3.0143025;-2.4742615;-;-;-;-;-;-
1531162992731;-;-;-0.21555176;0.6466553;9.987232;-0.13820136;-0.03356057;-0.13215081;11.400001;58.050003;-42.300003;352.607;-3.0143025;-2.4742615;-;-;-;-;-;-
1531162992741;-;-;-0.20597169;0.613125;10.226734;-0.13340767;-0.026103716;-0.1385424;12.900001;59.100002;-41.850002;352.607;-3.0143025;-2.4742615;-;-;-;-;-;-
1531162992752;-;-;-0.35925296;0.56522465;10.303374;-0.116896056;-0.027168982;-0.12309607;12.900001;59.100002;-41.850002;352.75818;-2.8666897;-2.441599;-;-;-;-;-;-
1531162992762;-;-;-0.4023633;0.5556446;10.255474;-0.114765525;-0.019712131;-0.112443425;12.900001;60.9;-42.300003;352.9156;-2.7080982;-2.4112697;-;-;-;-;-;-
1531162992772;-;-;-0.45984375;0.5987549;10.356065;-0.0945255;0.0021257903;-0.07356127;12.900001;60.9;-42.300003;352.9156;-2.7080982;-2.4112697;-;-;-;-;-;-
1531162992782;-;-;-0.34009278;0.7185059;10.126143;-0.08706865;0.015974227;-0.058114935;12.3;60.750004;-42.9;353.0415;-2.5761077;-2.392441;-;-;-;-;-;-
1531162992793;-;-;-0.28261232;0.6993457;9.977652;-0.06736126;0.04739953;-0.04053807;12.3;60.750004;-42.9;353.0415;-2.5761077;-2.392441;-;-;-;-;-;-
1531162992803;-;-;-0.15328126;0.75203615;9.833951;-0.08334023;0.058584806;-0.034146484;12.150001;60.9;-42.300003;353.09952;-2.4775982;-2.419762;-;-;-;-;-;-
1531162992814;-;-;-0.05748047;0.7041358;9.7621;-0.09931919;0.05751954;-0.034679115;12.150001;60.9;-42.300003;353.09952;-2.4775982;-2.419762;-;-;-;-;-;-
1531162992824;-;-;0.014370117;0.76161623;9.81958;-0.10624341;0.058052175;-0.04053807;11.85;60.9;-41.850002;353.13678;-2.3864815;-2.4822521;-;-;-;-;-;-
1531162992834;-;-;-0.09580079;0.7664063;10.0063925;-0.07481493;0.036209553;-0.045872208;11.85;60.9;-41.850002;353.13678;-2.3864815;-2.4822521;-;-;-;-;-;-
1531162992845;-;-;-0.14849122;0.75203615;10.121353;-0.0396612;-0.0037378608;-0.061318543;11.700001;60.000004;-41.25;353.1839;-2.2733839;-2.5487397;-;-;-;-;-;-
1531162992855;-;-;-0.2203418;0.847837;10.289004;0.023189401;-0.058066346;-0.05545959;11.700001;60.000004;-41.25;353.1839;-2.2733839;-2.5487397;-;-;-;-;-;-
1531162992866;-;-;-0.34488282;0.8765772;10.226734;0.098823175;-0.12411275;-0.059720647;11.700001;60.750004;-43.350002;353.24664;-2.2056935;-2.5695558;-;-;-;-;-;-
1531162992877;-;-;-0.6227051;0.8813672;10.274634;0.15794535;-0.22264971;-0.056524854;11.700001;60.750004;-43.350002;353.24664;-2.2056935;-2.5695558;-;-;-;-;-;-
1531162992887;-;-;-0.8813672;0.85741705;10.150093;0.21067594;-0.30787086;-0.040013254;12.0;60.300003;-42.15;353.32202;-2.257223;-2.4765701;-;-;-;-;-;-
1531162992897;-;-;-0.8909473;0.8286768;10.188414;0.23943809;-0.35740566;-0.012316379;12.0;60.300003;-42.15;353.32202;-2.257223;-2.4765701;-;-;-;-;-;-
1531162992908;-;-;-0.9148975;0.79993653;10.025552;0.2543518;-0.33769828;0.040414214;12.150001;60.600002;-41.100002;353.39;-2.4521558;-2.1944091;-;-;-;-;-;-
1531162992918;-;-;-0.728086;0.86220706;9.944121;0.23730756;-0.27165186;0.08195952;12.150001;60.600002;-41.100002;353.39;-2.4521558;-2.1944091;-;-;-;-;-;-
1531162992928;-;-;-0.50774413;0.96758795;9.69504;0.18404433;-0.16086437;0.120841675;12.0;60.300003;-42.45;353.39996;-2.731594;-1.7982316;-;-;-;-;-;-
1531162992938;-;-;-0.45026368;0.9580079;9.503438;0.12758532;-0.10067693;0.122972205;12.0;60.300003;-42.45;353.39996;-2.731594;-1.7982316;-;-;-;-;-;-
1531162992949;-;-;-0.16286133;1.0825489;9.517808;0.029048355;-0.006933654;0.12776591;11.25;60.000004;-42.15;353.31046;-2.9951656;-1.5204989;-;-;-;-;-;-
1531162992959;-;-;-0.07664063;1.1448194;9.536968;-0.022616971;0.007447416;0.12190694;11.25;60.000004;-42.15;353.31046;-2.9951656;-1.5204989;-;-;-;-;-;-
1531162992969;-;-;-0.023950197;1.2597803;9.74294;-0.065227546;-0.008531551;0.08888374;11.85;60.15;-41.550003;353.17285;-3.1166553;-1.4278814;-;-;-;-;-;-
1531162992980;-;-;0.12933107;1.2310401;9.992022;-0.063097015;-0.05753372;0.06598055;12.150001;59.550003;-41.550003;353.04337;-3.0871263;-1.4219298;-;-;-;-;-;-
1531162992990;-;-;0.17723145;1.1879297;10.054293;-0.031671718;-0.1582012;0.017511025;12.150001;59.550003;-41.550003;353.04337;-3.0871263;-1.4219298;-;-;-;-;-;-
1531162993000;-;-;0.14849122;1.1543995;10.150093;-0.009301164;-0.22105181;-0.007522689;12.6;61.050003;-42.15;352.98392;-3.0282454;-1.3170053;-;-;-;-;-;-
1531162993011;-;-;0.32572266;1.0873389;10.049502;0.016265182;-0.3052077;-0.06238381;12.6;61.050003;-42.15;352.98392;-3.0282454;-1.3170053;-;-;-;-;-;-
1531162993022;-;-;0.4023633;1.0298585;10.054293;0.01573255;-0.32704562;-0.09061332;11.700001;60.300003;-41.7;353.01917;-3.031815;-1.0476623;-;-;-;-;-;-
1531162993031;-;-;0.36883304;1.0011182;10.035132;-0.040193833;-0.31426245;-0.14494179;11.700001;60.300003;-41.7;353.01917;-3.031815;-1.0476623;-;-;-;-;-;-
1531162993042;-;-;0.34009278;0.91010743;10.250684;-0.0726844;-0.2870982;-0.17903025;11.400001;59.100002;-41.850002;353.15134;-3.0321133;-0.681945;-;-;-;-;-;-
1531162993052;-;-;0.26345217;0.9580079;10.447076;-0.1073055;-0.22957392;-0.1795629;11.400001;59.100002;-41.850002;353.15134;-3.0321133;-0.681945;-;-;-;-;-;-
1531162993062;-;-;0.1580713;0.9867481;10.542876;-0.10038128;-0.1795065;-0.19713975;11.1;59.550003;-42.75;353.35846;-2.9418573;-0.3685398;-;-;-;-;-;-
1531162993073;-;-;-0.10538086;0.91010743;10.696157;-0.073217034;-0.12890643;-0.18755238;11.1;59.550003;-42.75;353.35846;-2.9418573;-0.3685398;-;-;-;-;-;-
1531162993083;-;-;-0.16286133;0.8909473;10.633887;-0.021019075;-0.06925163;-0.16944288;10.950001;60.750004;-41.7;353.58688;-2.8276863;-0.1706121;-;-;-;-;-;-
1531162993093;-;-;-0.22992188;0.85741705;10.250684;0.047690485;-0.011194712;-0.1284302;10.950001;60.750004;-41.7;353.58688;-2.8276863;-0.1706121;-;-;-;-;-;-
1531162993104;-;-;-0.26345217;0.847837;9.843531;0.08657264;-0.014923138;-0.106059656;11.25;62.100002;-43.350002;353.79138;-2.7968912;-0.092634425;-;-;-;-;-;-
1531162993114;-;-;-0.23950197;1.0298585;9.465117;0.092964225;-0.031434737;-0.08049331;11.25;62.100002;-43.350002;353.79138;-2.7968912;-0.092634425;-;-;-;-;-;-
1531162993124;-;-;-0.20118165;1.0633887;9.278306;0.09669265;-0.068186365;-0.05865538;11.700001;60.750004;-42.45;353.92535;-2.881549;-0.08424127;-;-;-;-;-;-
1531162993135;-;-;-0.16765137;1.1783496;9.206455;0.08710527;-0.11132957;-0.049068;11.700001;60.750004;-42.45;353.92535;-2.881549;-0.08424127;-;-;-;-;-;-
1531162993145;-;-;-0.1341211;1.346001;9.072334;0.08657264;-0.1480812;-0.04214378;10.650001;59.7;-42.15;354.00293;-2.9899807;-0.023294868;-;-;-;-;-;-
1531162993155;-;-;-0.0047900393;1.4130616;9.062755;0.07591999;-0.20027916;-0.04800274;10.650001;59.7;-42.15;354.00293;-2.9899807;-0.023294868;-;-;-;-;-;-
1531162993165;-;-;0.038320314;1.4322218;9.2256155;0.053016808;-0.2524771;-0.05865538;10.650001;60.750004;-43.350002;354.05466;-3.0912454;0.13361032;-;-;-;-;-;-
1531162993175;-;-;-0.12454102;1.5471827;9.441168;0.03916837;-0.32225195;-0.057057485;10.650001;60.750004;-43.350002;354.05466;-3.0912454;0.13361032;-;-;-;-;-;-
1531162993186;-;-;-0.14370118;1.5615528;9.690249;0.037570473;-0.35687304;-0.046937473;12.450001;59.850002;-43.95;354.1266;-3.1688957;0.397099;-;-;-;-;-;-
1531162993196;-;-;-0.086220704;1.5328126;9.910591;0.040233634;-0.39895096;-0.040545885;12.450001;59.850002;-43.95;354.1266;-3.1688957;0.397099;-;-;-;-;-;-
1531162993206;-;-;0.033530276;1.6046631;10.154883;0.05141891;-0.42078888;-0.0341543;9.0;61.500004;-43.050003;354.21384;-3.2549837;0.761178;-;-;-;-;-;-
1531162993217;-;-;0.06706055;1.6669337;10.356065;0.073256835;-0.4026794;-0.030958507;9.0;61.500004;-43.050003;354.21384;-3.2549837;0.761178;-;-;-;-;-;-
1531162993226;-;-;0.21076173;1.6429834;10.312955;0.08018105;-0.33503512;-0.039480623;11.1;60.9;-42.300003;354.28232;-3.3228343;1.2230128;-;-;-;-;-;-
1531162993236;-;-;0.16765137;1.6573536;10.303374;0.062071554;-0.280174;-0.04161115;11.1;60.9;-42.300003;354.28232;-3.3228343;1.2230128;-;-;-;-;-;-
1531162993246;-;-;0.11496094;1.7244141;10.250684;0.038103104;-0.21998654;-0.04214378;9.0;60.9;-45.15;354.34656;-3.4163861;1.6508466;-;-;-;-;-;-
1531162993257;-;-;-0.023950197;1.8058448;10.284214;0.043429427;-0.17844123;-0.043209046;9.0;60.9;-45.15;354.34656;-3.4163861;1.6508466;-;-;-;-;-;-
1531162993267;-;-;0.023950197;1.6573536;10.111773;0.04609259;-0.1566033;-0.03681746;9.0;59.850002;-42.300003;354.41208;-3.4850147;1.9392438;-;-;-;-;-;-
1531162993277;-;-;-0.05269043;1.5950831;9.992022;0.04609259;-0.15873384;-0.028827978;9.0;59.850002;-42.300003;354.41208;-3.4850147;1.9392438;-;-;-;-;-;-
1531162993288;-;-;0.13891114;1.6334034;9.958491;8.188475E-4;-0.18163703;-0.030425875;8.700001;60.9;-43.050003;354.46927;-3.5472436;2.1331332;-;-;-;-;-;-
1531162993299;-;-;0.19160157;1.6573536;10.068663;-0.03699804;-0.19921389;-0.033621665;9.6;59.7;-45.0;354.46927;-3.5472436;2.1331332;-;-;-;-;-;-
1531162993309;-;-;0.2921924;1.4992822;10.432706;-0.063097015;-0.21519285;-0.037350092;9.6;59.7;-45.0;354.51352;-3.5990784;2.3167152;-;-;-;-;-;-
1531162993319;-;-;0.364043;1.4082716;10.648257;-0.070021234;-0.21306233;-0.028827978;8.700001;61.2;-45.9;354.56332;-3.5564656;2.5479534;-;-;-;-;-;-
1531162993329;-;-;0.45984375;1.4226416;10.653048;-0.05936859;-0.20134442;-0.033621665;8.700001;61.2;-45.9;354.56332;-3.5564656;2.5479534;-;-;-;-;-;-
1531162993340;-;-;0.7185059;1.2933106;10.801538;-0.051912695;-0.19814721;-0.050130922;8.85;60.000004;-42.9;354.61673;-3.4876888;2.7828405;-;-;-;-;-;-
1531162993350;-;-;0.92926764;1.1975098;10.801538;-0.058836915;-0.17471139;-0.089545704;8.85;60.000004;-42.9;354.61673;-3.4876888;2.7828405;-;-;-;-;-;-
1531162993360;-;-;0.852627;1.1591895;10.763218;-0.07215272;-0.13636187;-0.110851;7.3500004;60.600002;-43.5;354.69888;-3.4376132;3.0007758;-;-;-;-;-;-
1531162993371;-;-;0.81909674;1.1256592;10.95961;-0.07801168;-0.0607281;-0.11884048;7.3500004;60.600002;-43.5;354.69888;-3.4376132;3.0007758;-;-;-;-;-;-
1531162993381;-;-;0.5843848;1.1256592;11.02188;-0.06309797;-0.037292283;-0.12789522;9.75;60.600002;-43.050003;354.84216;-3.3639927;3.1347795;-;-;-;-;-;-
1531162993391;-;-;0.50774413;1.0442286;10.902129;2.8526096E-4;-0.0074648773;-0.098600455;9.75;60.600002;-43.050003;354.84216;-3.3639927;3.1347795;-;-;-;-;-;-
1531162993401;-;-;0.5221143;1.0585986;10.744058;0.0471569;0.035678335;-0.07569727;8.25;60.000004;-45.75;354.9816;-3.3124468;3.1641414;-;-;-;-;-;-
1531162993412;-;-;0.53169435;1.0825489;10.5620365;0.09456117;0.050059404;-0.050663553;8.25;60.000004;-45.75;354.9816;-3.3124468;3.1641414;-;-;-;-;-;-
1531162993422;-;-;0.6658155;1.101709;10.197993;0.14356333;0.047928873;-0.024031945;9.0;61.500004;-43.5;355.07367;-3.3675284;3.124801;-;-;-;-;-;-
1531162993432;-;-;0.7711963;1.1448194;9.77168;0.18138023;0.019166732;-0.01604246;9.0;61.500004;-43.5;355.07367;-3.3675284;3.124801;-;-;-;-;-;-
1531162993444;-;-;0.79035646;1.1927198;9.517808;0.18191285;-0.023976477;-0.017107725;8.85;61.050003;-43.65;355.10214;-3.5293474;3.072665;-;-;-;-;-;-
1531162993453;-;-;0.97237796;1.2454102;9.335787;0.16380335;-0.09854499;-0.024031945;8.85;61.050003;-43.65;355.10214;-3.5293474;3.072665;-;-;-;-;-;-
1531162993464;-;-;1.2741505;1.1591895;9.182506;0.10148539;-0.20986512;-0.03947828;8.25;60.300003;-43.350002;355.12015;-3.745937;3.0874135;-;-;-;-;-;-
1531162993473;-;-;1.3651612;1.0633887;9.378897;-0.0023779003;-0.34302318;-0.09220887;8.25;60.300003;-43.350002;355.12015;-3.745937;3.0874135;-;-;-;-;-;-
1531162993483;-;-;1.5088624;1.1208692;9.833951;-0.08653379;-0.4090696;-0.14973316;8.25;60.000004;-42.45;355.1747;-3.8851972;3.292413;-;-;-;-;-;-
1531162993495;-;-;1.5423926;0.98195803;10.538086;-0.14299281;-0.41386327;-0.18968056;8.25;60.000004;-42.45;355.1747;-3.8851972;3.292413;-;-;-;-;-;-
1531162993505;-;-;1.5615528;1.0154883;11.02188;-0.15737388;-0.3627306;-0.22589956;8.700001;60.9;-44.7;355.35342;-3.8389485;3.7466812;-;-;-;-;-;-
1531162993515;-;-;1.6381935;0.8765772;11.491304;-0.11902436;-0.25620413;-0.26531434;8.700001;60.9;-44.7;355.35342;-3.8389485;3.7466812;-;-;-;-;-;-
1531162993526;-;-;1.4082716;0.79035646;11.716436;-0.030607408;-0.08096813;-0.29514176;7.2000003;61.050003;-45.300003;355.6223;-3.684793;4.175878;-;-;-;-;-;-
1531162993536;-;-;1.2454102;0.67539555;11.639795;0.08497379;0.031417277;-0.30685964;7.2000003;61.050003;-45.300003;355.6223;-3.684793;4.175878;-;-;-;-;-;-
1531162993546;-;-;0.97237796;0.57959473;11.400293;0.21813184;0.086278394;-0.29460913;7.5000005;60.750004;-43.65;355.96387;-3.621109;4.351887;-;-;-;-;-;-
1531162993556;-;-;0.7568262;0.49337405;10.796748;0.3182667;0.10651842;-0.27543435;7.5000005;60.750004;-43.65;355.96387;-3.621109;4.351887;-;-;-;-;-;-
1531162993567;-;-;0.5843848;0.48379397;10.106983;0.38644361;0.09693103;-0.249868;6.6000004;60.600002;-45.15;356.30414;-3.8146732;4.2642775;-;-;-;-;-;-
1531162993577;-;-;0.5508545;0.5556446;9.83874;0.39230257;0.09266998;-0.21524692;6.6000004;60.600002;-45.15;356.30414;-3.8146732;4.2642775;-;-;-;-;-;-
1531162993588;-;-;0.5748047;0.56522465;9.642349;0.38005203;0.059646785;-0.1721037;7.5000005;59.4;-44.550003;356.60086;-4.231889;4.124838;-;-;-;-;-;-
1531162993598;-;-;0.852627;0.56522465;9.350157;0.37898678;0.046330977;-0.15719;7.5000005;59.4;-44.550003;356.60086;-4.231889;4.124838;-;-;-;-;-;-
1531162993608;-;-;1.101709;0.44547364;9.192085;0.34063727;0.020231998;-0.15346158;5.8500004;61.050003;-44.100002;356.817;-4.687629;4.0207973;-;-;-;-;-;-
1531162993618;-;-;1.22146;0.39278322;9.110655;0.30068985;0.013840412;-0.1523963;7.2000003;58.65;-45.300003;356.98425;-5.1149907;3.9681392;-;-;-;-;-;-
1531162993628;-;-;1.3076807;0.3784131;9.172925;0.23038238;0.009046721;-0.16091843;7.2000003;58.65;-45.300003;356.98425;-5.1149907;3.9681392;-;-;-;-;-;-
1531162993638;-;-;1.331631;0.45026368;9.278306;0.19522865;0.012242516;-0.16784264;6.7500005;59.4;-46.5;357.1635;-5.4379215;3.9414754;-;-;-;-;-;-
1531162993649;-;-;1.4034815;0.45026368;9.354947;0.16273808;0.02555832;-0.18541951;6.7500005;59.4;-46.5;357.1635;-5.4379215;3.9414754;-;-;-;-;-;-
1531162993660;-;-;1.465752;0.3879932;9.374106;0.16540125;0.02555832;-0.19127846;8.55;58.95;-45.0;357.36072;-5.6617723;3.906772;-;-;-;-;-;-
1531162993670;-;-;1.3651612;0.4742139;9.168135;0.1547486;0.042602554;-0.22217113;8.55;58.95;-45.0;357.36072;-5.6617723;3.906772;-;-;-;-;-;-
1531162993680;-;-;1.2502003;0.43110353;9.086704;0.14835702;0.07349522;-0.21791008;7.2000003;59.7;-44.100002;357.58698;-5.8516836;3.8586793;-;-;-;-;-;-
1531162993690;-;-;0.9484278;0.46463382;8.995694;0.14036754;0.07669101;-0.21045323;7.2000003;59.7;-44.100002;357.58698;-5.8516836;3.8586793;-;-;-;-;-;-
1531162993701;-;-;0.85741705;0.60833496;8.717872;0.128117;0.056983624;-0.19767004;7.05;58.800003;-45.9;357.82773;-6.0338235;3.7549899;-;-;-;-;-;-
1531162993711;-;-;0.57959473;0.6514453;8.631651;0.10681171;0.0367436;-0.16624475;7.05;58.800003;-45.9;357.82773;-6.0338235;3.7549899;-;-;-;-;-;-
1531162993721;-;-;0.5748047;0.7711963;8.56459;0.10574644;0.015438308;-0.13748261;7.05;58.500004;-44.25;358.0393;-6.190491;3.6707826;-;-;-;-;-;-
1531162993731;-;-;0.5412744;0.7424561;8.392149;0.09456117;0.014905675;-0.09753519;7.05;58.500004;-44.25;358.0393;-6.190491;3.6707826;-;-;-;-;-;-
1531162993742;-;-;0.6466553;0.8669971;8.368198;0.07059272;-0.0016059229;-0.07729517;6.7500005;60.000004;-42.9;358.19568;-6.318274;3.6294382;-;-;-;-;-;-
1531162993752;-;-;0.6658155;0.9915381;8.296348;0.04502637;-0.010660671;-0.07836043;6.7500005;60.000004;-42.9;358.19568;-6.318274;3.6294382;-;-;-;-;-;-
1531162993762;-;-;0.7376661;1.1783496;8.377779;0.01946002;-0.019715419;-0.07942569;7.05;58.050003;-46.800003;358.29272;-6.411726;3.6118016;-;-;-;-;-;-
1531162993773;-;-;0.7041358;1.2310401;8.49274;-0.006106326;-0.008530142;-0.08315412;7.05;58.050003;-46.800003;358.29272;-6.411726;3.6118016;-;-;-;-;-;-
1531162993783;-;-;0.6179151;1.2837305;8.464;-0.02634635;-0.00799751;-0.08794781;7.8;58.350002;-46.95;358.3854;-6.440313;3.6167054;-;-;-;-;-;-
1531162993794;-;-;0.68018556;1.3172607;8.420889;-0.049782168;-0.019182788;-0.098600455;7.8;58.350002;-46.95;358.3854;-6.440313;3.6167054;-;-;-;-;-;-
1531162993804;-;-;0.6610254;1.3651612;8.435259;-0.09239274;-0.052738614;-0.10126362;7.3500004;58.500004;-45.600002;358.4834;-6.4183965;3.6187553;-;-;-;-;-;-
1531162993814;-;-;0.7232959;1.4418018;8.502319;-0.15044966;-0.15234084;-0.12097101;7.3500004;58.500004;-45.600002;358.4834;-6.4183965;3.6187553;-;-;-;-;-;-
1531162993824;-;-;0.7232959;1.4992822;9.005274;-0.1792118;-0.22744198;-0.13854787;6.7500005;59.4;-46.2;358.60043;-6.341901;3.6524272;-;-;-;-;-;-
1531162993834;-;-;0.71371585;1.4034815;9.4507475;-0.16535588;-0.37499216;-0.15028416;6.7500005;59.4;-46.2;358.60043;-6.341901;3.6524272;-;-;-;-;-;-
1531162993845;-;-;0.6179151;1.3795313;9.85311;-0.1110274;-0.49909547;-0.15241468;7.3500004;57.15;-45.9;358.7782;-6.1603928;3.8774629;-;-;-;-;-;-
1531162993855;-;-;0.57001466;1.3172607;10.130933;-0.05350312;-0.57632715;-0.14655574;7.3500004;57.15;-45.9;358.7782;-6.1603928;3.8774629;-;-;-;-;-;-
1531162993865;-;-;0.52690434;1.22625;10.159674;-0.009294643;-0.5933714;-0.12205464;6.3;58.800003;-44.7;359.0148;-6.022374;4.368491;-;-;-;-;-;-
1531162993876;-;-;0.5125342;1.2885206;10.332115;-0.0039683213;-0.53158605;-0.09542303;6.3;58.800003;-44.7;359.0148;-6.022374;4.368491;-;-;-;-;-;-
1531162993886;-;-;0.4981641;1.2693604;10.360855;-0.017284127;-0.3393058;-0.05227982;5.4;57.9;-45.300003;359.23935;-6.003213;5.0206437;-;-;-;-;-;-
1531162993896;-;-;0.4981641;1.3507911;10.346485;-0.033263095;-0.16406979;-0.0016797571;5.4;57.9;-45.300003;359.23935;-6.003213;5.0206437;-;-;-;-;-;-
1531162993907;-;-;0.5508545;1.4034815;10.054293;-0.06255787;0.12301898;0.0521161;6.7500005;57.9;-45.0;359.37952;-6.001206;5.5266795;-;-;-;-;-;-
1531162993916;-;-;0.5125342;1.4513819;9.70941;-0.0945158;0.2918634;0.07235613;6.7500005;57.9;-45.0;359.37952;-6.001206;5.5266795;-;-;-;-;-;-
1531162993926;-;-;0.6466553;1.5088624;9.513018;-0.17600852;0.47775206;0.1298804;5.25;58.500004;-46.350002;359.35727;-5.9504747;5.5714717;-;-;-;-;-;-
1531162993936;-;-;0.8095166;1.5950831;9.513018;-0.24045703;0.51397103;0.1447941;5.25;58.500004;-46.350002;359.35727;-5.9504747;5.5714717;-;-;-;-;-;-
1531162993947;-;-;0.8861573;1.695674;10.265054;-0.30170974;0.48467627;0.1415983;6.0;59.100002;-46.350002;359.19196;-5.791528;5.14653;-;-;-;-;-;-
1531162993957;-;-;0.89573735;1.8106349;10.499766;-0.3075687;0.41383618;0.13201092;7.3500004;59.550003;-45.600002;359.19196;-5.791528;5.14653;-;-;-;-;-;-
1531162993967;-;-;0.85741705;1.7866846;11.213482;-0.256436;0.26150337;0.11230354;7.3500004;59.550003;-45.600002;358.9704;-5.4664445;4.588306;-;-;-;-;-;-
1531162993978;-;-;0.8143067;1.8729054;11.481724;-0.19944434;0.21303383;0.100053;7.05;58.800003;-45.600002;358.79306;-5.130169;4.2074738;-;-;-;-;-;-
1531162993988;-;-;0.6514453;1.9687061;11.706856;-0.09771159;0.20877276;0.105911955;7.05;58.800003;-45.600002;358.79306;-5.130169;4.2074738;-;-;-;-;-;-
1531162993998;-;-;0.53169435;1.9782863;11.524835;-0.008762011;0.28813496;0.13573936;6.0;59.100002;-46.350002;358.65723;-4.9437876;3.9805012;-;-;-;-;-;-
1531162994009;-;-;0.45505372;2.0453467;11.146421;0.05195806;0.3813456;0.17515413;6.0;59.100002;-46.350002;358.65723;-4.9437876;3.9805012;-;-;-;-;-;-
1531162994018;-;-;0.46463382;2.0118165;10.7871685;0.08018757;0.41277093;0.19699205;7.2000003;58.95;-44.550003;358.46066;-4.9388423;3.6332946;-;-;-;-;-;-
1531162994028;-;-;0.60354495;1.9112257;10.245894;0.09776443;0.46816465;0.23161316;7.2000003;58.95;-44.550003;358.46066;-4.9388423;3.6332946;-;-;-;-;-;-
1531162994039;-;-;0.6562354;1.9830762;10.049502;0.06793703;0.45857728;0.25451636;5.55;58.500004;-45.600002;358.17804;-5.0233493;3.1522143;-;-;-;-;-;-
1531162994049;-;-;0.6610254;2.1124072;9.992022;0.03917489;0.44153306;0.26303846;5.55;58.500004;-45.600002;358.17804;-5.0233493;3.1522143;-;-;-;-;-;-
1531162994059;-;-;0.7424561;2.0022364;10.212363;0.053023327;0.4287499;0.27156058;7.05;59.100002;-45.9;357.84406;-5.094698;2.6677136;-;-;-;-;-;-
1531162994070;-;-;0.8765772;1.8537452;10.269844;0.09936233;0.42715198;0.28381112;7.05;59.100002;-45.9;357.84406;-5.094698;2.6677136;-;-;-;-;-;-
1531162994079;-;-;0.8334668;1.8729054;10.2315235;0.14623398;0.42289093;0.2864743;9.450001;59.550003;-45.600002;357.4872;-5.154829;2.2063053;-;-;-;-;-;-
1531162994089;-;-;0.7089258;1.9399658;9.867481;0.23198776;0.43141305;0.30245325;9.450001;59.550003;-45.600002;357.4872;-5.154829;2.2063053;-;-;-;-;-;-
1531162994100;-;-;0.6514453;2.1315675;9.441168;0.2788594;0.41596672;0.31576905;8.85;59.4;-45.300003;357.10623;-5.3503594;1.7525159;-;-;-;-;-;-
1531162994109;-;-;0.5460645;2.3327491;8.952583;0.27140254;0.35897505;0.2832785;8.85;59.4;-45.300003;357.10623;-5.3503594;1.7525159;-;-;-;-;-;-
1531162994119;-;-;0.4263135;2.2944288;8.847202;0.23518355;0.3003855;0.24173316;10.200001;58.350002;-47.7;356.72562;-5.956505;1.4169564;-;-;-;-;-;-
1531162994130;-;-;0.5029541;1.8920655;8.746612;0.14357081;0.16722746;0.20391628;10.200001;58.350002;-47.7;356.72562;-5.956505;1.4169564;-;-;-;-;-;-
1531162994139;-;-;0.6179151;1.7292042;9.010064;0.088177055;0.046852574;0.18633941;8.700001;59.100002;-45.9;356.43332;-6.21467;1.1573474;-;-;-;-;-;-
1531162994150;-;-;0.8143067;1.2741505;9.541759;0.040772785;-0.12572028;0.17462151;8.700001;59.100002;-45.9;356.43332;-6.21467;1.1573474;-;-;-;-;-;-
1531162994160;-;-;1.0202783;1.1975098;10.068663;0.019467497;-0.2631394;0.15597938;9.3;58.350002;-45.300003;356.22406;-6.291765;1.1898768;-;-;-;-;-;-
1531162994170;-;-;1.0873389;1.0538087;10.490186;0.017336968;-0.35635003;0.10111827;9.3;58.350002;-45.300003;356.22406;-6.291765;1.1898768;-;-;-;-;-;-
1531162994180;-;-;1.1543995;0.93405765;10.724898;0.0077495878;-0.3590132;0.07342139;9.75;58.500004;-47.550003;356.09357;-6.3131027;1.523886;-;-;-;-;-;-
1531162994191;-;-;1.0298585;0.85741705;11.04104;0.0152064385;-0.26953098;0.032408707;9.75;58.500004;-47.550003;356.09357;-6.3131027;1.523886;-;-;-;-;-;-
1531162994201;-;-;0.852627;0.79993653;11.400293;0.065273866;-0.14862345;0.031876076;9.6;58.350002;-46.2;356.0601;-6.3278413;1.9218028;-;-;-;-;-;-
1531162994211;-;-;0.74724615;0.68018556;11.280542;0.10735182;-0.06713072;0.048387673;9.6;58.350002;-46.2;356.0601;-6.3278413;1.9218028;-;-;-;-;-;-
1531162994222;-;-;0.8813672;0.57001466;10.935659;0.1334508;-0.052749652;0.07395402;9.6;57.300003;-46.2;356.03943;-6.3933043;2.1125288;-;-;-;-;-;-
1531162994232;-;-;1.1160791;0.4742139;10.95961;0.122798145;-0.1475582;0.03880029;9.6;57.300003;-46.2;356.03943;-6.3933043;2.1125288;-;-;-;-;-;-
1531162994243;-;-;1.346001;0.48379397;11.194322;0.0956339;-0.24343199;0.005777094;9.6;58.350002;-45.300003;355.97977;-6.542557;2.1952078;-;-;-;-;-;-
1531162994253;-;-;1.5136524;0.32093263;11.635005;0.086046524;-0.29935837;-0.033105057;9.6;58.350002;-45.300003;355.97977;-6.542557;2.1952078;-;-;-;-;-;-
1531162994263;-;-;1.5663428;0.2203418;11.855348;0.096166536;-0.28391203;-0.08210722;8.85;58.350002;-47.4;355.98688;-6.6651525;2.438503;-;-;-;-;-;-
1531162994273;-;-;1.465752;0.038320314;11.951148;0.10362339;-0.22905092;-0.123119906;8.85;58.350002;-47.4;355.98688;-6.6651525;2.438503;-;-;-;-;-;-
1531162994284;-;-;1.1352394;-0.05269043;11.726016;0.116939195;-0.10920867;-0.1641326;9.3;58.350002;-46.5;356.09943;-6.77567;2.76078;-;-;-;-;-;-
1531162994294;-;-;0.7041358;-0.1341211;11.491304;0.11267813;0.039928354;-0.17478524;9.3;58.350002;-46.5;356.09943;-6.77567;2.76078;-;-;-;-;-;-
1531162994304;-;-;0.23950197;-0.20118165;11.122471;0.10894971;0.1810759;-0.1247178;9.6;57.9;-46.5;356.2958;-6.9122796;2.9085886;-;-;-;-;-;-
1531162994314;-;-;-0.06227051;-0.17723145;10.715318;0.1334508;0.33607188;-0.039496645;9.6;57.9;-46.5;356.2958;-6.9122796;2.9085886;-;-;-;-;-;-
1531162994325;-;-;-0.18681154;-0.028740235;10.039923;0.16700663;0.4143688;0.047322407;10.200001;57.600002;-46.5;356.43713;-7.0482607;2.7276738;-;-;-;-;-;-
1531162994335;-;-;-0.14370118;0.20597169;9.536968;0.22825934;0.44526148;0.12881513;10.200001;57.600002;-46.5;356.43713;-7.0482607;2.7276738;-;-;-;-;-;-
1531162994345;-;-;-0.06227051;0.37362307;8.861572;0.29270783;0.39838985;0.1895352;10.8;58.500004;-47.100002;356.34866;-7.0190125;2.1953382;-;-;-;-;-;-
1531162994356;-;-;0.033530276;0.5460645;8.392149;0.31774154;0.33447397;0.20444891;7.05;57.750004;-47.550003;356.10257;-7.2952247;1.7180058;-;-;-;-;-;-
1531162994366;-;-;0.10538086;0.68976563;7.8269243;0.32200262;0.16403167;0.21243839;7.05;57.750004;-47.550003;356.10257;-7.2952247;1.7180058;-;-;-;-;-;-
1531162994376;-;-;0.244292;0.852627;7.6257424;0.28844678;0.05803785;0.19858995;9.75;57.15;-45.600002;355.82706;-7.6552825;1.4751406;-;-;-;-;-;-
1531162994387;-;-;0.41194338;1.0346485;7.7215433;0.20056246;-0.11080657;0.14745726;9.75;57.15;-45.600002;355.82706;-7.6552825;1.4751406;-;-;-;-;-;-
1531162994397;-;-;0.5125342;0.9915381;7.8412943;0.15954977;-0.15181924;0.12561934;10.05;57.15;-46.800003;355.82706;-7.6552825;1.4751406;-;-;-;-;-;-
1531162994407;-;-;0.56522465;0.96758795;8.401729;0.08178546;-0.17685296;0.07395402;10.05;57.15;-46.800003;355.62936;-7.938632;1.5293593;-;-;-;-;-;-
1531162994417;-;-;0.4981641;0.977168;8.59333;0.059947547;-0.1757877;0.062236108;11.400001;56.4;-45.9;355.54236;-8.076854;1.7419248;-;-;-;-;-;-
1531162994427;-;-;0.35925296;0.8861573;8.966953;0.023728555;-0.11560026;0.03134344;11.400001;56.4;-45.9;355.54236;-8.076854;1.7419248;-;-;-;-;-;-
1531162994438;-;-;0.34967285;0.90052736;9.043594;0.016271705;-0.07778337;0.03134344;8.55;55.95;-46.95;355.51514;-8.123169;1.9194922;-;-;-;-;-;-
1531162994448;-;-;0.3305127;0.9532178;9.268726;0.022130659;-0.03570542;0.03773503;8.55;55.95;-46.95;355.51514;-8.123169;1.9194922;-;-;-;-;-;-
1531162994459;-;-;0.34488282;0.8430469;9.340576;0.040772785;0.017025169;0.04572451;10.05;57.15;-46.800003;355.49112;-8.14174;1.9974544;-;-;-;-;-;-
1531162994469;-;-;0.33530274;0.9580079;9.350157;0.0807202;0.05803785;0.06436664;10.05;57.15;-46.800003;355.49112;-8.14174;1.9974544;-;-;-;-;-;-
1531162994480;-;-;0.45984375;1.0346485;9.177715;0.10415602;0.0654947;0.05957295;9.6;56.850002;-48.15;355.4256;-8.19009;1.978323;-;-;-;-;-;-
1531162994490;-;-;0.5939649;1.1639795;9.096285;0.12013499;0.061766274;0.043061353;9.6;56.850002;-48.15;355.4256;-8.19009;1.978323;-;-;-;-;-;-
1531162994500;-;-;0.6322852;1.2933106;8.957374;0.11853709;0.06922313;0.0137665775;9.0;56.100002;-48.0;355.3505;-8.303588;1.9168702;-;-;-;-;-;-
1531162994511;-;-;0.4742139;1.4705421;8.703502;0.08444863;0.0804084;-0.0011471249;9.0;56.100002;-48.0;355.3505;-8.303588;1.9168702;-;-;-;-;-;-
1531162994520;-;-;0.47900394;1.5471827;8.617281;0.050360166;0.08094104;-0.015528195;9.75;56.7;-48.45;355.3203;-8.428131;1.8425877;-;-;-;-;-;-
1531162994531;-;-;0.49337405;1.5998731;8.655601;-0.0066314824;0.08307157;-0.025115576;9.75;56.7;-48.45;355.3203;-8.428131;1.8425877;-;-;-;-;-;-
1531162994541;-;-;0.42152345;1.6286134;8.679551;-0.052970488;0.07827787;-0.037366115;9.3;56.550003;-48.600002;355.3282;-8.473308;1.7515613;-;-;-;-;-;-
1531162994551;-;-;0.3879932;1.6765138;8.717872;-0.08546105;0.070821024;-0.049084023;9.3;56.550003;-48.600002;355.3282;-8.473308;1.7515613;-;-;-;-;-;-
1531162994562;-;-;0.44547364;1.7818946;8.904683;-0.11315793;0.014362007;-0.061867196;10.05;56.100002;-48.750004;355.35928;-8.420995;1.649609;-;-;-;-;-;-
1531162994572;-;-;0.42152345;1.8202149;9.101074;-0.13233268;-0.036770687;-0.053877715;10.05;56.100002;-48.750004;355.35928;-8.420995;1.649609;-;-;-;-;-;-
1531162994582;-;-;0.46463382;1.8154249;9.259146;-0.1360611;-0.08044653;-0.061867196;9.3;56.850002;-48.15;355.41928;-8.302715;1.609327;-;-;-;-;-;-
1531162994593;-;-;0.68976563;1.9399658;9.469908;-0.15523587;-0.10441498;-0.081041954;9.3;56.850002;-48.15;355.41928;-8.302715;1.609327;-;-;-;-;-;-
1531162994603;-;-;0.74724615;1.9878663;9.867481;-0.15310533;-0.11346973;-0.101281986;10.950001;55.500004;-48.600002;355.4971;-8.150145;1.6721282;-;-;-;-;-;-
1531162994614;-;-;0.79993653;1.9064356;9.977652;-0.14884429;-0.12252448;-0.14815363;10.950001;55.500004;-48.600002;355.4971;-8.150145;1.6721282;-;-;-;-;-;-
1531162994623;-;-;0.6993457;1.9447559;10.135723;-0.1392569;-0.10867604;-0.17212208;9.75;55.65;-47.100002;355.62936;-7.9848332;1.7885232;-;-;-;-;-;-
1531162994633;-;-;0.68018556;1.9112257;10.188414;-0.14138743;-0.0799139;-0.19342737;9.75;55.65;-47.100002;355.62936;-7.9848332;1.7885232;-;-;-;-;-;-
1531162994644;-;-;0.5891748;1.7435743;10.207574;-0.17494325;-0.055412814;-0.18650314;10.950001;57.300003;-47.4;355.83154;-7.828631;1.885779;-;-;-;-;-;-
1531162994653;-;-;0.63707525;1.7866846;10.255474;-0.20264013;-0.040499114;-0.19822106;10.950001;57.300003;-47.4;355.83154;-7.828631;1.885779;-;-;-;-;-;-
1531162994663;-;-;0.7376661;1.6046631;10.3512745;-0.23726124;-0.019193824;-0.1923621;10.05;56.100002;-47.550003;356.0567;-7.6501026;1.9286671;-;-;-;-;-;-
1531162994674;-;-;0.90052736;1.3986914;10.523716;-0.26921916;-0.0069432827;-0.20834106;10.05;56.100002;-47.550003;356.0567;-7.6501026;1.9286671;-;-;-;-;-;-
1531162994683;-;-;0.8813672;1.4034815;10.734478;-0.29691604;0.015427271;-0.2205916;11.1;57.45;-48.750004;356.28525;-7.393004;1.9299947;-;-;-;-;-;-
1531162994693;-;-;0.7041358;1.3843213;10.806329;-0.30224237;0.059103113;-0.21473266;11.1;57.45;-48.750004;356.28525;-7.393004;1.9299947;-;-;-;-;-;-
1531162994704;-;-;0.39757326;1.2022998;11.064991;-0.266556;0.08466946;-0.18756841;9.75;57.15;-46.800003;356.5307;-7.070972;1.8800695;-;-;-;-;-;-
1531162994715;-;-;0.3065625;1.2022998;11.151212;-0.20956436;0.09745263;-0.14815363;9.75;57.15;-46.800003;356.5307;-7.070972;1.8800695;-;-;-;-;-;-
1531162994725;-;-;0.119750984;1.3507911;11.165582;-0.13073479;0.077745244;-0.0932925;10.5;57.45;-48.750004;356.7432;-6.75928;1.7624971;-;-;-;-;-;-
1531162994734;-;-;0.22513184;1.2933106;11.098521;-0.04125258;-0.0053453855;-0.022452414;10.5;57.45;-48.750004;356.7432;-6.75928;1.7624971;-;-;-;-;-;-
1531162994745;-;-;0.31135255;1.2645704;11.031461;0.06953493;-0.15448241;0.024951855;11.25;57.300003;-48.15;356.84537;-6.59362;1.6636307;-;-;-;-;-;-
1531162994755;-;-;0.5748047;1.1879297;10.839859;0.12226552;-0.22106144;0.05477926;10.05;57.45;-47.100002;356.8543;-6.60421;1.7208581;-;-;-;-;-;-
1531162994765;-;-;0.81909674;1.0825489;10.581197;0.16434348;-0.29083627;0.075019285;10.05;57.45;-47.100002;356.847;-6.630775;1.7733397;-;-;-;-;-;-
1531162994775;-;-;0.9627979;1.096919;10.466236;0.17872454;-0.299891;0.062236108;9.900001;56.850002;-47.7;356.8166;-6.752878;1.9994056;-;-;-;-;-;-
1531162994786;-;-;0.97237796;1.2310401;10.293795;0.16860452;-0.2700636;0.026017118;9.900001;56.850002;-47.7;356.8068;-6.8016863;2.0861433;-;-;-;-;-;-
1531162994796;-;-;0.92926764;1.2406201;10.130933;0.15315819;-0.2551499;0.014831841;10.950001;57.300003;-48.600002;356.79346;-6.951734;2.339301;-;-;-;-;-;-
1531162994807;-;-;0.91010743;1.1064991;10.102193;0.10948234;-0.21946354;-0.018723989;10.950001;57.300003;-48.600002;356.7961;-6.999684;2.4166067;-;-;-;-;-;-
1531162994816;-;-;0.9867481;1.0585986;10.111773;0.0972318;-0.2237246;-0.0070060794;11.700001;57.600002;-48.15;356.81628;-7.121049;2.6215978;-;-;-;-;-;-
1531162994826;-;-;1.4274317;0.8861573;10.188414;0.07486125;-0.28284678;-0.030441897;11.700001;57.600002;-48.15;356.82886;-7.152451;2.6836412;-;-;-;-;-;-
1531162994836;-;-;1.8010547;0.79993653;10.073453;0.03172472;-0.33079353;-0.07839521;7.65;57.15;-49.65;356.86966;-7.2328677;2.8943572;-;-;-;-;-;-
1531162994847;-;-;2.1124072;0.732876;10.538086;-0.11794493;-0.3664799;-0.2222059;7.65;57.15;-49.65;356.89453;-7.25102;2.9791558;-;-;-;-;-;-
1531162994857;-;-;1.8872755;0.5987549;10.94045;-0.19304608;-0.3313262;-0.31168813;9.6;58.350002;-48.600002;357.1235;-7.195607;3.399553;-;-;-;-;-;-
1531162994868;-;-;1.4370118;0.33530274;11.692486;-0.24204825;-0.2311913;-0.36867976;9.6;58.350002;-48.600002;357.1235;-7.195607;3.399553;-;-;-;-;-;-
1531162994878;-;-;1.092129;0.20597169;11.941567;-0.20369872;-0.16940598;-0.3787998;7.9500003;56.100002;-48.45;357.55084;-6.9708743;3.6776562;-;-;-;-;-;-
1531162994888;-;-;0.5412744;0.038320314;11.898458;-0.060420655;-0.03624792;-0.3063618;7.9500003;56.100002;-48.45;357.55084;-6.9708743;3.6776562;-;-;-;-;-;-
1531162994898;-;-;0.41194338;0.0;11.706856;0.012549958;0.034059536;-0.2435112;7.5000005;56.250004;-49.050003;357.97565;-6.821239;3.7667775;-;-;-;-;-;-
1531162994909;-;-;0.6514453;0.12933107;10.94045;0.11055429;0.11821543;-0.13645212;7.5000005;56.250004;-49.050003;357.97565;-6.821239;3.7667775;-;-;-;-;-;-
1531162994918;-;-;0.7376661;0.19160157;10.590776;0.12440273;0.1475102;-0.109820515;7.05;58.500004;-49.65;358.17413;-6.8524704;3.707054;-;-;-;-;-;-
1531162994928;-;-;0.9867481;0.64186525;9.81;0.12600063;0.19171867;-0.06454677;7.05;58.500004;-49.65;358.21298;-6.8846893;3.670432;-;-;-;-;-;-
1531162994938;-;-;1.2645704;0.8286768;9.685459;0.12280483;0.21568713;-0.074134156;9.75;57.45;-49.95;358.2895;-7.0331993;3.472526;-;-;-;-;-;-
1531162994949;-;-;1.6094532;0.89573735;9.158555;0.112684816;0.19757763;-0.11887526;9.75;57.45;-49.95;358.2895;-7.0331993;3.472526;-;-;-;-;-;-
1531162994958;-;-;1.695674;1.0346485;8.871153;0.10842376;0.20503448;-0.15775742;7.65;57.15;-48.750004;358.3532;-7.169716;3.2393665;-;-;-;-;-;-
1531162994968;-;-;1.5711329;1.1543995;8.54064;0.051432114;0.2119587;-0.25203332;7.65;57.15;-48.750004;358.3532;-7.169716;3.2393665;-;-;-;-;-;-
1531162994979;-;-;1.4226416;1.1927198;8.305928;0.019474177;0.21941555;-0.3079597;7.65;58.050003;-46.800003;358.5375;-7.2773886;2.9898376;-;-;-;-;-;-
1531162994989;-;-;1.0825489;1.1783496;8.167017;-0.045506954;0.20343658;-0.34790713;7.65;58.050003;-46.800003;358.5375;-7.2773886;2.9898376;-;-;-;-;-;-
1531162995000;-;-;0.8286768;1.21188;8.090376;-0.08279121;0.19278394;-0.36601663;7.8;57.300003;-50.250004;358.85968;-7.296445;2.6984923;-;-;-;-;-;-
1531162995009;-;-;0.5987549;1.1831397;8.123906;-0.09557438;0.19278394;-0.36175555;7.8;57.300003;-50.250004;358.85968;-7.296445;2.6984923;-;-;-;-;-;-
1531162995020;-;-;0.40715334;1.1448194;8.286768;-0.09237859;0.1805334;-0.3345913;9.3;57.9;-48.15;359.24524;-7.222445;2.4261742;-;-;-;-;-;-
1531162995030;-;-;0.32093263;1.2022998;8.301138;-0.07853015;0.16135864;-0.29570916;9.3;57.9;-48.15;359.24524;-7.222445;2.4261742;-;-;-;-;-;-
1531162995040;-;-;0.40715334;1.2358302;8.334668;-0.05935539;0.13153124;-0.26215333;8.25;57.600002;-49.050003;359.59088;-7.1285977;2.1805837;-;-;-;-;-;-
1531162995051;-;-;0.3784131;1.1783496;8.349038;-0.031125883;0.077202745;-0.22433645;8.25;57.600002;-49.050003;359.59088;-7.1285977;2.1805837;-;-;-;-;-;-
1531162995060;-;-;0.5412744;1.2981006;8.200547;-0.029527988;0.03725533;-0.22114065;8.55;56.850002;-47.7;359.86902;-7.0784535;2.0045617;-;-;-;-;-;-
1531162995070;-;-;0.5029541;1.3076807;8.190968;-0.060420655;-0.0026920878;-0.20249853;8.55;56.850002;-47.7;359.86902;-7.0784535;2.0045617;-;-;-;-;-;-
1531162995081;-;-;0.5221143;1.3603711;8.281978;-0.07480173;-0.014942629;-0.20090063;9.6;56.550003;-49.050003;0.10637218;-7.0466585;1.9316572;-;-;-;-;-;-
1531162995090;-;-;0.44547364;1.3747413;8.387359;-0.1056944;-0.013344732;-0.18279113;9.6;56.550003;-49.050003;0.10637218;-7.0466585;1.9316572;-;-;-;-;-;-
1531162995100;-;-;0.4167334;1.3986914;8.57896;-0.12913021;0.0052973954;-0.17373638;8.85;56.250004;-49.350002;0.33287373;-6.959621;1.9212843;-;-;-;-;-;-
1531162995111;-;-;0.2921924;1.4465919;8.665181;-0.14457655;0.045777444;-0.15722477;8.85;56.250004;-49.350002;0.33287373;-6.959621;1.9212843;-;-;-;-;-;-
1531162995121;-;-;0.20597169;1.465752;8.57417;-0.14510918;0.06122378;-0.14550687;8.400001;57.15;-48.750004;0.52629364;-6.8182354;1.8870595;-;-;-;-;-;-
1531162995131;-;-;0.043110352;1.6286134;8.617281;-0.14031549;0.096910134;-0.11088578;8.400001;57.15;-48.750004;0.52629364;-6.8182354;1.8870595;-;-;-;-;-;-
1531162995142;-;-;-0.12454102;1.5807129;8.58854;-0.14510918;0.09371434;-0.084786795;9.0;58.500004;-48.750004;0.67445755;-6.655754;1.7880204;-;-;-;-;-;-
1531162995152;-;-;-0.35925296;1.6860938;8.756192;-0.13019548;0.059625883;-0.038980424;9.0;58.500004;-48.750004;0.67445755;-6.655754;1.7880204;-;-;-;-;-;-
1531162995162;-;-;-0.45026368;1.6765138;9.043594;-0.097172275;0.01595004;0.024935441;9.6;58.95;-49.350002;0.7628003;-6.4969525;1.6780319;-;-;-;-;-;-
1531162995173;-;-;-0.46942386;1.8250049;9.474698;-0.04071326;-0.059683736;0.095242895;9.6;58.95;-49.350002;0.7628003;-6.4969525;1.6780319;-;-;-;-;-;-
1531162995183;-;-;-0.18681154;1.9208057;9.881851;0.06048686;-0.12999119;0.14850612;8.25;58.350002;-48.15;0.73808897;-6.393037;1.6540333;-;-;-;-;-;-
1531162995193;-;-;0.05748047;1.9926564;9.867481;0.13132694;-0.1417091;0.16022402;9.0;58.500004;-49.2;0.6423328;-6.4465837;1.713256;-;-;-;-;-;-
1531162995203;-;-;0.22992188;1.9639161;9.83874;0.19790597;-0.16727544;0.15436508;9.0;58.500004;-49.2;0.6022127;-6.475705;1.7574725;-;-;-;-;-;-
1531162995213;-;-;0.22513184;1.9591261;9.623189;0.21867864;-0.1646123;0.14584295;7.3500004;59.100002;-48.750004;0.6022127;-6.475705;1.7574725;-;-;-;-;-;-
1531162995227;-;-;0.35925296;1.8345851;9.570498;0.18299228;-0.13425225;0.11495029;7.3500004;59.100002;-48.750004;0.4451063;-6.684246;1.9591739;-;-;-;-;-;-
