TimeStamp[ms];Prox[Cm];Lux[lux];AccX[m/s^2];AccY[m/s^2];AccZ[m/s^2];GyroX[rad/s];GyroY[rad/s];GyroZ[rad/s];MagnX[uT];MagnY[uT];MagnZ[uT];OrienYaw[degrees];OrienPitch[degrees];OrienRoll[degrees];Press[Pa];Temp[C°];Batt[%];Lat;Lng;Speed[m/s]
1531163255459;-;-;-0.34967285;0.82388675;10.308165;-0.053281337;0.12765491;0.003791358;-6.3;23.85;-40.65;11.583511;-5.351857;-1.5136254;-;-;-;-;-;-
1531163255458;-;-;-0.34967285;0.82388675;10.308165;-0.05860766;0.13724229;-0.0020675964;-6.3;23.85;-40.65;11.583511;-5.351857;-1.5136254;-;-;-;-;-;-
1531163255478;-;-;-0.30177248;0.9963282;10.207574;-0.030910783;0.08184854;0.017107164;-6.3;24.45;-39.45;11.55057;-5.296924;-1.6193956;-;-;-;-;-;-
1531163255478;-;-;-0.30177248;0.9963282;10.207574;-0.030910783;0.08184854;0.017107164;-6.3;24.45;-39.45;11.55057;-5.296924;-1.6193956;-;-;-;-;-;-
1531163255482;-;-;-0.24908204;0.9244776;10.183623;-0.017062346;0.08078328;0.014444002;-6.3;24.45;-39.45;11.55057;-5.296924;-1.6193956;-;-;-;-;-;-
1531163255493;-;-;-0.18681154;0.9580079;10.097403;-0.009072863;0.07865275;0.014444002;-7.2000003;25.050001;-40.050003;11.537019;-5.2352667;-1.7656544;-;-;-;-;-;-
1531163255503;-;-;-0.27303225;0.8143067;10.0063925;-0.026117094;0.047227442;0.012313473;-7.2000003;25.050001;-40.050003;11.537019;-5.2352667;-1.7656544;-;-;-;-;-;-
1531163255513;-;-;-0.24908204;0.8382569;10.025552;-0.026649725;0.028585317;0.0059218863;-5.55;24.150002;-40.65;11.514063;-5.204472;-1.8668057;-;-;-;-;-;-
1531163255524;-;-;-0.12454102;0.8334668;9.939331;-0.036237106;0.018997936;-0.010589712;-5.55;24.150002;-40.65;11.514063;-5.204472;-1.8668057;-;-;-;-;-;-
1531163255534;-;-;-0.22992188;0.7232959;10.0063925;-0.03996553;0.0051494977;-0.030297104;-6.6000004;24.750002;-39.9;11.492231;-5.1813498;-1.9320252;-;-;-;-;-;-
1531163255544;-;-;-0.41194338;0.8286768;9.968072;-0.04955291;-0.01349263;-0.04627607;-6.6000004;24.750002;-39.9;11.492231;-5.1813498;-1.9320252;-;-;-;-;-;-
1531163255554;-;-;-0.5556446;1.0729688;9.982442;-0.02771499;-0.009231572;-0.033492897;-5.55;25.2;-40.65;11.496287;-5.144475;-1.9552709;-;-;-;-;-;-
1531163255565;-;-;-0.6514453;1.0585986;10.097403;0.0026450467;0.018997936;-4.6969973E-4;-5.55;25.2;-40.65;11.496287;-5.144475;-1.9552709;-;-;-;-;-;-
1531163255575;-;-;-0.6179151;0.977168;10.025552;0.01542822;0.029650582;0.014976635;-6.6000004;24.750002;-40.2;11.542084;-5.095943;-1.962342;-;-;-;-;-;-
1531163255585;-;-;-0.44547364;0.92926764;9.982442;0.046853524;0.049890604;0.028825074;-6.6000004;24.750002;-40.2;11.542084;-5.095943;-1.962342;-;-;-;-;-;-
1531163255595;-;-;-0.32572266;0.8430469;9.963282;0.046853524;0.05628219;0.02562928;-7.65;24.750002;-39.0;11.560557;-5.0684276;-1.9706762;-;-;-;-;-;-
1531163255605;-;-;-0.1820215;0.7376661;9.953702;0.050581947;0.052553765;0.014444002;-7.65;24.750002;-39.0;11.560557;-5.0684276;-1.9706762;-;-;-;-;-;-
1531163255616;-;-;-0.20597169;0.732876;9.982442;0.039929304;0.02698742;0.0053892545;-6.7500005;24.300001;-39.600002;11.529529;-5.103697;-2.0072298;-;-;-;-;-;-
1531163255626;-;-;-0.4023633;0.8143067;9.939331;0.03247245;0.012606349;-0.0026002286;-6.7500005;24.300001;-39.600002;11.529529;-5.103697;-2.0072298;-;-;-;-;-;-
1531163255636;-;-;-0.41194338;0.8909473;9.953702;0.012232427;0.0030189687;-0.009524448;-5.55;25.2;-39.9;11.493207;-5.1598926;-2.0673885;-;-;-;-;-;-
1531163255646;-;-;-0.45026368;0.89573735;9.82437;0.006373472;-0.017753687;0.0075197835;-5.55;25.2;-39.9;11.493207;-5.1598926;-2.0673885;-;-;-;-;-;-
1531163255656;-;-;-0.48379397;0.86220706;9.924961;-0.0016160111;-0.018818952;0.004856623;-7.05;24.750002;-41.100002;11.485643;-5.2035737;-2.0934207;-;-;-;-;-;-
1531163255667;-;-;-0.4023633;0.8286768;10.011182;-0.011736023;0.0072800266;0.025096647;-7.05;24.750002;-41.100002;11.485643;-5.2035737;-2.0934207;-;-;-;-;-;-
1531163255677;-;-;-0.26345217;0.7232959;9.929751;-0.0064097014;0.0051494977;0.01870506;-6.0;23.85;-40.65;11.486767;-5.213857;-2.0867863;-;-;-;-;-;-
1531163255687;-;-;-0.29698244;0.75203615;10.001602;0.0047755754;-0.0023073535;0.019237693;-6.0;23.85;-40.65;11.486767;-5.213857;-2.0867863;-;-;-;-;-;-
1531163255697;-;-;-0.2921924;0.7568262;9.987232;0.016493484;0.011008452;0.008052415;-6.7500005;22.95;-40.5;11.47014;-5.2053614;-2.0745814;-;-;-;-;-;-
1531163255708;-;-;-0.364043;0.74724615;10.030342;0.02714613;0.013671613;0.009650312;-6.7500005;22.95;-40.5;11.47014;-5.2053614;-2.0745814;-;-;-;-;-;-
1531163255718;-;-;-0.32093263;0.85741705;9.891431;0.044722993;0.014204246;0.008585048;-5.1000004;24.0;-41.7;11.450975;-5.200692;-2.0729737;-;-;-;-;-;-
1531163255728;-;-;-0.34488282;0.87178713;9.80521;0.03673351;0.014736877;0.0021934614;-5.8500004;22.650002;-40.050003;11.444062;-5.2222037;-2.0891435;-;-;-;-;-;-
1531163255738;-;-;-0.3161426;0.87178713;9.69504;0.018091382;0.018997936;0.0032587259;-5.8500004;22.650002;-40.050003;11.444062;-5.2222037;-2.0891435;-;-;-;-;-;-
1531163255749;-;-;-0.2778223;0.89573735;9.72378;0.004242943;0.020595834;0.010715577;-6.6000004;24.45;-39.9;11.439169;-5.2678227;-2.109058;-;-;-;-;-;-
1531163255759;-;-;-0.3065625;0.82388675;9.83874;0.0069061043;0.016334776;0.016574532;-6.6000004;24.45;-39.9;11.439169;-5.2678227;-2.109058;-;-;-;-;-;-
1531163255769;-;-;-0.19160157;0.75203615;9.83874;-0.012268656;0.00568213;0.008052415;-5.8500004;24.6;-40.050003;11.439169;-5.2678227;-2.109058;-;-;-;-;-;-
1531163255779;-;-;-0.1820215;0.79035646;9.78605;-0.013866552;0.007812659;-0.011122345;-5.8500004;24.6;-40.050003;11.427164;-5.2900414;-2.1317914;-;-;-;-;-;-
1531163255789;-;-;-0.22513184;0.8095166;9.79084;-0.0112033915;0.017932672;-0.018046562;-7.05;23.400002;-39.9;11.409574;-5.2864695;-2.1453974;-;-;-;-;-;-
1531163255800;-;-;-0.3161426;0.87178713;9.75731;-0.008536621;0.027501054;-0.0058072023;-7.05;23.400002;-39.9;11.409574;-5.2864695;-2.1453974;-;-;-;-;-;-
1531163255810;-;-;-0.364043;0.98195803;9.73815;-0.013330311;0.030164216;0.0027149133;-7.9500003;24.45;-37.800003;11.415402;-5.2719126;-2.1511595;-;-;-;-;-;-
1531163255820;-;-;-0.39278322;0.8861573;9.7812605;-0.009069253;0.04561055;0.018161247;-7.9500003;24.45;-37.800003;11.415402;-5.2719126;-2.1511595;-;-;-;-;-;-
1531163255830;-;-;-0.31135255;0.977168;9.862691;-0.017058738;0.034425274;0.033074953;-6.4500003;23.550001;-40.5;11.416561;-5.2612457;-2.1748812;-;-;-;-;-;-
1531163255840;-;-;-0.23471193;0.9053174;9.939331;-0.015460839;0.05519793;0.021889674;-6.4500003;23.550001;-40.5;11.416561;-5.2612457;-2.1748812;-;-;-;-;-;-
1531163255852;-;-;-0.17244141;0.8669971;9.901011;-0.0053408276;0.05253477;0.013900189;-7.5000005;24.0;-40.050003;11.392383;-5.252359;-2.2172377;-;-;-;-;-;-
1531163255862;-;-;-0.10538086;0.8286768;10.025552;0.0058444496;0.030696847;0.0037801778;-7.5000005;24.0;-40.050003;11.392383;-5.252359;-2.2172377;-;-;-;-;-;-
1531163255872;-;-;-0.100590825;0.8382569;9.982442;0.016497092;0.02377263;-0.010600893;-5.4;25.35;-39.300003;11.3594265;-5.2377973;-2.2711794;-;-;-;-;-;-
1531163255882;-;-;-0.19160157;0.9148975;9.939331;0.011170772;0.02377263;-0.009535627;-5.4;25.35;-39.300003;11.3594265;-5.2377973;-2.2711794;-;-;-;-;-;-
1531163255893;-;-;-0.28740236;0.9963282;9.848321;0.0058444496;0.031762112;-0.010600893;-6.15;24.300001;-40.5;11.353708;-5.240094;-2.3096828;-;-;-;-;-;-
1531163255902;-;-;-0.244292;1.0298585;9.872271;-0.004275563;0.025903158;-0.00527457;-6.15;24.300001;-40.5;11.353708;-5.240094;-2.3096828;-;-;-;-;-;-
1531163255912;-;-;-0.2682422;0.9436377;9.929751;-0.0096018845;0.031762112;0.0016496489;-4.65;23.400002;-39.9;11.367318;-5.250005;-2.335738;-;-;-;-;-;-
1531163255922;-;-;-0.19639161;0.8382569;9.939331;-0.031972438;0.0088589275;-0.0058072023;-4.65;23.400002;-39.9;11.367318;-5.250005;-2.335738;-;-;-;-;-;-
1531163255932;-;-;-0.19639161;0.8143067;10.025552;-0.031972438;0.009924193;-4.8088003E-4;-6.15;25.050001;-38.850002;11.376066;-5.2491617;-2.3680718;-;-;-;-;-;-
1531163255943;-;-;-0.16765137;0.96758795;9.987232;-0.03516823;0.00939156;-0.0111335255;-6.15;25.050001;-38.850002;11.376066;-5.2491617;-2.3680718;-;-;-;-;-;-
1531163255953;-;-;-0.1580713;0.93405765;10.011182;-0.009069253;0.024837896;-0.011666156;-7.5000005;25.35;-40.050003;11.377299;-5.219419;-2.3866858;-;-;-;-;-;-
1531163255963;-;-;-0.15328126;0.8813672;10.030342;0.006909714;0.033892643;-0.0223188;-7.5000005;25.35;-40.050003;11.377299;-5.219419;-2.3866858;-;-;-;-;-;-
1531163255973;-;-;-0.17723145;0.89573735;10.030342;0.023953944;0.03868633;-0.023916699;-5.25;23.1;-39.45;11.389359;-5.1799293;-2.3947022;-;-;-;-;-;-
1531163255984;-;-;-0.25866213;0.92926764;9.901011;0.023953944;0.030164216;-0.035101973;-5.25;23.1;-39.45;11.389359;-5.1799293;-2.3947022;-;-;-;-;-;-
1531163255993;-;-;-0.31135255;0.9484278;9.7812605;0.019692887;0.026435792;-0.027645124;-5.55;24.750002;-40.2;11.409398;-5.1786222;-2.4292178;-;-;-;-;-;-
1531163256003;-;-;-0.42152345;1.0154883;9.7621;0.0031812883;0.024305262;-0.021253537;-5.55;24.750002;-40.2;11.409398;-5.1786222;-2.4292178;-;-;-;-;-;-
1531163256013;-;-;-0.2921924;1.0490186;9.7621;-0.02504822;0.013652618;-0.007937731;-6.15;25.050001;-39.600002;11.437832;-5.2033687;-2.4718885;-;-;-;-;-;-
1531163256023;-;-;-0.24908204;0.98195803;9.6615095;-0.04155982;0.017381042;-0.0063398345;-6.15;25.050001;-39.600002;11.437832;-5.2033687;-2.4718885;-;-;-;-;-;-
1531163256034;-;-;-0.27303225;0.9532178;9.699829;-0.053277727;0.044545285;-0.01006826;-6.15;24.6;-40.95;11.462913;-5.213145;-2.5001802;-;-;-;-;-;-
1531163256044;-;-;-0.39278322;0.92926764;9.905801;-0.04901667;0.07650322;-0.020188274;-6.15;24.6;-40.95;11.462913;-5.213145;-2.5001802;-;-;-;-;-;-
1531163256054;-;-;-0.39757326;0.852627;10.068663;-0.022385059;0.113254845;-0.012198789;-6.0;24.45;-40.2;11.4674635;-5.1781535;-2.5176666;-;-;-;-;-;-
1531163256065;-;-;-0.5029541;0.9484278;10.164463;0.012236036;0.14947383;-0.014329318;-6.0;24.45;-40.2;11.4674635;-5.1781535;-2.5176666;-;-;-;-;-;-
1531163256074;-;-;-0.53169435;0.9963282;10.317744;0.030878164;0.14681068;-0.0010135123;-6.7500005;25.050001;-38.850002;11.477107;-5.1212473;-2.5827892;-;-;-;-;-;-
1531163256084;-;-;-0.5891748;1.0442286;10.197993;0.03513922;0.07863375;0.009639133;-6.7500005;25.050001;-38.850002;11.477107;-5.1212473;-2.5827892;-;-;-;-;-;-
1531163256094;-;-;-0.4263135;0.9484278;10.011182;0.01809499;0.007793664;0.010704396;-7.2000003;23.25;-41.7;11.478903;-5.1157455;-2.736153;-;-;-;-;-;-
1531163256105;-;-;-0.40715334;0.9196875;9.910591;-0.02504822;-0.050795883;0.0037801778;-7.2000003;23.25;-41.7;11.478903;-5.1157455;-2.736153;-;-;-;-;-;-
1531163256115;-;-;-0.39278322;0.9148975;9.78605;-0.05167983;-0.07742749;-0.008470364;-6.4500003;24.300001;-41.7;11.462234;-5.1569004;-2.8644974;-;-;-;-;-;-
1531163256125;-;-;-0.37362307;0.93405765;9.699829;-0.07990934;-0.08009066;-0.016459847;-6.4500003;24.300001;-41.7;11.462234;-5.1569004;-2.8644974;-;-;-;-;-;-
1531163256135;-;-;-0.43589357;0.9580079;9.924961;-0.0809746;-0.028425328;-0.020188274;-6.0;24.45;-41.550003;11.461174;-5.155153;-2.8382351;-;-;-;-;-;-
1531163256145;-;-;-0.60354495;1.0346485;10.202784;-0.060734577;0.017381042;-0.02178617;-6.0;24.45;-41.550003;11.461174;-5.155153;-2.8382351;-;-;-;-;-;-
1531163256155;-;-;-0.71371585;1.1208692;10.341695;-0.0058734594;0.036555804;0.0053780745;-6.6000004;23.1;-38.7;11.47946;-5.077205;-2.7523413;-;-;-;-;-;-
1531163256166;-;-;-0.5987549;1.0298585;10.293795;0.021290783;0.054132666;0.015498087;-6.6000004;23.1;-38.7;11.47946;-5.077205;-2.7523413;-;-;-;-;-;-
1531163256176;-;-;-0.53169435;0.9963282;10.164463;0.040998176;0.04987161;0.025085466;-6.15;25.35;-40.5;11.502308;-4.9985986;-2.7372012;-;-;-;-;-;-
1531163256186;-;-;-0.44547364;0.9148975;10.106983;0.033541325;0.03602317;0.013367558;-6.15;25.35;-40.5;11.502308;-4.9985986;-2.7372012;-;-;-;-;-;-
1531163256196;-;-;-0.38320315;0.87178713;9.982442;0.010638139;-0.007652671;0.0016496489;-5.4;24.0;-40.95;11.492806;-5.0012712;-2.7822533;-;-;-;-;-;-
1531163256207;-;-;-0.38320315;0.847837;9.877061;-0.016526105;-0.020968478;-0.013796685;-5.4;24.0;-40.95;11.492806;-5.0012712;-2.7822533;-;-;-;-;-;-
1531163256216;-;-;-0.6322852;0.91010743;9.944121;-0.035700865;-0.039610606;-0.013264054;-4.8;23.25;-38.4;11.467829;-5.046964;-2.8329458;-;-;-;-;-;-
1531163256226;-;-;-0.6610254;1.0106983;10.049502;-0.030374544;-0.03748008;-0.009535627;-4.8;23.25;-38.4;11.467829;-5.046964;-2.8329458;-;-;-;-;-;-
1531163256236;-;-;-0.7185059;1.0106983;10.226734;-1.4505116E-5;-0.02363164;0.014432821;-4.9500003;24.45;-40.2;11.470608;-5.050146;-2.8222353;-;-;-;-;-;-
1531163256247;-;-;-0.67539555;1.0202783;10.111773;0.019160254;-0.007652671;0.0421297;-4.9500003;24.45;-40.2;11.470608;-5.050146;-2.8222353;-;-;-;-;-;-
1531163256256;-;-;-0.44547364;0.8669971;9.944121;0.043661337;0.0067283986;0.047988653;-5.4;24.0;-39.300003;11.492219;-5.011381;-2.7858613;-;-;-;-;-;-
1531163256266;-;-;-0.28261232;0.8382569;9.877061;0.043128707;0.013652618;0.042662334;-5.4;24.0;-39.300003;11.492219;-5.011381;-2.7858613;-;-;-;-;-;-
1531163256276;-;-;-0.364043;0.7232959;9.7812605;0.025019208;0.012587354;0.019226512;-7.2000003;24.300001;-40.050003;11.46793;-5.0178866;-2.7651222;-;-;-;-;-;-
1531163256287;-;-;-0.40715334;0.76161623;9.8866415;0.022356048;0.022707365;0.019226512;-6.15;23.25;-40.050003;11.410951;-5.0667443;-2.7673948;-;-;-;-;-;-
1531163256297;-;-;-0.5939649;0.7664063;10.0063925;0.029945543;0.010594983;0.0147181;-6.15;23.25;-40.050003;11.410951;-5.0667443;-2.7673948;-;-;-;-;-;-
1531163256307;-;-;-0.5748047;0.8861573;10.068663;0.04592451;0.019117098;0.028033907;-6.15;23.25;-40.050003;11.410951;-5.0667443;-2.7673948;-;-;-;-;-;-
1531163256317;-;-;-0.51732427;0.8430469;10.097403;0.07415402;0.013258144;0.04401287;-5.4;25.050001;-42.15;11.385095;-5.098967;-2.7843807;-;-;-;-;-;-
1531163256327;-;-;-0.3784131;0.7424561;10.025552;0.09439404;0.029237112;0.034958124;-4.9500003;25.2;-39.0;11.35858;-5.1398444;-2.8028889;-;-;-;-;-;-
1531163256338;-;-;-0.488584;0.8286768;9.79563;0.12102565;0.042020284;0.031229699;-4.9500003;25.2;-39.0;11.35858;-5.1398444;-2.8028889;-;-;-;-;-;-
1531163256347;-;-;-0.5412744;0.8286768;9.85311;0.11037301;0.042552914;0.025370745;-6.4500003;23.550001;-39.600002;11.311742;-5.2328067;-2.8160343;-;-;-;-;-;-
1531163256357;-;-;-0.43589357;0.87178713;9.699829;0.08906772;0.04628134;0.04134971;-6.4500003;23.550001;-39.600002;11.311742;-5.2328067;-2.8160343;-;-;-;-;-;-
1531163256368;-;-;-0.5508545;0.8669971;9.70941;0.06243611;0.030302374;0.051469725;-5.8500004;24.300001;-40.5;11.311742;-5.2328067;-2.8160343;-;-;-;-;-;-
1531163256378;-;-;-0.4742139;0.81909674;9.7621;0.011836048;-0.02349348;0.06478553;-5.8500004;24.300001;-40.5;11.270919;-5.360873;-2.8591886;-;-;-;-;-;-
1531163256388;-;-;-0.39757326;0.8095166;9.718989;-0.02331768;-0.028819801;0.056796044;-5.1000004;23.550001;-40.95;11.214694;-5.4566016;-2.9005644;-;-;-;-;-;-
1531163256398;-;-;-0.3161426;0.7664063;9.972861;-0.03716612;-0.043733507;0.05306762;-5.1000004;23.550001;-40.95;11.214694;-5.4566016;-2.9005644;-;-;-;-;-;-
1531163256408;-;-;-0.42152345;0.71371585;9.920172;-0.03769875;-0.048527196;0.04081708;-7.05;23.1;-40.2;11.151127;-5.46785;-2.8724997;-;-;-;-;-;-
1531163256419;-;-;-0.42152345;0.7759864;10.063872;-0.019056622;-0.031482965;0.042414974;-7.05;23.1;-40.2;11.151127;-5.46785;-2.8724997;-;-;-;-;-;-
1531163256429;-;-;-0.36883304;0.78556645;10.044712;-0.01159977;-0.017634524;0.030697068;-5.8500004;24.300001;-39.600002;11.100054;-5.4315825;-2.8209403;-;-;-;-;-;-
1531163256439;-;-;-0.30177248;0.7185059;10.135723;0.018227635;-0.022960847;0.032294963;-5.8500004;24.300001;-39.600002;11.100054;-5.4315825;-2.8209403;-;-;-;-;-;-
1531163256449;-;-;-0.39278322;0.7807764;9.963282;0.02888028;-0.019765055;0.01205494;-7.05;24.45;-39.45;11.061745;-5.406283;-2.782659;-;-;-;-;-;-
1531163256460;-;-;-0.30177248;0.8047266;9.70941;0.023553956;-0.012308203;3.370305E-4;-7.05;24.45;-39.45;11.061745;-5.406283;-2.782659;-;-;-;-;-;-
1531163256470;-;-;-0.4167334;0.7951465;9.594449;0.0070423577;-0.0032534553;-0.0023261306;-6.15;24.6;-41.25;11.03759;-5.4231157;-2.7549777;-;-;-;-;-;-
1531163256480;-;-;-0.50774413;0.9532178;9.6758795;-0.03343769;-0.009112409;-0.0049892915;-6.15;24.6;-41.25;11.03759;-5.4231157;-2.7549777;-;-;-;-;-;-
1531163256490;-;-;-0.45505372;0.92926764;9.82437;-0.049949292;-0.009112409;-0.0028587629;-5.4;24.300001;-40.050003;11.036041;-5.4499054;-2.740616;-;-;-;-;-;-
1531163256501;-;-;-0.45026368;0.92926764;9.996812;-0.050481923;-0.016036628;-0.0071198205;-5.4;24.300001;-40.050003;11.036041;-5.4499054;-2.740616;-;-;-;-;-;-
1531163256511;-;-;-0.5556446;0.9484278;9.924961;-0.04462297;-0.024026113;-0.0049892915;-6.4500003;25.35;-39.300003;11.044038;-5.420151;-2.7352107;-;-;-;-;-;-
1531163256521;-;-;-0.53169435;0.9867481;9.85311;-0.039296646;-0.019232422;0.0067286175;-6.4500003;25.35;-39.300003;11.044038;-5.420151;-2.7352107;-;-;-;-;-;-
1531163256532;-;-;-0.4406836;0.96758795;9.81;-0.031839795;-0.012308203;-7.2823395E-4;-3.9;25.2;-39.45;11.048983;-5.360189;-2.713468;-;-;-;-;-;-
1531163256542;-;-;-0.5029541;0.9580079;9.766891;-0.038764015;0.002072867;0.005663353;-3.9;25.2;-39.45;11.048983;-5.360189;-2.713468;-;-;-;-;-;-
1531163256552;-;-;-0.5221143;0.977168;9.81958;-0.034502957;0.004736028;0.009924411;-7.05;24.45;-40.2;11.047622;-5.314938;-2.6967573;-;-;-;-;-;-
1531163256562;-;-;-0.5939649;1.0011182;9.833951;-0.038764015;0.015921306;0.021109687;-7.05;24.45;-40.2;11.047622;-5.314938;-2.6967573;-;-;-;-;-;-
1531163256573;-;-;-0.48379397;0.96758795;9.905801;-0.031839795;0.029237112;0.028033907;-6.0;23.400002;-39.0;11.0439205;-5.2760653;-2.6972396;-;-;-;-;-;-
1531163256583;-;-;-0.52690434;0.9532178;9.905801;-0.040894542;0.026041318;0.028033907;-6.0;23.400002;-39.0;11.0439205;-5.2760653;-2.6972396;-;-;-;-;-;-
1531163256593;-;-;-0.48379397;0.9388477;9.929751;-0.041959807;0.024443422;0.03176233;-6.7500005;25.050001;-39.300003;11.029604;-5.2316422;-2.717143;-;-;-;-;-;-
1531163256603;-;-;-0.3544629;0.98195803;9.963282;-0.04781876;0.013790777;0.03708865;-6.7500005;25.050001;-39.300003;11.029604;-5.2316422;-2.717143;-;-;-;-;-;-
1531163256614;-;-;-0.29698244;0.8909473;9.953702;-0.04728613;0.0063339244;0.021109687;-6.15;24.6;-40.5;10.995217;-5.191215;-2.7423906;-;-;-;-;-;-
1531163256624;-;-;-0.31135255;0.8861573;9.977652;-0.038764015;0.011660248;0.011522308;-6.15;24.6;-40.5;10.995217;-5.191215;-2.7423906;-;-;-;-;-;-
1531163256634;-;-;-0.40715334;0.9244776;9.910591;-0.01852399;0.010594983;0.006195985;-6.15;24.0;-39.300003;10.95315;-5.1381216;-2.757855;-;-;-;-;-;-
1531163256644;-;-;-0.45026368;0.97237796;9.83874;-0.01852399;0.011660248;0.005663353;-6.15;24.0;-39.300003;10.95315;-5.1381216;-2.757855;-;-;-;-;-;-
1531163256654;-;-;-0.56522465;1.0250684;9.7621;-0.01639346;0.022312893;0.026968641;-5.4;23.550001;-40.050003;10.935934;-5.090933;-2.772211;-;-;-;-;-;-
1531163256665;-;-;-0.5125342;1.0538087;9.74773;-0.032372426;0.033498168;0.033360228;-5.4;23.550001;-40.050003;10.935934;-5.090933;-2.772211;-;-;-;-;-;-
1531163256674;-;-;-0.40715334;1.0298585;9.704619;-0.04462297;0.039889753;0.049871825;-5.8500004;24.6;-40.050003;10.930336;-5.068926;-2.7919798;-;-;-;-;-;-
1531163256684;-;-;-0.364043;0.98195803;9.7812605;-0.06113457;0.056401353;0.062122364;-5.8500004;24.6;-40.050003;10.930336;-5.068926;-2.7919798;-;-;-;-;-;-
1531163256694;-;-;-0.119750984;0.8669971;10.078242;-0.071787216;0.052672926;0.041882344;-6.6000004;24.150002;-41.100002;10.897917;-5.046159;-2.8220403;-;-;-;-;-;-
1531163256705;-;-;-0.15328126;0.76161623;10.226734;-0.07391774;0.03190027;0.019511791;-6.6000004;24.150002;-41.100002;10.897917;-5.046159;-2.8220403;-;-;-;-;-;-
1531163256714;-;-;-0.16765137;0.8382569;10.265054;-0.056340877;0.004203396;0.0019349272;-7.05;23.400002;-39.45;10.834717;-4.988282;-2.8743086;-;-;-;-;-;-
1531163256724;-;-;-0.28740236;0.90052736;10.092612;-0.032372426;-0.004851352;-0.017772464;-7.05;23.400002;-39.45;10.834717;-4.988282;-2.8743086;-;-;-;-;-;-
1531163256734;-;-;-0.3544629;0.97237796;9.81;-0.028644001;0.0015402349;-0.016174568;-5.4;24.300001;-42.45;10.799594;-4.9072328;-2.9194763;-;-;-;-;-;-
1531163256745;-;-;-0.4167334;1.0250684;9.75731;-0.03823138;0.0058012926;-0.0108482465;-5.4;24.300001;-42.45;10.799594;-4.9072328;-2.9194763;-;-;-;-;-;-
1531163256755;-;-;-0.364043;1.0106983;9.685459;-0.05474298;0.038291857;0.0045980886;-6.15;22.95;-39.600002;10.812444;-4.8557897;-2.9203305;-;-;-;-;-;-
1531163256765;-;-;-0.27303225;0.977168;9.637559;-0.07231984;0.04415081;-1.9560172E-4;-6.15;22.95;-39.600002;10.812444;-4.8557897;-2.9203305;-;-;-;-;-;-
1531163256775;-;-;-0.2682422;0.9244776;9.891431;-0.075515635;0.07238033;0.001402295;-6.0;24.150002;-40.65;10.82454;-4.819971;-2.927029;-;-;-;-;-;-
1531163256785;-;-;-0.3065625;0.96758795;10.020762;-0.06912405;0.08463086;-0.00445666;-6.3;24.45;-40.2;10.82101;-4.7550883;-2.9696345;-;-;-;-;-;-
1531163256796;-;-;-0.5029541;1.0154883;10.245894;-0.057938773;0.06439084;-0.008717718;-6.3;24.45;-40.2;10.82101;-4.7550883;-2.9696345;-;-;-;-;-;-
1531163256806;-;-;-0.5987549;1.0538087;10.255474;-0.029176634;0.0686519;-7.2823395E-4;-6.7500005;23.25;-39.300003;10.814715;-4.672717;-3.0564597;-;-;-;-;-;-
1531163256816;-;-;-0.56522465;1.0633887;10.154883;-0.027046105;0.05320556;0.032294963;-6.7500005;23.25;-39.300003;10.814715;-4.672717;-3.0564597;-;-;-;-;-;-
1531163256826;-;-;-0.45984375;0.9915381;10.078242;-0.038764015;0.04095502;0.056263413;-6.4500003;24.6;-39.600002;10.81348;-4.6213875;-3.1346347;-;-;-;-;-;-
1531163256837;-;-;-0.35925296;0.9053174;9.958491;-0.051014554;0.02657395;0.056796044;-6.4500003;24.6;-39.600002;10.81348;-4.6213875;-3.1346347;-;-;-;-;-;-
1531163256847;-;-;-0.3544629;0.8334668;10.001602;-0.067526154;0.010062351;0.04401287;-5.25;23.85;-41.100002;10.767378;-4.58993;-3.192773;-;-;-;-;-;-
1531163256857;-;-;-0.48379397;0.9580079;10.102193;-0.076580904;0.008997086;0.041882344;-5.25;23.85;-41.100002;10.767378;-4.58993;-3.192773;-;-;-;-;-;-
1531163256868;-;-;-0.45984375;0.98195803;10.140513;-0.06379773;-0.007514513;0.04348024;-3.3000002;24.300001;-39.600002;10.70544;-4.5287714;-3.2126975;-;-;-;-;-;-
1531163256878;-;-;-0.38320315;0.9196875;10.001602;-0.04036191;-0.024558743;0.05839394;-3.3000002;24.300001;-39.600002;10.70544;-4.5287714;-3.2126975;-;-;-;-;-;-
1531163256888;-;-;-0.2682422;0.93405765;9.910591;-0.024382943;-0.012840835;0.04081708;-4.8;23.550001;-40.95;10.657678;-4.448589;-3.2043626;-;-;-;-;-;-
1531163256898;-;-;-0.21555176;0.91010743;9.5561285;-0.020121885;-5.90294E-4;0.032294963;-4.8;23.550001;-40.95;10.657678;-4.448589;-3.2043626;-;-;-;-;-;-
1531163256909;-;-;-0.32093263;1.1064991;9.575289;-0.028644001;0.008997086;0.032294963;-6.7500005;25.050001;-40.5;10.601756;-4.4055634;-3.1813607;-;-;-;-;-;-
1531163256919;-;-;-0.4406836;1.1496094;9.422008;-0.055808246;0.022312893;0.045078136;-6.7500005;25.050001;-40.5;10.601756;-4.4055634;-3.1813607;-;-;-;-;-;-
1531163256930;-;-;-0.52690434;1.2022998;9.469908;-0.08190723;0.038291857;0.06372027;-5.25;24.150002;-39.9;10.559457;-4.387506;-3.1739829;-;-;-;-;-;-
1531163256939;-;-;-0.43110353;1.1687696;9.536968;-0.105343044;0.04841187;0.09408031;-5.25;24.150002;-39.9;10.559457;-4.387506;-3.1739829;-;-;-;-;-;-
1531163256950;-;-;-0.37362307;1.1352394;9.699829;-0.1096041;0.08942456;0.10473295;-6.6000004;24.150002;-40.65;10.505226;-4.3349795;-3.199863;-;-;-;-;-;-
1531163256960;-;-;-0.2921924;0.9915381;9.862691;-0.08989671;0.12724143;0.10952664;-6.6000004;24.150002;-40.65;10.505226;-4.3349795;-3.199863;-;-;-;-;-;-
1531163256970;-;-;-0.24908204;0.9196875;10.221944;-0.071787216;0.14588356;0.10473295;-5.55;25.2;-40.65;10.400511;-4.2333207;-3.2507193;-;-;-;-;-;-
1531163256981;-;-;-0.2203418;0.9148975;10.293795;-0.041427176;0.15174252;0.09780873;-5.55;25.2;-40.65;10.400511;-4.2333207;-3.2507193;-;-;-;-;-;-
1531163256991;-;-;-0.30177248;0.90052736;10.356065;-0.040894542;0.10753405;0.08822135;-7.3500004;24.750002;-40.2;10.269818;-4.137459;-3.3738682;-;-;-;-;-;-
1531163257001;-;-;-0.37362307;0.9580079;10.308165;-0.046220865;0.055336088;0.098873995;-7.3500004;24.750002;-40.2;10.269818;-4.137459;-3.3738682;-;-;-;-;-;-
1531163257012;-;-;-0.3879932;0.9436377;10.265054;-0.06699352;-5.766179E-5;0.09354767;-5.8500004;25.050001;-40.95;10.145301;-4.0858426;-3.5267045;-;-;-;-;-;-
1531163257022;-;-;-0.31135255;0.9484278;10.197993;-0.07445037;-0.008047145;0.09780873;-5.8500004;25.050001;-40.95;10.145301;-4.0858426;-3.5267045;-;-;-;-;-;-
1531163257032;-;-;-0.22513184;0.8861573;10.092612;-0.07445037;0.022312893;0.07384028;-6.3;25.2;-40.2;10.03862;-4.043166;-3.6010182;-;-;-;-;-;-
1531163257043;-;-;-0.3544629;0.9484278;10.126143;-0.052612454;0.10913195;0.06957922;-6.3;25.2;-40.2;10.03862;-4.043166;-3.6010182;-;-;-;-;-;-
1531163257053;-;-;-0.5604346;0.9532178;10.437495;-0.026513472;0.17358044;0.06691606;-6.15;24.6;-40.5;9.933324;-3.969924;-3.5902498;-;-;-;-;-;-
1531163257063;-;-;-0.81909674;0.98195803;10.667418;0.0011834034;0.20127732;0.0775687;-6.15;24.6;-40.5;9.933324;-3.969924;-3.5902498;-;-;-;-;-;-
1531163257074;-;-;-0.9915381;1.0298585;10.859019;0.032608703;0.17198254;0.10313505;-5.1000004;26.7;-39.600002;9.850627;-3.9051502;-3.6721387;-;-;-;-;-;-
1531163257083;-;-;-0.92926764;1.0298585;10.571617;0.024086589;0.14428566;0.12657087;-5.1000004;26.7;-39.600002;9.850627;-3.9051502;-3.6721387;-;-;-;-;-;-
1531163257093;-;-;-0.9196875;0.92926764;10.662627;0.021423427;-0.029885067;0.15160458;-6.4500003;25.050001;-39.600002;9.750786;-3.9047031;-3.8848083;-;-;-;-;-;-
1531163257104;-;-;-0.8861573;0.9388477;10.423125;0.02941291;-0.101257786;0.14627826;-6.4500003;25.050001;-39.600002;9.750786;-3.9047031;-3.8848083;-;-;-;-;-;-
1531163257114;-;-;-0.732876;1.0490186;9.7812605;0.04539188;-0.16996735;0.15480037;-5.8500004;25.35;-40.95;9.601135;-3.9452899;-4.0454946;-;-;-;-;-;-
1531163257124;-;-;-0.63707525;1.096919;9.536968;0.044326615;-0.15505365;0.15959406;-5.8500004;25.35;-40.95;9.601135;-3.9452899;-4.0454946;-;-;-;-;-;-
1531163257134;-;-;-0.51732427;1.1639795;9.340576;0.040598188;-0.12735677;0.17663829;-4.65;25.500002;-39.45;9.439617;-3.9879096;-3.9548173;-;-;-;-;-;-
1531163257145;-;-;-0.4023633;0.9867481;8.995694;0.027815014;-0.14227048;0.18729094;-5.25;25.2;-39.9;9.2684765;-4.0503993;-3.75524;-;-;-;-;-;-
1531163257155;-;-;-0.44547364;0.9580079;9.067544;-0.014795564;-0.10764937;0.16598564;-5.25;25.2;-39.9;9.2684765;-4.0503993;-3.75524;-;-;-;-;-;-
1531163257166;-;-;-0.4981641;0.9867481;9.263936;-0.022252414;-0.084213555;0.14254983;-7.2000003;25.050001;-40.5;9.074623;-4.0960593;-3.5834422;-;-;-;-;-;-
1531163257175;-;-;-0.5556446;1.0585986;9.326206;0.008640254;-0.03254823;0.13882141;-7.2000003;25.050001;-40.5;9.074623;-4.0960593;-3.5834422;-;-;-;-;-;-
1531163257186;-;-;-0.74724615;1.0825489;9.469908;0.048055038;0.019649731;0.14787616;-5.55;26.550001;-39.9;8.90986;-4.089866;-3.4622147;-;-;-;-;-;-
1531163257196;-;-;-0.96758795;1.1064991;9.651929;0.08107824;0.02657395;0.16864881;-5.55;26.550001;-39.9;8.90986;-4.089866;-3.4622147;-;-;-;-;-;-
1531163257206;-;-;-0.8909473;1.1352394;9.522598;0.08427403;0.012725512;0.19261725;-5.25;25.2;-41.100002;8.761462;-4.128642;-3.4358752;-;-;-;-;-;-
1531163257217;-;-;-0.90052736;1.092129;9.417217;0.07042559;-0.045864034;0.20966148;-5.25;25.2;-41.100002;8.761462;-4.128642;-3.4358752;-;-;-;-;-;-
1531163257227;-;-;-0.8669971;1.1112891;9.278306;0.035271864;-0.075158805;0.2213794;-6.7500005;24.0;-40.050003;8.555079;-4.2407756;-3.4482493;-;-;-;-;-;-
1531163257237;-;-;-0.6179151;0.9915381;9.101074;-0.029176634;-0.120965175;0.23682573;-6.7500005;24.0;-40.050003;8.555079;-4.2407756;-3.4482493;-;-;-;-;-;-
1531163257248;-;-;-0.50774413;0.8765772;9.101074;-0.08670092;-0.13587889;0.22617309;-6.6000004;25.2;-41.100002;8.314097;-4.323416;-3.3704097;-;-;-;-;-;-
1531163257258;-;-;-0.5412744;0.86220706;9.254355;-0.14582309;-0.1065841;0.19421515;-6.6000004;25.2;-41.100002;8.314097;-4.323416;-3.3704097;-;-;-;-;-;-
1531163257268;-;-;-0.244292;0.8430469;9.388477;-0.14475782;-0.09433357;0.16438775;-6.6000004;25.800001;-39.45;8.087055;-4.2874455;-3.2067652;-;-;-;-;-;-
1531163257278;-;-;-0.41194338;0.9053174;9.551338;-0.13570307;-0.062375635;0.11432033;-6.6000004;25.800001;-39.45;8.087055;-4.2874455;-3.2067652;-;-;-;-;-;-
1531163257289;-;-;-0.45984375;0.8765772;9.623189;-0.115463056;-0.017101893;0.08449292;-6.15;25.650002;-40.5;7.888225;-4.14451;-3.063296;-;-;-;-;-;-
1531163257299;-;-;-0.488584;1.0106983;9.546548;-0.104277395;-0.017636525;0.06212119;-6.15;25.650002;-40.5;7.888225;-4.14451;-3.063296;-;-;-;-;-;-
1531163257309;-;-;-0.60833496;1.22625;9.465117;-0.11493004;-0.024028113;0.03548958;-7.5000005;25.35;-40.95;7.764412;-4.0030713;-2.9860306;-;-;-;-;-;-
1531163257320;-;-;-0.6993457;1.3028907;9.369317;-0.16126904;-0.027756538;0.03442432;-7.5000005;25.35;-40.95;7.764412;-4.0030713;-2.9860306;-;-;-;-;-;-
1531163257330;-;-;-0.6322852;1.3220508;9.417217;-0.17831329;-0.027223906;0.028565362;-6.7500005;24.6;-40.95;7.714203;-3.8838477;-2.95596;-;-;-;-;-;-
1531163257340;-;-;-0.44547364;1.3507911;9.575289;-0.20068383;-0.03148496;0.016314821;-6.7500005;24.6;-40.95;7.714203;-3.8838477;-2.95596;-;-;-;-;-;-
1531163257351;-;-;-0.24908204;1.3699512;9.604029;-0.19642277;-0.032017596;-0.0017946752;-6.0;25.800001;-40.65;7.774406;-3.7275734;-2.9302166;-;-;-;-;-;-
1531163257361;-;-;-0.1580713;1.3172607;9.536968;-0.17192169;-5.9229345E-4;-0.038013667;-6.0;25.800001;-40.65;7.774406;-3.7275734;-2.9302166;-;-;-;-;-;-
1531163257371;-;-;-0.20118165;1.3843213;9.575289;-0.14262691;0.04042039;-0.06784107;-7.3500004;25.2;-40.2;7.7699504;-3.5421772;-2.892697;-;-;-;-;-;-
1531163257381;-;-;-0.3305127;1.4370118;9.632769;-0.12984374;0.07504148;-0.1013969;-7.3500004;25.2;-40.2;7.7699504;-3.5421772;-2.892697;-;-;-;-;-;-
1531163257392;-;-;-0.488584;1.6381935;9.623189;-0.10321213;0.11552153;-0.1029948;-6.6000004;25.500002;-40.65;7.815979;-3.384679;-2.8652837;-;-;-;-;-;-
1531163257402;-;-;-0.5556446;1.710044;9.6758795;-0.09682055;0.13789208;-0.099799;-6.6000004;25.500002;-40.65;7.815979;-3.384679;-2.8652837;-;-;-;-;-;-
1531163257413;-;-;-0.63707525;1.7387843;9.656719;-0.12291953;0.1330984;-0.07689582;-7.65;25.800001;-41.100002;7.9657545;-3.3286562;-2.9276588;-;-;-;-;-;-
1531163257423;-;-;-0.5939649;1.7627344;9.6758795;-0.12824585;0.1330984;-0.06517791;-7.65;25.800001;-41.100002;7.9657545;-3.3286562;-2.9276588;-;-;-;-;-;-
1531163257434;-;-;-0.5460645;1.6525636;9.905801;-0.16233431;0.12244575;-0.07263476;-6.0;25.800001;-40.2;8.07137;-3.8298683;-3.0990603;-;-;-;-;-;-
1531163257444;-;-;-0.613125;1.590293;9.972861;-0.167128;0.12883733;-0.0683737;-6.4500003;25.95;-42.15;8.150086;-4.0346136;-3.2663054;-;-;-;-;-;-
1531163257454;-;-;-0.6227051;1.7387843;10.164463;-0.167128;0.13895735;-0.059318952;-6.4500003;25.95;-42.15;8.150086;-4.0346136;-3.2663054;-;-;-;-;-;-
1531163257464;-;-;-0.67539555;1.6477735;10.365645;-0.15700799;0.16026263;-0.053992633;-6.0;27.150002;-41.850002;8.214547;-3.9010217;-3.4183934;-;-;-;-;-;-
1531163257475;-;-;-0.75203615;1.7292042;10.423125;-0.1357027;0.1762416;-0.014577849;-6.0;27.150002;-41.850002;8.214547;-3.9010217;-3.4183934;-;-;-;-;-;-
1531163257486;-;-;-0.82388675;1.6334034;10.504556;-0.13037638;0.1879595;-0.014045216;-6.15;25.95;-40.050003;8.2682295;-3.7198827;-3.5985246;-;-;-;-;-;-
1531163257496;-;-;-0.8669971;1.7435743;10.595567;-0.15008377;0.16985002;0.009923234;-6.15;25.95;-40.050003;8.2682295;-3.7198827;-3.5985246;-;-;-;-;-;-
1531163257506;-;-;-0.7807764;1.5998731;10.609937;-0.17458485;0.113391;0.014716923;-5.25;27.6;-41.100002;8.280562;-3.5704622;-3.8139641;-;-;-;-;-;-
1531163257517;-;-;-0.7711963;1.7723145;10.815908;-0.23104388;0.04840987;0.014716923;-5.25;27.6;-41.100002;8.280562;-3.5704622;-3.8139641;-;-;-;-;-;-
1531163257527;-;-;-0.86220706;1.705254;11.136841;-0.23583756;-0.0053859837;0.0051295436;-5.8500004;26.400002;-41.25;8.264079;-3.3854976;-3.9783041;-;-;-;-;-;-
1531163257538;-;-;-0.71371585;1.6669337;11.323653;-0.21133648;-0.05971447;-0.04387262;-5.8500004;26.400002;-41.25;8.264079;-3.3854976;-3.9783041;-;-;-;-;-;-
1531163257548;-;-;-0.847837;1.8154249;11.486514;-0.17032379;-0.082617655;-0.045470517;-5.1000004;27.000002;-40.050003;8.256387;-3.123106;-4.02054;-;-;-;-;-;-
1531163257558;-;-;-0.67539555;1.829795;11.5823145;-0.09096159;-0.055986043;-0.054525264;-5.1000004;27.000002;-40.050003;8.256387;-3.123106;-4.02054;-;-;-;-;-;-
1531163257569;-;-;-0.6322852;1.7579445;11.649376;-0.0036099066;-0.06397553;-0.07529792;-4.9500003;26.550001;-41.100002;8.304746;-2.881886;-3.9459112;-;-;-;-;-;-
1531163257579;-;-;-0.5939649;1.6573536;11.486514;0.09812285;-0.090607144;-0.11098428;-4.9500003;26.550001;-41.100002;8.304746;-2.881886;-3.9459112;-;-;-;-;-;-
1531163257589;-;-;-0.79993653;1.6621436;11.199112;0.17855032;-0.11031453;-0.13868116;-5.55;27.6;-42.75;8.36973;-2.7789643;-3.8736079;-;-;-;-;-;-
1531163257600;-;-;-0.93405765;1.829795;10.676997;0.24992304;-0.1412072;-0.16211697;-5.55;27.6;-42.75;8.36973;-2.7789643;-3.8736079;-;-;-;-;-;-
1531163257609;-;-;-0.96758795;1.8872755;10.557246;0.2722936;-0.16304512;-0.16318224;-4.8;26.400002;-40.050003;8.492945;-2.8786979;-3.7750497;-;-;-;-;-;-
1531163257619;-;-;-1.21188;2.184258;10.087823;0.26696727;-0.18381779;-0.12376745;-4.8;26.400002;-40.050003;8.492945;-2.8786979;-3.7750497;-;-;-;-;-;-
1531163257630;-;-;-1.2310401;2.2273684;9.81958;0.24992304;-0.19340517;-0.069438964;-6.4500003;27.45;-40.050003;8.678953;-3.1417074;-3.6356697;-;-;-;-;-;-
1531163257640;-;-;-1.1591895;2.1746778;9.651929;0.22915037;-0.2205694;-0.020969436;-6.4500003;27.45;-40.050003;8.678953;-3.1417074;-3.6356697;-;-;-;-;-;-
1531163257650;-;-;-1.0250684;2.0932472;9.862691;0.22755247;-0.16996935;0.03229379;-6.7500005;25.35;-40.050003;8.834325;-3.6939995;-3.5305395;-;-;-;-;-;-
1531163257660;-;-;-0.89573735;1.9926564;9.929751;0.2376725;-0.1412072;0.06425172;-6.7500005;25.35;-40.050003;8.834325;-3.6939995;-3.5305395;-;-;-;-;-;-
1531163257671;-;-;-0.6179151;1.8729054;9.829161;0.24672724;-0.13801141;0.09674229;-6.7500005;27.45;-43.65;8.839635;-5.270228;-3.825295;-;-;-;-;-;-
1531163257681;-;-;-0.39757326;1.6286134;9.671089;0.25791252;-0.14546826;0.09620965;-6.7500005;27.45;-43.65;8.839635;-5.270228;-3.825295;-;-;-;-;-;-
1531163257692;-;-;-0.19160157;1.4705421;9.541759;0.26164094;-0.17050198;0.041348536;-6.4500003;25.650002;-41.7;8.794541;-5.6068993;-3.6667676;-;-;-;-;-;-
1531163257702;-;-;-0.047900394;1.3555812;9.431587;0.2509883;-0.17955673;0.016314821;-6.4500003;25.650002;-41.7;8.794541;-5.6068993;-3.6667676;-;-;-;-;-;-
1531163257712;-;-;0.15328126;1.3076807;9.220825;0.24939041;-0.21737361;-0.042807356;-5.8500004;27.45;-40.5;8.710334;-5.923615;-3.4879105;-;-;-;-;-;-
1531163257723;-;-;0.09580079;1.3268409;9.129815;0.24832514;-0.21790625;-0.07529792;-5.8500004;27.45;-40.5;8.710334;-5.923615;-3.4879105;-;-;-;-;-;-
1531163257734;-;-;0.023950197;1.4034815;8.914263;0.2611083;-0.20299254;-0.12057166;-6.0;25.2;-40.65;8.706395;-6.21347;-3.275269;-;-;-;-;-;-
1531163257744;-;-;0.043110352;1.3699512;8.962164;0.28454414;-0.18488304;-0.14507274;-6.6000004;24.750002;-41.100002;8.810175;-6.49366;-3.0372968;-;-;-;-;-;-
1531163257754;-;-;-0.0047900393;1.336421;8.674761;0.32821998;-0.05225762;-0.1855528;-6.6000004;24.750002;-41.100002;8.810175;-6.49366;-3.0372968;-;-;-;-;-;-
1531163257765;-;-;-0.14849122;1.346001;8.51669;0.31756732;0.056931987;-0.19247702;-6.6000004;25.800001;-41.550003;8.9946375;-6.8073864;-2.8437803;-;-;-;-;-;-
1531163257775;-;-;-0.3161426;1.4753321;8.4304695;0.23394407;0.27584386;-0.19833598;-6.6000004;25.800001;-41.550003;8.9946375;-6.8073864;-2.8437803;-;-;-;-;-;-
1531163257785;-;-;-0.3879932;1.5136524;8.703502;0.14339659;0.38663134;-0.18661806;-6.15;24.300001;-40.050003;9.207665;-7.1621146;-2.8730388;-;-;-;-;-;-
1531163257795;-;-;-0.81909674;1.5423926;9.910591;-0.02118677;0.51659364;-0.17809595;-6.15;24.300001;-40.050003;9.207665;-7.1621146;-2.8730388;-;-;-;-;-;-
1531163257806;-;-;-1.1927198;1.4130616;10.782378;-0.08989348;0.5426776;-0.18343109;-6.3;23.85;-39.0;9.38051;-7.3646526;-3.2682474;-;-;-;-;-;-
1531163257816;-;-;-1.5280225;1.2549903;11.783497;-0.11812299;0.53894913;-0.1472121;-6.3;23.85;-39.0;9.38051;-7.3646526;-3.2682474;-;-;-;-;-;-
1531163257826;-;-;-1.590293;1.2837305;12.319981;-0.11972088;0.49793646;-0.11685206;-5.1000004;25.650002;-40.95;9.50513;-7.301002;-3.8864603;-;-;-;-;-;-
1531163257837;-;-;-1.6286134;1.0681788;13.067227;-0.057402913;0.41378057;-0.13602683;-5.1000004;25.650002;-40.95;9.50513;-7.301002;-3.8864603;-;-;-;-;-;-
1531163257846;-;-;-1.6573536;0.90052736;13.301939;-0.003607057;0.31258044;-0.14774473;-5.55;24.750002;-40.2;9.590643;-7.158547;-4.5028334;-;-;-;-;-;-
1531163257856;-;-;-1.4992822;0.8382569;12.971426;0.13114889;0.09207072;-0.2100627;-5.55;24.750002;-40.2;9.590643;-7.158547;-4.5028334;-;-;-;-;-;-
1531163257867;-;-;-1.3028907;0.8334668;12.473262;0.21796794;-0.04161997;-0.2462817;-3.0;25.35;-40.5;9.692645;-7.0926337;-4.9628305;-;-;-;-;-;-
1531163257876;-;-;-1.1304493;1.096919;11.505674;0.29253647;-0.22378018;-0.27344593;-3.0;25.35;-40.5;9.692645;-7.0926337;-4.9628305;-;-;-;-;-;-
1531163257886;-;-;-0.852627;1.2789404;10.250684;0.28827542;-0.3313719;-0.27983752;-5.55;24.45;-40.2;9.928006;-7.2383976;-5.07245;-;-;-;-;-;-
1531163257897;-;-;-0.6179151;1.4034815;9.268726;0.21637005;-0.34095928;-0.26066276;-5.55;24.45;-40.2;9.928006;-7.2383976;-5.07245;-;-;-;-;-;-
1531163257907;-;-;-0.37362307;1.2933106;8.828042;0.16150893;-0.3031424;-0.2281722;-6.0;24.45;-39.0;10.281462;-7.536705;-4.81552;-;-;-;-;-;-
1531163257918;-;-;-0.07664063;1.2166699;8.598121;0.11676782;-0.16039695;-0.21432376;-6.0;24.45;-39.0;10.281462;-7.536705;-4.81552;-;-;-;-;-;-
1531163257928;-;-;0.16286133;1.1879297;8.689131;0.094929904;0.019632734;-0.18662688;-5.25;24.750002;-40.65;10.617501;-7.7519097;-4.4687104;-;-;-;-;-;-
1531163257939;-;-;-0.1341211;1.1591895;9.321417;0.11463729;0.17036766;-0.14774473;-5.25;24.750002;-40.65;10.617501;-7.7519097;-4.4687104;-;-;-;-;-;-
1531163257949;-;-;-0.23950197;0.93405765;9.6758795;0.16896579;0.22256562;-0.110460475;-6.15;24.0;-41.25;10.870156;-7.8634725;-4.35281;-;-;-;-;-;-
1531163257960;-;-;-0.05748047;0.8095166;9.8866415;0.20944583;0.22469614;-0.09448151;-6.15;24.0;-41.25;10.870156;-7.8634725;-4.35281;-;-;-;-;-;-
1531163257970;-;-;0.0;0.7807764;9.872271;0.23980586;0.19540137;-0.088622555;-4.8;23.550001;-40.050003;11.018833;-7.984722;-4.5455694;-;-;-;-;-;-
1531163257980;-;-;-0.119750984;0.7424561;10.011182;0.24619745;0.18208557;-0.09128572;-4.8;23.550001;-40.050003;11.018833;-7.984722;-4.5455694;-;-;-;-;-;-
1531163257990;-;-;-0.17244141;0.6466553;9.963282;0.24087113;0.16983503;-0.08382887;-4.8;22.650002;-38.4;11.093766;-8.152053;-4.7341995;-;-;-;-;-;-
1531163258001;-;-;-0.086220704;0.46463382;10.059082;0.24992588;0.149595;-0.06944779;-4.8;22.650002;-38.4;11.093766;-8.152053;-4.7341995;-;-;-;-;-;-
1531163258011;-;-;-0.06227051;0.3065625;9.944121;0.23927324;0.123496026;-0.07317622;-4.3500004;25.050001;-41.25;11.167205;-8.351429;-4.8841343;-;-;-;-;-;-
1531163258021;-;-;-0.11496094;0.19160157;9.982442;0.23447955;0.13201813;-0.07051306;-4.3500004;25.050001;-41.25;11.167205;-8.351429;-4.8841343;-;-;-;-;-;-
1531163258032;-;-;-0.06227051;0.14370118;9.968072;0.20465215;0.14107288;-0.08010044;-4.65;23.400002;-37.5;11.2329235;-8.347556;-4.8619056;-;-;-;-;-;-
1531163258043;-;-;-0.19160157;0.13891114;10.049502;0.19932581;0.15385605;-0.08808992;-4.3500004;23.25;-40.95;11.333681;-7.2068095;-4.1450233;-;-;-;-;-;-
1531163258053;-;-;-0.4023633;0.22992188;10.183623;0.1955974;0.1677045;-0.07424149;-4.3500004;23.25;-40.95;11.333681;-7.2068095;-4.1450233;-;-;-;-;-;-
1531163258063;-;-;-0.4742139;0.30177248;10.183623;0.2041195;0.16397607;-0.053468827;-4.2000003;22.35;-41.100002;11.410578;-7.1771207;-4.1949806;-;-;-;-;-;-
1531163258074;-;-;-0.6514453;0.19160157;9.977652;0.18654265;0.1314855;-0.030033011;-4.2000003;22.35;-41.100002;11.410578;-7.1771207;-4.1949806;-;-;-;-;-;-
1531163258084;-;-;-0.5508545;0.20597169;9.81;0.16896579;0.1048539;-0.01085825;-4.9500003;23.400002;-39.45;11.452419;-7.3755274;-4.3845744;-;-;-;-;-;-
1531163258094;-;-;-0.63707525;0.22992188;9.546548;0.11463729;0.075559124;-0.0135214105;-4.9500003;23.400002;-39.45;11.452419;-7.3755274;-4.3845744;-;-;-;-;-;-
1531163258105;-;-;-0.63707525;0.20118165;9.359736;0.0784183;0.04200329;-0.021510895;-3.9;22.050001;-38.7;11.459756;-7.4005747;-4.490617;-;-;-;-;-;-
1531163258115;-;-;-0.847837;0.50774413;9.1202345;0.009176116;-0.018716786;-0.019380366;-3.9;22.050001;-38.7;11.459756;-7.4005747;-4.490617;-;-;-;-;-;-
1531163258125;-;-;-1.0825489;0.7089258;8.880733;-0.048880797;-0.07624106;0.005120717;-3.3000002;22.650002;-40.95;11.472227;-7.466013;-4.5495977;-;-;-;-;-;-
1531163258136;-;-;-1.22625;0.9627979;8.746612;-0.09735033;-0.13110219;0.042404972;-3.3000002;22.650002;-40.95;11.472227;-7.466013;-4.5495977;-;-;-;-;-;-
1531163258146;-;-;-1.2358302;1.1927198;8.468789;-0.13463458;-0.17903908;0.10685347;-5.1000004;23.25;-41.25;11.485465;-7.4461184;-4.4951634;-;-;-;-;-;-
1531163258156;-;-;-1.1927198;1.1448194;8.128696;-0.20281151;-0.24029179;0.17716093;-5.1000004;23.25;-41.25;11.485465;-7.4461184;-4.4951634;-;-;-;-;-;-
1531163258167;-;-;-0.9580079;1.1591895;7.8508744;-0.25181365;-0.2456181;0.20059675;-4.05;24.300001;-40.5;11.426778;-7.314554;-4.302649;-;-;-;-;-;-
1531163258178;-;-;-0.98195803;1.0825489;7.7311234;-0.3354369;-0.25733602;0.20752096;-4.05;24.300001;-40.5;11.426778;-7.314554;-4.302649;-;-;-;-;-;-
1531163258188;-;-;-0.98195803;1.2454102;7.8604546;-0.39562437;-0.26266235;0.20752096;-4.3500004;22.650002;-40.050003;11.257272;-7.0844026;-4.0059557;-;-;-;-;-;-
1531163258199;-;-;-1.096919;1.5232325;8.238868;-0.44835496;-0.21099702;0.22243467;-4.3500004;22.650002;-40.050003;11.257272;-7.0844026;-4.0059557;-;-;-;-;-;-
1531163258209;-;-;-0.89573735;1.5328126;8.665181;-0.46326867;-0.17584328;0.24533786;-3.7500002;23.25;-39.600002;11.052618;-6.7017264;-3.6843946;-;-;-;-;-;-
1531163258219;-;-;-0.7089258;1.4849122;9.091495;-0.41959283;-0.098611616;0.2559905;-3.7500002;23.25;-39.600002;11.052618;-6.7017264;-3.6843946;-;-;-;-;-;-
1531163258230;-;-;-0.5412744;1.2358302;9.503438;-0.34236115;-0.037891548;0.24640311;-4.8;24.6;-40.5;10.829275;-6.20338;-3.4110813;-;-;-;-;-;-
1531163258240;-;-;-0.2778223;0.977168;9.857901;-0.26512948;-0.019249419;0.2032599;-4.8;24.6;-40.5;10.829275;-6.20338;-3.4110813;-;-;-;-;-;-
1531163258250;-;-;-0.10538086;0.90052736;9.896221;-0.17298411;0.010577986;0.115375586;-5.1000004;23.550001;-40.95;10.559948;-5.7410045;-3.2635157;-;-;-;-;-;-
1531163258261;-;-;0.023950197;0.9532178;9.968072;-0.11812299;0.033481173;0.05412288;-5.1000004;23.550001;-40.95;10.559948;-5.7410045;-3.2635157;-;-;-;-;-;-
1531163258270;-;-;-0.06706055;1.0585986;10.001602;-0.057935543;0.057982255;-0.015119308;-5.4;24.300001;-41.25;10.340973;-5.4444757;-3.2189422;-;-;-;-;-;-
1531163258280;-;-;-0.18681154;1.2166699;9.996812;-0.003607057;0.11071285;-0.05879515;-5.4;24.300001;-41.25;10.340973;-5.4444757;-3.2189422;-;-;-;-;-;-
1531163258290;-;-;-0.25866213;1.2741505;10.078242;0.053917225;0.15864974;-0.07051306;-4.05;23.550001;-39.600002;10.275081;-5.3066354;-3.245372;-;-;-;-;-;-
1531163258301;-;-;-0.38320315;1.21188;10.221944;0.113572985;0.18208057;-0.06572231;-4.05;23.550001;-39.600002;10.275081;-5.3066354;-3.245372;-;-;-;-;-;-
1531163258311;-;-;-0.3544629;1.1543995;10.059082;0.15884672;0.1778195;-0.0737118;-5.25;25.2;-40.65;10.324677;-5.304966;-3.3757968;-;-;-;-;-;-
1531163258321;-;-;-0.244292;1.1735597;9.924961;0.17056464;0.17462371;-0.07424443;-5.25;25.2;-40.65;10.324677;-5.304966;-3.3757968;-;-;-;-;-;-
1531163258331;-;-;-0.14849122;1.22625;9.977652;0.18228254;0.15331842;-0.08596234;-4.2000003;24.45;-40.65;10.382829;-5.4275775;-3.5842304;-;-;-;-;-;-
1531163258342;-;-;-0.1820215;1.2885206;9.881851;0.19240256;0.13627419;-0.08915813;-4.65;23.400002;-42.300003;10.448129;-5.6141987;-3.7907612;-;-;-;-;-;-
1531163258352;-;-;-0.21555176;1.4274317;9.532178;0.18547833;0.10218573;-0.07797285;-4.65;23.400002;-42.300003;10.448129;-5.6141987;-3.7907612;-;-;-;-;-;-
1531163258362;-;-;-0.19639161;1.4465919;9.469908;0.17162989;0.10058784;-0.063591786;-3.3000002;24.300001;-38.100002;10.448129;-5.6141987;-3.7907612;-;-;-;-;-;-
1531163258372;-;-;-0.2778223;1.6429834;9.627979;0.14073722;0.11070785;-0.06412441;-3.3000002;24.300001;-38.100002;10.538063;-5.8284745;-3.9489796;-;-;-;-;-;-
1531163258383;-;-;-0.2921924;1.5663428;9.671089;0.12422563;0.0851415;-0.058798093;-3.9;24.150002;-41.850002;10.538063;-5.8284745;-3.9489796;-;-;-;-;-;-
1531163258393;-;-;-0.57001466;1.7531544;9.766891;0.066701345;0.02016037;-0.009263296;-3.9;24.150002;-41.850002;10.608016;-6.0235806;-4.0702705;-;-;-;-;-;-
1531163258403;-;-;-0.5843848;1.7818946;9.83874;0.016101286;-0.016058622;0.040804133;-4.3500004;22.95;-40.95;10.655525;-6.174894;-4.154434;-;-;-;-;-;-
1531163258414;-;-;-0.38320315;1.8154249;10.078242;-0.039292466;-0.04801656;0.09832841;-4.3500004;22.95;-40.95;10.655525;-6.174894;-4.154434;-;-;-;-;-;-
1531163258424;-;-;-0.1580713;1.5807129;10.212363;-0.06911987;-0.043222867;0.1212316;-4.3500004;22.95;-40.95;10.655525;-6.174894;-4.154434;-;-;-;-;-;-
1531163258434;-;-;0.21076173;1.3124708;10.648257;-0.06379355;0.010572988;0.11004632;-4.05;23.25;-40.95;10.62101;-6.21761;-4.141247;-;-;-;-;-;-
1531163258445;-;-;0.36883304;1.2166699;10.902129;-0.041955628;0.028682485;0.09246946;-4.65;24.150002;-42.300003;10.499966;-6.1600075;-4.0771995;-;-;-;-;-;-
1531163258455;-;-;0.5748047;1.096919;10.997931;-0.0020082106;0.057977255;0.028553594;-4.65;24.150002;-42.300003;10.499966;-6.1600075;-4.0771995;-;-;-;-;-;-
1531163258466;-;-;0.613125;1.1160791;10.916499;0.020362344;0.10058784;-0.036960173;-4.8;22.2;-41.25;10.3888645;-6.1133156;-4.088867;-;-;-;-;-;-
1531163258475;-;-;0.5939649;1.1543995;10.916499;0.041667633;0.14000261;-0.100343406;-4.8;22.2;-41.25;10.3888645;-6.1133156;-4.088867;-;-;-;-;-;-
1531163258486;-;-;0.45505372;1.2741505;11.02188;0.04326553;0.13201313;-0.12804027;-4.8;22.2;-41.25;10.3888645;-6.1133156;-4.088867;-;-;-;-;-;-
1531163258495;-;-;0.13891114;1.4370118;11.0123005;0.088539265;0.15225315;-0.22284882;-3.7500002;24.0;-41.25;10.386862;-6.1266966;-4.185752;-;-;-;-;-;-
1531163258505;-;-;-0.081430666;1.590293;11.0123005;0.09386559;0.13680682;-0.25374147;-3.0;23.25;-41.7;10.522337;-6.171661;-4.3565426;-;-;-;-;-;-
1531163258515;-;-;-0.9196875;1.6717237;10.791959;0.10292034;0.14586157;-0.2606657;-3.0;23.25;-41.7;10.522337;-6.171661;-4.3565426;-;-;-;-;-;-
1531163258526;-;-;-1.705254;1.5376027;10.863809;0.095463485;0.1794174;-0.2010109;-2.5500002;23.85;-41.100002;10.772999;-6.254813;-4.5531387;-;-;-;-;-;-
1531163258536;-;-;-2.4764502;1.4897022;10.696157;0.054983437;0.2406701;-0.033764377;-2.5500002;23.85;-41.100002;10.772999;-6.254813;-4.5531387;-;-;-;-;-;-
1531163258546;-;-;-2.5387208;1.465752;10.619517;0.037406575;0.26357332;0.016303053;-2.4;24.6;-41.7;10.772999;-6.254813;-4.5531387;-;-;-;-;-;-
1531163258557;-;-;-2.198628;1.0729688;10.523716;-0.19215791;0.3179018;0.30978343;-2.4;24.6;-41.7;11.0070915;-6.348856;-4.773559;-;-;-;-;-;-
1531163258567;-;-;-1.3124708;0.5604346;11.2374325;-0.3620676;0.26783437;0.3891456;-4.8;23.25;-40.95;10.945894;-6.375491;-5.0631223;-;-;-;-;-;-
1531163258577;-;-;-0.9148975;0.244292;11.692486;-0.42545086;0.19326584;0.3742319;-4.8;23.25;-40.95;10.945894;-6.375491;-5.0631223;-;-;-;-;-;-
1531163258588;-;-;-0.488584;-0.09101075;12.588223;-0.39935187;-0.010199669;0.25545493;-3.7500002;21.6;-42.15;10.530321;-6.141802;-5.371817;-;-;-;-;-;-
1531163258598;-;-;-0.4742139;-0.1341211;12.957056;-0.24861693;-0.2221873;0.11430738;-3.7500002;21.6;-42.15;10.530321;-6.141802;-5.371817;-;-;-;-;-;-
1531163258608;-;-;-0.5556446;-0.100590825;12.961846;-0.2033432;-0.28823367;0.0732947;-3.15;24.750002;-41.850002;10.125681;-5.702457;-5.490736;-;-;-;-;-;-
1531163258618;-;-;-1.3028907;0.22992188;11.735597;0.18388043;-0.58490986;-0.108332895;-3.15;24.750002;-41.850002;10.125681;-5.702457;-5.490736;-;-;-;-;-;-
1531163258629;-;-;-1.3747413;0.4263135;10.480606;0.33355007;-0.58757305;-0.12271396;-4.65;24.150002;-43.5;10.033782;-5.4500103;-5.1988564;-;-;-;-;-;-
1531163258639;-;-;-1.4274317;0.57959473;9.953702;0.37669328;-0.55135405;-0.116855;-4.65;24.150002;-43.5;10.033782;-5.4500103;-5.1988564;-;-;-;-;-;-
1531163258649;-;-;-1.4753321;0.5604346;8.454419;0.3703017;-0.27811366;-0.09981077;-3.15;23.400002;-41.550003;10.208241;-5.646707;-4.5661526;-;-;-;-;-;-
1531163258660;-;-;-1.5519727;0.5987549;8.061636;0.3154406;-0.120454535;-0.08223391;-3.15;23.400002;-41.550003;10.208241;-5.646707;-4.5661526;-;-;-;-;-;-
1531163258670;-;-;-1.4897022;0.5987549;7.9466753;0.26057947;-0.006471243;-0.058265463;-3.0;23.550001;-41.7;10.385368;-6.0713353;-4.048857;-;-;-;-;-;-
1531163258681;-;-;-1.3603711;0.6610254;8.363408;0.016101286;0.2305501;0.0418694;-3.9;23.400002;-42.300003;10.385368;-6.0713353;-4.048857;-;-;-;-;-;-
1531163258692;-;-;-1.1400293;0.35925296;9.187295;-0.20121266;0.19646163;0.04240203;-3.9;23.400002;-42.300003;10.478859;-6.40318;-3.9399655;-;-;-;-;-;-
1531163258701;-;-;-1.0825489;0.30177248;9.369317;-0.25980222;0.1645037;0.013107259;-3.3000002;22.95;-41.7;10.478859;-6.40318;-3.9399655;-;-;-;-;-;-
1531163258712;-;-;-1.0825489;0.30177248;9.369317;-0.25980222;0.1645037;0.013107259;-3.3000002;22.95;-41.7;10.413701;-6.4137483;-4.1770644;-;-;-;-;-;-
1531163258722;-;-;-1.2693604;0.20118165;10.178833;-0.33437073;-0.05334288;-0.1200508;-2.8500001;23.1;-41.100002;10.389774;-6.100133;-4.3517056;-;-;-;-;-;-
1531163258733;-;-;-1.7531544;0.4981641;10.269844;-0.2560738;-0.20940413;-0.15680242;-2.8500001;23.1;-41.100002;10.389774;-6.100133;-4.3517056;-;-;-;-;-;-
1531163258743;-;-;-2.0166066;0.79035646;10.241104;-0.19056001;-0.24615575;-0.108332895;-3.9;23.85;-44.25;10.538104;-5.7081895;-4.29425;-;-;-;-;-;-
1531163258754;-;-;-2.0070264;1.0106983;9.460327;-0.043553524;-0.23230731;0.07435996;-3.9;23.85;-44.25;10.538104;-5.7081895;-4.29425;-;-;-;-;-;-
1531163258764;-;-;-1.7627344;0.9627979;9.110655;-0.0036061073;-0.1923599;0.15372217;-4.05;23.550001;-42.9;10.680821;-5.469623;-4.116321;-;-;-;-;-;-
1531163258774;-;-;-1.1783496;0.5364844;8.54543;1.2231828E-4;-0.09222503;0.23308438;-4.05;23.550001;-42.9;10.680821;-5.469623;-4.116321;-;-;-;-;-;-
1531163258784;-;-;-0.8047266;0.29698244;8.358619;-0.029172454;-0.018721784;0.23361701;-2.8500001;23.1;-41.850002;10.559533;-5.4875393;-4.3864202;-;-;-;-;-;-
1531163258794;-;-;-0.4167334;0.23471193;8.62207;-0.06432618;0.08727203;0.18354958;-2.8500001;23.1;-41.850002;10.559533;-5.4875393;-4.3864202;-;-;-;-;-;-
1531163258805;-;-;-0.364043;0.34009278;8.962164;-0.074446194;0.14319842;0.112709485;-3.6000001;23.400002;-41.100002;10.308344;-5.4905496;-4.2960415;-;-;-;-;-;-
1531163258815;-;-;-0.488584;0.4742139;9.196876;-0.040890362;0.15225315;0.06210942;-3.6000001;23.400002;-41.100002;10.308344;-5.4905496;-4.2960415;-;-;-;-;-;-
1531163258825;-;-;-0.852627;0.7232959;9.335787;0.006513905;0.12562154;0.031216754;-3.7500002;22.95;-40.95;10.117636;-5.4264917;-4.399728;-;-;-;-;-;-
1531163258837;-;-;-1.1831397;0.92926764;9.148975;0.04379816;0.06490148;0.053587306;-3.7500002;22.95;-40.95;10.117636;-5.4264917;-4.399728;-;-;-;-;-;-
1531163258846;-;-;-1.336421;1.092129;8.947793;0.040069737;0.03294354;0.09566525;-3.0;23.25;-41.7;10.041122;-5.4070654;-4.5532856;-;-;-;-;-;-
1531163258857;-;-;-1.3507911;1.3028907;8.50711;-0.013726119;-7.965637E-5;0.19686538;-3.0;23.25;-41.7;10.041122;-5.4070654;-4.5532856;-;-;-;-;-;-
1531163258866;-;-;-1.0681788;1.3507911;8.368198;-0.06805461;-0.0043407143;0.24640018;-2.8500001;23.400002;-42.300003;9.963662;-5.457324;-4.6172915;-;-;-;-;-;-
1531163258876;-;-;-0.6706055;1.2549903;8.4304695;-0.14901471;-0.016058622;0.29060864;-2.8500001;23.400002;-42.300003;9.963662;-5.457324;-4.6172915;-;-;-;-;-;-
1531163258887;-;-;-0.32572266;1.0681788;8.646021;-0.19002739;-0.026178634;0.2879455;-4.05;25.050001;-41.7;9.734934;-5.4464474;-4.5943027;-;-;-;-;-;-
1531163258897;-;-;-0.07664063;1.0585986;8.770562;-0.21133268;-0.037363913;0.2533244;-4.05;25.050001;-41.7;9.734934;-5.4464474;-4.5943027;-;-;-;-;-;-
1531163258907;-;-;0.0;1.092129;9.029224;-0.20920214;-0.032570224;0.21337698;-4.9500003;23.85;-41.550003;9.409466;-5.302292;-4.5452986;-;-;-;-;-;-
1531163258918;-;-;-0.05269043;1.1543995;9.148975;-0.2049411;-0.036298648;0.1707664;-4.9500003;23.85;-41.550003;9.409466;-5.302292;-4.5452986;-;-;-;-;-;-
1531163258928;-;-;-0.33530274;1.2885206;9.422008;-0.18949476;-0.039494444;0.14786322;-3.9;24.150002;-41.850002;9.131656;-5.0884123;-4.4770412;-;-;-;-;-;-
1531163258938;-;-;-0.44547364;1.331631;9.307046;-0.1820379;-0.04162497;0.14466743;-3.9;24.150002;-41.850002;9.131656;-5.0884123;-4.4770412;-;-;-;-;-;-
1531163258949;-;-;-0.46942386;1.4465919;9.3453665;-0.1852337;-0.040027075;0.15265691;-3.7500002;23.25;-42.9;8.939037;-4.8743815;-4.418972;-;-;-;-;-;-
1531163258959;-;-;-0.40715334;1.4465919;9.393267;-0.19695161;-0.033635486;0.1377432;-3.7500002;23.25;-42.9;8.939037;-4.8743815;-4.418972;-;-;-;-;-;-
1531163258970;-;-;-0.49337405;1.3747413;9.5561285;-0.2033432;-0.0272439;0.11697054;-3.15;23.400002;-43.5;8.771879;-4.678411;-4.357634;-;-;-;-;-;-
1531163258980;-;-;-0.46942386;1.2693604;9.570498;-0.22677901;-0.058669202;0.09406736;-3.3000002;23.25;-42.45;8.771879;-4.678411;-4.357634;-;-;-;-;-;-
1531163258990;-;-;-0.33530274;1.3076807;9.594449;-0.25500852;-0.1050082;0.04506519;-3.3000002;23.25;-42.45;8.617794;-4.471813;-4.3034678;-;-;-;-;-;-
1531163259000;-;-;-0.27303225;1.2549903;9.958491;-0.25181273;-0.11406295;-0.011393825;-3.7500002;24.6;-42.15;8.521944;-4.2287455;-4.2158523;-;-;-;-;-;-
1531163259011;-;-;-0.75203615;1.5998731;10.619517;-0.17031999;-0.15560827;-0.06785284;-3.7500002;24.6;-42.15;8.521944;-4.2287455;-4.2158523;-;-;-;-;-;-
1531163259022;-;-;-0.89573735;1.7292042;10.791959;-0.08829463;-0.17052197;-0.0737118;-4.2000003;23.85;-42.300003;8.551709;-3.9602084;-4.073323;-;-;-;-;-;-
1531163259032;-;-;-0.8286768;1.575923;10.590776;0.049124483;-0.19395779;-0.069450736;-4.2000003;23.85;-42.300003;8.551709;-3.9602084;-4.073323;-;-;-;-;-;-
1531163259042;-;-;-0.63707525;1.5615528;10.384805;0.121562466;-0.18703358;-0.0721139;-3.0;24.0;-41.7;8.6470175;-3.84785;-3.8828347;-;-;-;-;-;-
1531163259053;-;-;-0.4263135;1.4465919;10.0063925;0.22222996;-0.09488819;-0.09341919;-3.0;24.0;-41.7;8.6470175;-3.84785;-3.8828347;-;-;-;-;-;-
1531163259063;-;-;-0.46463382;1.4418018;9.79563;0.24246998;-0.016591255;-0.105137095;-2.4;24.6;-42.15;8.745407;-3.9716763;-3.6821415;-;-;-;-;-;-
1531163259074;-;-;-0.47900394;1.4465919;9.72857;0.2595142;0.09100046;-0.10673499;-2.4;24.6;-42.15;8.745407;-3.9716763;-3.6821415;-;-;-;-;-;-
1531163259084;-;-;-0.50774413;1.5088624;9.920172;0.2547205;0.15544894;-0.10300657;-3.9;23.400002;-43.95;8.867544;-4.2337437;-3.6344938;-;-;-;-;-;-
1531163259094;-;-;-0.6610254;1.5232325;10.356065;0.22276258;0.2007227;-0.09554972;-3.9;23.400002;-43.95;8.867544;-4.2337437;-3.6344938;-;-;-;-;-;-
1531163259104;-;-;-0.64186525;1.331631;10.8925495;0.24246998;0.22522376;-0.094484456;-4.2000003;24.750002;-42.75;8.984101;-4.532481;-3.7753463;-;-;-;-;-;-
1531163259115;-;-;-0.60833496;1.2741505;11.385923;0.3010595;0.20711428;-0.09554972;-4.2000003;24.750002;-42.75;8.984101;-4.532481;-3.7753463;-;-;-;-;-;-
1531163259124;-;-;-0.5939649;1.1400293;11.438614;0.38574803;0.17835213;-0.1019413;-3.15;23.85;-43.050003;9.082389;-4.7955637;-4.0321965;-;-;-;-;-;-
1531163259134;-;-;-0.33530274;1.0202783;11.275752;0.464045;0.17462371;-0.11312658;-3.15;23.85;-43.050003;9.082389;-4.7955637;-4.0321965;-;-;-;-;-;-
1531163259144;-;-;-0.37362307;1.0011182;11.050621;0.494405;0.15065525;-0.14721504;-3.3000002;22.650002;-40.95;9.17354;-5.177864;-4.2667103;-;-;-;-;-;-
1531163259155;-;-;-0.52690434;1.1208692;10.839859;0.51038396;0.16077527;-0.17171612;-3.3000002;22.650002;-40.95;9.17354;-5.177864;-4.2667103;-;-;-;-;-;-
1531163259164;-;-;-0.6562354;1.2837305;10.825489;0.5173082;0.18740688;-0.19248877;-2.1000001;24.45;-42.75;9.308858;-5.7086897;-4.471356;-;-;-;-;-;-
1531163259174;-;-;-0.7376661;1.3651612;10.815908;0.5093187;0.21670166;-0.19089088;-2.1000001;24.45;-42.75;9.308858;-5.7086897;-4.471356;-;-;-;-;-;-
1531163259184;-;-;-0.7089258;1.465752;10.950029;0.51517767;0.2470617;-0.18183613;-3.0;21.150002;-42.9;9.49573;-6.280326;-4.687436;-;-;-;-;-;-
1531163259195;-;-;-0.5364844;1.5280225;11.01709;0.5141124;0.23321326;-0.163194;-3.0;21.150002;-42.9;9.49573;-6.280326;-4.687436;-;-;-;-;-;-
1531163259205;-;-;-0.43110353;1.7387843;10.466236;0.4709692;0.18687426;-0.15200873;-4.3500004;21.6;-41.7;9.678205;-6.8535023;-4.974688;-;-;-;-;-;-
1531163259215;-;-;-0.3161426;1.7148341;10.039923;0.3740301;0.21563639;-0.14668241;-4.3500004;21.6;-41.7;9.678205;-6.8535023;-4.974688;-;-;-;-;-;-
1531163259226;-;-;-0.6849756;1.5040723;9.766891;0.26750368;0.2864765;-0.13230133;-1.5;22.35;-42.75;9.831967;-7.4104023;-5.2358146;-;-;-;-;-;-
1531163259236;-;-;-1.0394385;0.8909473;9.513018;0.036873944;0.54427046;-0.059330724;-1.5;22.35;-42.75;9.831967;-7.4104023;-5.2358146;-;-;-;-;-;-
1531163259246;-;-;-0.5460645;0.26345217;9.891431;-0.17085263;0.8116518;-0.03802544;-2.5500002;21.0;-41.550003;9.95096;-7.787309;-5.540161;-;-;-;-;-;-
1531163259256;-;-;-0.009580079;-0.3065625;10.839859;-0.32105494;1.0790333;-0.08649497;-2.5500002;21.0;-41.550003;9.95096;-7.787309;-5.540161;-;-;-;-;-;-
1531163259266;-;-;0.3065625;-0.6849756;12.262501;-0.3482192;1.2670524;-0.24575199;-2.4;20.85;-43.65;9.927027;-7.676777;-6.195542;-;-;-;-;-;-
1531163259277;-;-;-0.3305127;-0.5604346;13.608501;-0.19908214;1.2015387;-0.4241838;-2.4;20.85;-43.65;9.927027;-7.676777;-6.195542;-;-;-;-;-;-
1531163259287;-;-;-0.93405765;-0.119750984;14.403648;0.05285291;0.8718393;-0.5711903;-0.90000004;20.85;-42.15;9.915844;-7.2712064;-7.4679737;-;-;-;-;-;-
1531163259297;-;-;-1.6669337;0.4742139;14.168936;0.35964906;0.37009975;-0.6574767;-0.90000004;20.85;-42.15;9.915844;-7.2712064;-7.4679737;-;-;-;-;-;-
1531163259307;-;-;-2.4716604;0.9053174;12.080479;0.62756383;-0.3260546;-0.62392324;0.15;22.35;-42.300003;10.286415;-7.071822;-8.78084;-;-;-;-;-;-
1531163259318;-;-;-2.8500733;1.1400293;10.5764065;0.64620596;-0.65468866;-0.53923476;0.15;22.35;-42.300003;10.286415;-7.071822;-8.78084;-;-;-;-;-;-
1531163259328;-;-;-2.7686427;1.3172607;8.49753;0.5252985;-1.0126176;-0.37624925;0.3;20.85;-43.350002;10.998846;-7.438517;-9.118054;-;-;-;-;-;-
1531163259339;-;-;-2.5339308;1.3891114;7.534732;0.36497617;-1.1175461;-0.28090808;0.6;20.550001;-41.7;11.68793;-8.033807;-8.4776125;-;-;-;-;-;-
1531163259348;-;-;-2.1411476;1.6142433;6.581514;0.022493633;-0.9987691;-0.11099841;0.6;20.550001;-41.7;11.68793;-8.033807;-8.4776125;-;-;-;-;-;-
1531163259358;-;-;-1.8106349;1.6094532;6.595884;-0.17724346;-0.8187394;0.018963858;0.6;20.550001;-41.7;11.68793;-8.033807;-8.4776125;-;-;-;-;-;-
1531163259369;-;-;-1.456172;1.1639795;6.9311867;-0.4377006;-0.43790737;0.21763569;-0.45000002;19.35;-42.75;12.144435;-8.298985;-7.291644;-;-;-;-;-;-
1531163259378;-;-;-1.1879297;0.9627979;7.486831;-0.54582494;-0.15561226;0.3188358;-0.45000002;19.35;-42.75;12.144435;-8.298985;-7.291644;-;-;-;-;-;-
1531163259388;-;-;-0.87178713;0.3065625;8.789722;-0.65448195;0.2039145;0.4147096;0.15;20.7;-43.5;12.194927;-8.028169;-6.453588;-;-;-;-;-;-
1531163259399;-;-;-0.7424561;0.081430666;9.575289;-0.66619986;0.3216262;0.42056856;-0.6;18.75;-41.25;11.824282;-7.4164886;-6.320026;-;-;-;-;-;-
1531163259409;-;-;-0.7424561;-0.1820215;10.356065;-0.63477457;0.3402683;0.39287168;-0.6;18.75;-41.25;11.824282;-7.4164886;-6.320026;-;-;-;-;-;-
1531163259420;-;-;-0.57959473;-0.29698244;10.715318;-0.5942945;0.26783034;0.361979;-0.75;19.95;-41.100002;11.340674;-6.452686;-6.5410004;-;-;-;-;-;-
1531163259430;-;-;-0.488584;-0.28740236;11.04104;-0.44835326;0.0015142413;0.24852836;-0.75;19.95;-41.100002;11.340674;-6.452686;-6.5410004;-;-;-;-;-;-
1531163259440;-;-;-0.5460645;-0.25387207;10.863809;-0.3514142;-0.14815542;0.1931346;0.45000002;19.95;-42.75;10.932933;-5.8423767;-6.7384553;-;-;-;-;-;-
1531163259450;-;-;-0.51732427;-0.12454102;9.910591;-0.21346244;-0.36653465;0.1499914;0.45000002;19.95;-42.75;10.932933;-5.8423767;-6.7384553;-;-;-;-;-;-
1531163259461;-;-;-0.45026368;0.1820215;9.110655;-0.19588558;-0.47039792;0.14732823;-0.75;21.75;-43.050003;10.721825;-5.4554353;-6.5243983;-;-;-;-;-;-
1531163259471;-;-;-0.047900394;0.1820215;8.147857;-0.2406267;-0.5641412;0.118033454;-0.75;21.75;-43.050003;10.721825;-5.4554353;-6.5243983;-;-;-;-;-;-
1531163259482;-;-;0.3784131;0.16286133;7.812554;-0.32105416;-0.49862742;0.056248117;-1.35;21.6;-43.350002;10.623371;-5.1259913;-5.912919;-;-;-;-;-;-
