TimeStamp[ms];Prox[Cm];Lux[lux];AccX[m/s^2];AccY[m/s^2];AccZ[m/s^2];GyroX[rad/s];GyroY[rad/s];GyroZ[rad/s];MagnX[uT];MagnY[uT];MagnZ[uT];OrienYaw[degrees];OrienPitch[degrees];OrienRoll[degrees];Press[Pa];Temp[C°];Batt[%];Lat;Lng;Speed[m/s]
1531048425479;-;-;0.119750984;1.0250684;9.70941;-0.05082603;-0.13417237;0.041274745;-16.5;36.300003;-40.050003;20.074568;-5.503728;1.6674548;1020.7016;-;-;51.52506211;-0.1334568;1.9700000286102295
1531048425483;-;-;0.20597169;0.9532178;9.656719;-0.061478678;-0.14642291;0.055655815;-14.55;38.850002;-38.7;20.048218;-5.5566278;1.7047447;1020.7016;-;-;51.52506211;-0.1334568;1.9700000286102295
1531048425496;-;-;0.3161426;1.0442286;10.130933;-0.07905553;-0.19329454;0.031687364;-14.55;38.850002;-38.7;20.048218;-5.5566278;1.7047447;1020.7016;-;-;51.52506211;-0.1334568;1.9700000286102295
1531048425500;-;-;0.33530274;1.0442286;10.092612;-0.06627236;-0.20554508;0.037013687;-14.55;38.850002;-38.7;20.048218;-5.5566278;1.7047447;1020.7016;-;-;51.52506211;-0.1334568;1.9700000286102295
1531048425511;-;-;0.3161426;0.91010743;10.274634;-0.03324917;-0.20288192;0.024763148;-16.35;39.600002;-39.9;20.015999;-5.526346;1.8255831;1020.7016;-;-;51.52506211;-0.1334568;1.9700000286102295
1531048425521;-;-;0.31135255;0.90052736;10.221944;-0.013541775;-0.18530506;0.018904194;-16.35;39.600002;-39.9;20.015999;-5.526346;1.8255831;1020.7016;-;-;51.52506211;-0.1334568;1.9700000286102295
1531048425531;-;-;0.23950197;0.847837;10.245894;0.008296146;-0.17092398;0.017838929;-17.85;38.7;-38.850002;19.984745;-5.441887;2.0342197;1020.75183;-;-;51.52506211;-0.1334568;1.9700000286102295
1531048425541;-;-;0.3065625;0.8286768;10.188414;0.010959308;-0.1480208;0.026361044;-16.95;38.550003;-41.550003;19.97916;-5.4026194;2.262499;1020.75183;-;-;51.52506211;-0.1334568;1.9700000286102295
1531048425552;-;-;0.45505372;0.977168;10.106983;0.010426675;-0.05321226;0.017306296;-16.95;38.550003;-41.550003;19.97916;-5.4026194;2.262499;1020.75183;-;-;51.52506211;-0.1334568;1.9700000286102295
1531048425562;-;-;0.43589357;0.9436377;10.106983;0.012557204;-0.009003784;0.0013273298;-17.550001;38.4;-40.5;19.977278;-5.4094696;2.4500725;1020.75183;-;-;51.52506211;-0.1334568;1.9700000286102295
1531048425572;-;-;0.35925296;1.0011182;10.269844;0.028003538;0.011236241;-0.014119005;-17.550001;38.4;-40.5;19.977278;-5.4094696;2.4500725;1020.75183;-;-;51.52506211;-0.1334568;1.9700000286102295
1531048425582;-;-;0.43110353;0.9148975;10.226734;0.05783094;0.013899403;-0.016249534;-17.1;38.7;-41.7;19.97147;-5.4239974;2.5176747;1020.75183;-;-;51.52506211;-0.1334568;1.9700000286102295
1531048425593;-;-;0.3784131;0.977168;10.250684;0.09831099;0.029345738;-0.0109232105;-17.1;38.7;-41.7;19.97147;-5.4239974;2.5176747;1020.75183;-;-;51.52506211;-0.1334568;1.9700000286102295
1531048425603;-;-;0.364043;0.92926764;10.183623;0.106833115;0.016029932;-0.020510592;-15.900001;37.5;-40.65;19.97623;-5.460963;2.5080383;1020.75183;-;-;51.52506211;-0.1334568;1.9700000286102295
1531048425613;-;-;0.3305127;1.0059083;9.977652;0.11428996;0.021356253;-0.012521109;-15.900001;37.5;-40.65;19.97623;-5.460963;2.5080383;1020.75183;-;-;51.52506211;-0.1334568;1.9700000286102295
1531048425623;-;-;0.28261232;0.9963282;9.905801;0.11215943;0.02029099;-0.011988476;-15.750001;38.100002;-39.300003;19.986217;-5.562442;2.480512;1020.7512;-;-;51.52506211;-0.1334568;1.9700000286102295
1531048425633;-;-;0.29698244;1.0490186;9.848321;0.11215943;0.020823622;-0.013053739;-15.750001;38.100002;-39.300003;19.986217;-5.562442;2.480512;1020.7512;-;-;51.52506211;-0.1334568;1.9700000286102295
1531048425644;-;-;0.42152345;0.97237796;9.857901;0.10150679;0.02561731;-0.016782166;-16.95;37.2;-39.45;19.998999;-5.692105;2.4561965;1020.7512;-;-;51.52506211;-0.1334568;1.9700000286102295
1531048425654;-;-;0.39278322;0.9867481;9.73815;0.08446256;0.02774784;-0.015184268;-16.95;37.2;-39.45;19.998999;-5.692105;2.4561965;1020.7512;-;-;51.52506211;-0.1334568;1.9700000286102295
1531048425664;-;-;0.39278322;1.0538087;9.666299;0.05250462;0.019225724;-0.019977959;-15.450001;37.050003;-39.600002;20.010832;-5.8185205;2.4316158;1020.7512;-;-;51.52506211;-0.1334568;1.9700000286102295
1531048425674;-;-;0.2682422;1.0059083;9.924961;0.031731963;0.026149943;-0.01039058;-15.450001;37.050003;-39.600002;20.010832;-5.8185205;2.4316158;1020.7512;-;-;51.52506211;-0.1334568;1.9700000286102295
1531048425684;-;-;0.35925296;1.0442286;9.992022;0.022677217;0.021356253;-0.015716901;-17.1;36.300003;-39.300003;20.026106;-5.9163465;2.3993387;1020.7512;-;-;51.52506211;-0.1334568;1.9700000286102295
1531048425694;-;-;0.32093263;0.9244776;9.920172;0.019481422;0.038400482;-0.016249534;-17.1;36.300003;-39.300003;20.026106;-5.9163465;2.3993387;1020.7512;-;-;51.52506211;-0.1334568;1.9700000286102295
1531048425705;-;-;0.3305127;0.97237796;9.915381;0.021079319;0.048520494;-0.019445326;-17.7;38.25;-39.9;20.04089;-5.9567533;2.3694155;1020.7512;-;-;51.52506211;-0.1334568;1.9700000286102295
1531048425715;-;-;0.45505372;0.92926764;9.901011;0.014687733;0.08740265;-0.021043224;-17.7;38.25;-39.9;20.04089;-5.9567533;2.3694155;1020.7512;-;-;51.52506211;-0.1334568;1.9700000286102295
1531048425725;-;-;0.3879932;0.9484278;9.862691;0.014155101;0.09912056;-0.02743481;-17.25;38.550003;-39.9;20.05216;-5.9833126;2.3248026;1020.7551;-;-;51.52506211;-0.1334568;1.9700000286102295
1531048425735;-;-;0.28261232;0.91010743;9.982442;-0.0028891307;0.081011064;-0.026902178;-17.25;38.550003;-39.9;20.05216;-5.9833126;2.3248026;1020.7551;-;-;51.52506211;-0.1334568;1.9700000286102295
1531048425747;-;-;0.25866213;0.8813672;10.001602;-0.003421014;0.055449773;-0.02102302;-16.800001;36.0;-40.5;20.070272;-6.0035276;2.23868;1020.7551;-;-;51.52506211;-0.1334568;1.9700000286102295
1531048425757;-;-;0.244292;0.93405765;10.207574;0.016286377;0.010708665;-0.0066419486;-16.800001;36.0;-40.5;20.070272;-6.0035276;2.23868;1020.7551;-;-;51.52506211;-0.1334568;1.9700000286102295
1531048425767;-;-;0.28261232;1.0154883;10.241104;0.053570636;-0.022847164;-0.003978788;-17.25;37.800003;-40.65;20.091166;-6.0082726;2.133463;1020.7551;-;-;51.52506211;-0.1334568;1.9700000286102295
1531048425777;-;-;0.3544629;0.9867481;10.250684;0.082332775;-0.046282984;-0.0045114197;-17.25;37.800003;-40.65;20.091166;-6.0082726;2.133463;1020.7551;-;-;51.52506211;-0.1334568;1.9700000286102295
1531048425787;-;-;0.42152345;0.98195803;10.150093;0.10896438;-0.044685084;-0.017294593;-15.6;38.550003;-39.9;20.102882;-6.015396;2.093272;1020.7551;-;-;51.52506211;-0.1334568;1.9700000286102295
1531048425797;-;-;0.35925296;1.0490186;10.0063925;0.12547599;-0.050011408;-0.015696697;-15.6;38.550003;-39.9;20.102882;-6.015396;2.093272;1020.7551;-;-;51.52506211;-0.1334568;1.9700000286102295
1531048425807;-;-;0.37362307;0.9867481;9.829161;0.12068229;-0.030836647;-0.015696697;-16.650002;38.850002;-39.9;20.110783;-6.0867076;2.1273646;1020.7551;-;-;51.52506211;-0.1334568;1.9700000286102295
1531048425818;-;-;0.4263135;0.97237796;9.632769;0.10789912;-0.009531359;-0.027414605;-16.650002;38.850002;-39.9;20.110783;-6.0867076;2.1273646;1020.754;-;-;51.52506211;-0.1334568;1.9700000286102295
1531048425828;-;-;0.3544629;1.0250684;9.527389;0.06315801;0.003251814;-0.024751445;-15.450001;37.65;-40.95;20.130882;-6.2136126;2.1835804;1020.754;-;-;51.52506211;-0.1334568;1.9700000286102295
1531048425838;-;-;0.39278322;1.1304493;9.68067;0.0381243;0.0069802394;-0.022620916;-15.450001;37.65;-40.95;20.130882;-6.2136126;2.1835804;1020.754;-;-;51.52506211;-0.1334568;1.9700000286102295
1531048425848;-;-;0.33530274;1.0825489;9.929751;0.02853692;0.007512872;-0.027414605;-16.800001;37.65;-38.850002;20.157352;-6.347402;2.202386;1020.754;-;-;51.52506211;-0.1334568;1.9700000286102295
1531048425858;-;-;0.48379397;1.0154883;10.083033;0.037059035;0.0016539174;-0.026349341;-16.800001;37.65;-38.850002;20.157352;-6.347402;2.202386;1020.754;-;-;51.52506211;-0.1334568;1.9700000286102295
1531048425868;-;-;0.4167334;0.9627979;9.944121;0.04984221;0.015502355;-0.0455241;-15.750001;36.600002;-39.300003;20.185923;-6.4128137;2.1945539;1020.754;-;-;51.52506211;-0.1334568;1.9700000286102295
1531048425879;-;-;0.34967285;1.1064991;9.75731;0.047711678;0.021893943;-0.03274093;-15.750001;36.600002;-39.300003;20.185923;-6.4128137;2.1945539;1020.754;-;-;51.52506211;-0.1334568;1.9700000286102295
1531048425888;-;-;0.29698244;0.9963282;9.77168;0.025341125;0.028818162;-0.04978516;-13.500001;36.9;-40.2;20.217442;-6.4514203;2.186049;1020.754;-;-;51.52506211;-0.1334568;1.9700000286102295
1531048425898;-;-;0.3161426;1.096919;9.81958;0.0072316304;0.009643401;-0.04339357;-13.500001;36.9;-40.2;20.217442;-6.4514203;2.186049;1020.754;-;-;51.52506211;-0.1334568;1.9700000286102295
1531048425908;-;-;0.2682422;1.096919;9.939331;-0.013008394;-0.005802934;-0.040730413;-15.450001;37.65;-40.5;20.268618;-6.504703;2.16353;1020.754;-;-;51.52506211;-0.1334568;1.9700000286102295
1531048425918;-;-;0.3065625;1.0777588;10.035132;-0.015671555;-0.013259785;-0.037001986;-15.450001;37.65;-40.5;20.268618;-6.504703;2.16353;1020.7512;-;-;51.52506211;-0.1334568;1.9700000286102295
1531048425928;-;-;0.1580713;1.101709;9.982442;-0.005551543;-0.03136928;-0.041263044;-15.900001;38.25;-38.7;20.318615;-6.525879;2.1324174;1020.7512;-;-;51.52506211;-0.1334568;1.9700000286102295
1531048425939;-;-;0.21555176;1.0873389;10.068663;-7.578528E-4;-0.0548051;-0.029012503;-15.900001;38.25;-38.7;20.318615;-6.525879;2.1324174;1020.7512;-;-;51.52506211;-0.1334568;1.9700000286102295
1531048425948;-;-;0.29698244;1.0873389;10.193204;0.021080067;-0.06705564;-0.025284078;-15.900001;37.2;-39.0;20.367664;-6.5110397;2.1369953;1020.7512;-;-;51.52506211;-0.1334568;1.9700000286102295
1531048425958;-;-;0.2778223;1.0825489;10.174044;0.048776943;-0.06385985;-0.0306104;-15.900001;37.2;-39.0;20.367664;-6.5110397;2.1369953;1020.7512;-;-;51.52506211;-0.1334568;1.9700000286102295
1531048425968;-;-;0.43110353;1.0490186;9.881851;0.06582118;-0.048946142;-0.04978516;-15.6;38.550003;-39.0;20.412294;-6.506656;2.1779978;1020.7512;-;-;51.52506211;-0.1334568;1.9700000286102295
1531048425978;-;-;0.35925296;1.0442286;9.560919;0.034395874;-0.022847164;-0.05457885;-15.6;38.550003;-39.0;20.412294;-6.506656;2.1779978;1020.7512;-;-;51.52506211;-0.1334568;1.9700000286102295
1531048425989;-;-;0.23950197;1.0538087;9.422008;-0.008214704;0.007512872;-0.04499147;-15.150001;36.300003;-40.050003;20.45184;-6.54404;2.249203;1020.7512;-;-;51.52506211;-0.1334568;1.9700000286102295
1531048425999;-;-;0.14370118;1.1448194;9.599238;-0.0593474;-0.003672405;-0.039665148;-15.150001;36.300003;-40.050003;20.45184;-6.54404;2.249203;1020.7512;-;-;51.52506211;-0.1334568;1.9700000286102295
1531048426009;-;-;0.17723145;1.0777588;9.72378;-0.09130533;-0.039358765;-0.034338824;-15.450001;37.050003;-40.050003;20.517242;-6.603417;2.2868137;1020.7512;-;-;51.52506211;-0.1334568;1.9700000286102295
1531048426019;-;-;0.2682422;1.1064991;9.833951;-0.115806416;-0.07344723;-0.023153547;-15.450001;37.050003;-40.050003;20.517242;-6.603417;2.2868137;1020.7506;-;-;51.52506211;-0.1334568;1.9700000286102295
1531048426029;-;-;0.33530274;1.1256592;9.910591;-0.11900221;-0.1043399;-0.05031779;-16.650002;37.800003;-40.2;20.573603;-6.5702615;2.2792811;1020.7506;-;-;51.52506211;-0.1334568;1.9700000286102295
1531048426039;-;-;0.31135255;1.1256592;9.877061;-0.11846957;-0.12244939;-0.057774644;-16.650002;37.800003;-40.2;20.573603;-6.5702615;2.2792811;1020.7506;-;-;51.52506211;-0.1334568;1.9700000286102295
1531048426049;-;-;0.26345217;1.0250684;9.78605;-0.12858959;-0.13469994;-0.064166225;-15.750001;37.65;-38.850002;20.619173;-6.4583535;2.3287067;1020.7506;-;-;51.52506211;-0.1334568;1.9700000286102295
1531048426060;-;-;0.19160157;0.9867481;9.766891;-0.1387096;-0.1176557;-0.051915687;-15.750001;37.65;-38.850002;20.619173;-6.4583535;2.3287067;1020.7506;-;-;51.52506211;-0.1334568;1.9700000286102295
1531048426070;-;-;0.19639161;0.7951465;10.217154;-0.09556639;-0.080904074;-0.0050440524;-15.900001;36.9;-38.7;20.691687;-6.325757;2.4479454;1020.7506;-;-;51.52506211;-0.1334568;1.9700000286102295
1531048426080;-;-;0.244292;0.7759864;10.332115;-0.03804211;-0.09262199;2.8227014E-4;-15.900001;35.850002;-38.7;20.77103;-6.1801734;2.58728;1020.7506;-;-;51.52506211;-0.1334568;1.9700000286102295
1531048426090;-;-;0.17723145;1.0633887;10.403965;0.026939023;-0.16186418;0.0066738566;-15.900001;35.850002;-38.7;20.77103;-6.1801734;2.58728;1020.7506;-;-;51.52506211;-0.1334568;1.9700000286102295
1531048426100;-;-;0.27303225;1.2885206;10.303374;0.051972736;-0.14854838;0.011467546;-15.750001;37.65;-40.050003;20.793102;-6.084173;2.6971648;1020.7506;-;-;51.52506211;-0.1334568;1.9700000286102295
1531048426111;-;-;0.5939649;1.1927198;9.944121;0.047179047;-0.09635041;0.002412799;-15.750001;37.65;-40.050003;20.793102;-6.084173;2.6971648;1020.7506;-;-;51.52506211;-0.1334568;1.9700000286102295
1531048426121;-;-;0.6945557;1.0394385;9.800421;0.021080067;-0.08143671;-0.026881974;-15.6;37.5;-37.800003;20.806204;-6.1177616;2.8693895;1020.7493;-;-;51.52506211;-0.1334568;1.9700000286102295
1531048426131;-;-;0.6227051;1.0154883;9.77647;-0.035911582;-0.027640855;-0.053513587;-15.6;37.5;-37.800003;20.806204;-6.1177616;2.8693895;1020.7493;-;-;51.52506211;-0.1334568;1.9700000286102295
1531048426142;-;-;0.52690434;1.0681788;9.939331;-0.04762949;-0.0127271535;-0.055644114;-16.650002;37.5;-37.800003;20.829338;-6.165945;2.972104;1020.7493;-;-;51.52506211;-0.1334568;1.9700000286102295
1531048426152;-;-;0.49337405;1.092129;10.044712;-0.048694752;-0.0068681985;-0.043926205;-16.650002;37.5;-37.800003;20.829338;-6.165945;2.972104;1020.7493;-;-;51.52506211;-0.1334568;1.9700000286102295
1531048426162;-;-;0.488584;1.1112891;10.159674;-0.039640006;0.0064476067;-0.05670938;-16.5;37.350002;-38.850002;20.889044;-6.139366;3.0029907;1020.7493;-;-;51.52506211;-0.1334568;1.9700000286102295
1531048426172;-;-;0.4742139;1.101709;10.092612;-0.019932613;-0.0031397727;-0.054046217;-16.5;37.350002;-38.850002;20.889044;-6.139366;3.0029907;1020.7493;-;-;51.52506211;-0.1334568;1.9700000286102295
1531048426182;-;-;0.5029541;1.0777588;10.145303;-0.011943129;0.0011212851;-0.050850425;-16.650002;36.9;-39.45;20.948566;-6.0888786;3.0002854;1020.7493;-;-;51.52506211;-0.1334568;1.9700000286102295
1531048426192;-;-;0.46942386;1.1400293;10.183623;0.004035837;-0.022314532;-0.039665148;-16.650002;36.9;-39.45;20.948566;-6.0888786;3.0002854;1020.7493;-;-;51.52506211;-0.1334568;1.9700000286102295
1531048426203;-;-;0.4981641;1.0538087;10.078242;0.019482171;-0.016455578;-0.03540409;-17.7;37.5;-38.7;21.009567;-6.0637197;3.0003903;1020.7493;-;-;51.52506211;-0.1334568;1.9700000286102295
1531048426213;-;-;0.4742139;1.0825489;9.953702;0.026939023;-0.02444506;-0.04925253;-17.7;37.5;-38.7;21.009567;-6.0637197;3.0003903;1020.75;-;-;51.52506211;-0.1334568;1.9700000286102295
1531048426223;-;-;0.4023633;1.096919;10.001602;0.026939023;-0.036695603;-0.03806725;-17.25;37.2;-38.7;21.061932;-6.0680175;3.014733;1020.75;-;-;51.52506211;-0.1334568;1.9700000286102295
1531048426233;-;-;0.39757326;1.0681788;10.078242;0.0381243;-0.02391243;-0.022088284;-17.25;37.2;-38.7;21.061932;-6.0680175;3.014733;1020.75;-;-;51.52506211;-0.1334568;1.9700000286102295
1531048426244;-;-;0.46463382;1.0681788;9.977652;0.041852724;0.007512872;-0.017827226;-16.800001;37.350002;-38.850002;21.110645;-6.097874;3.0333216;1020.75;-;-;51.52506211;-0.1334568;1.9700000286102295
1531048426254;-;-;0.5125342;1.1256592;9.872271;0.032265343;0.026687633;-0.022088284;-16.800001;37.350002;-38.850002;21.110645;-6.097874;3.0333216;1020.75;-;-;51.52506211;-0.1334568;1.9700000286102295
1531048426264;-;-;0.50774413;1.0154883;9.72378;0.022145333;0.036275014;-0.03540409;-17.25;37.2;-38.7;21.14054;-6.141972;3.0561302;1020.75;-;-;51.52506211;-0.1334568;1.9700000286102295
1531048426274;-;-;0.45505372;1.1112891;9.685459;-0.00714944;0.046927657;-0.034338824;-17.25;37.2;-38.7;21.14054;-6.141972;3.0561302;1020.75;-;-;51.52506211;-0.1334568;1.9700000286102295
1531048426284;-;-;0.44547364;1.0585986;9.79563;-0.035378948;0.03787291;-0.033806194;-16.5;35.7;-38.4;21.158329;-6.1842093;3.025537;1020.75;-;-;51.52506211;-0.1334568;1.9700000286102295
1531048426294;-;-;0.44547364;1.0873389;9.958491;-0.04496633;0.024024472;-0.031143032;-16.5;35.7;-38.4;21.158329;-6.1842093;3.025537;1020.75;-;-;51.52506211;-0.1334568;1.9700000286102295
1531048426305;-;-;0.3305127;1.0585986;10.030342;-0.036976844;0.012839193;-0.018359859;-15.450001;38.100002;-40.050003;21.19565;-6.1844554;2.9736495;1020.75;-;-;51.52506211;-0.1334568;1.9700000286102295
1531048426315;-;-;0.31135255;1.0729688;10.083033;-0.011943129;-0.011661888;-0.007707213;-15.450001;38.100002;-40.050003;21.19565;-6.1844554;2.9736495;1020.74774;-;-;51.52506211;-0.1334568;1.9700000286102295
1531048426325;-;-;0.32093263;0.977168;9.901011;0.0072316304;-0.027640855;0.0018801668;-17.1;37.350002;-38.850002;21.230911;-6.1384616;2.9365568;1020.74774;-;-;51.52506211;-0.1334568;1.9700000286102295
1531048426335;-;-;0.3879932;1.0059083;9.896221;0.018949538;-0.033499807;0.007739121;-17.1;37.350002;-38.850002;21.230911;-6.1384616;2.9365568;1020.74774;-;-;51.52506211;-0.1334568;1.9700000286102295
1531048426345;-;-;0.35925296;1.0106983;9.992022;0.018949538;-0.049478777;0.0045433277;-15.750001;38.4;-39.300003;21.246334;-6.1139727;2.9452806;1020.74774;-;-;51.52506211;-0.1334568;1.9700000286102295
1531048426355;-;-;0.39757326;1.0106983;10.030342;0.04291799;-0.0532072;0.0018801668;-15.750001;38.4;-39.300003;21.246334;-6.1139727;2.9452806;1020.74774;-;-;51.52506211;-0.1334568;1.9700000286102295
1531048426366;-;-;0.4742139;1.0106983;9.968072;0.06369065;-0.032967176;-0.011968272;-17.1;37.350002;-39.300003;21.250175;-6.1301765;2.9826763;1020.74774;-;-;51.52506211;-0.1334568;1.9700000286102295
1531048426376;-;-;0.3879932;1.0633887;9.881851;0.04611378;-0.032434545;-0.022088284;-17.1;37.350002;-39.300003;21.250175;-6.1301765;2.9826763;1020.74774;-;-;51.52506211;-0.1334568;1.9700000286102295
1531048426386;-;-;0.3161426;1.101709;9.75252;0.028004287;-0.05587036;-0.032208294;-16.800001;36.0;-40.050003;21.252924;-6.163371;3.0398636;1020.74774;-;-;51.52506211;-0.1334568;1.9700000286102295
1531048426396;-;-;0.34967285;1.0681788;9.77168;0.008296895;-0.06013142;-0.033806194;-16.800001;36.0;-40.050003;21.252924;-6.163371;3.0398636;1020.74774;-;-;51.52506211;-0.1334568;1.9700000286102295
1531048426406;-;-;0.40715334;1.0346485;9.699829;-0.0066168075;-0.07664302;-0.0306104;-16.050001;38.100002;-38.850002;21.277884;-6.2196836;3.0754476;1020.74774;-;-;51.52506211;-0.1334568;1.9700000286102295
1531048426416;-;-;0.39757326;1.0059083;9.800421;-0.0066168075;-0.07983881;-0.025284078;-16.050001;38.100002;-38.850002;21.277884;-6.2196836;3.0754476;1020.7499;-;-;51.52506211;-0.1334568;1.9700000286102295
1531048426427;-;-;0.4406836;1.0011182;9.910591;0.0013726761;-0.0697188;-0.019957755;-15.750001;36.300003;-38.4;21.314249;-6.246798;3.1358712;1020.7499;-;-;51.52506211;-0.1334568;1.9700000286102295
1531048426437;-;-;0.36883304;1.0633887;9.977652;0.0056337337;-0.06599037;-0.019425122;-15.750001;36.300003;-38.4;21.314249;-6.246798;3.1358712;1020.7499;-;-;51.52506211;-0.1334568;1.9700000286102295
1531048426447;-;-;0.364043;0.977168;9.934542;0.01415585;-0.060664054;-0.015164064;-15.900001;36.9;-38.25;21.345175;-6.2431793;3.2161808;1020.7499;-;-;51.52506211;-0.1334568;1.9700000286102295
1531048426458;-;-;0.5556446;1.0681788;9.920172;0.020014804;-0.06226195;-0.022620916;-15.900001;36.9;-38.25;21.345175;-6.2431793;3.2161808;1020.7499;-;-;51.52506211;-0.1334568;1.9700000286102295
1531048426468;-;-;0.5556446;1.1208692;9.848321;0.011492689;-0.06865354;-0.026349341;-16.800001;38.100002;-39.600002;21.364925;-6.249007;3.2916248;1020.7499;-;-;51.52506211;-0.1334568;1.9700000286102295
1531048426478;-;-;0.5556446;1.096919;9.843531;0.008829528;-0.061196685;-0.036469355;-16.800001;38.100002;-39.600002;21.364925;-6.249007;3.2916248;1020.7499;-;-;51.52506211;-0.1334568;1.9700000286102295
1531048426488;-;-;0.613125;1.0585986;9.968072;0.013090585;-0.027108222;-0.0306104;-17.25;36.45;-39.0;21.386274;-6.2675276;3.360745;1020.7499;-;-;51.52506211;-0.1334568;1.9700000286102295
1531048426498;-;-;0.5556446;1.092129;9.963282;0.006698998;-0.013792417;-0.041263044;-17.25;36.45;-39.0;21.386274;-6.2675276;3.360745;1020.7499;-;-;51.52506211;-0.1334568;1.9700000286102295
1531048426508;-;-;0.613125;1.092129;9.872271;3.0741162E-4;0.02828553;-0.047121998;-17.25;38.550003;-40.2;21.42883;-6.2853227;3.4273472;1020.7515;-;-;51.52506211;-0.1334568;1.9700000286102295
1531048426519;-;-;0.5939649;1.1975098;9.77647;-0.01886735;0.038938172;-0.052980952;-17.25;38.550003;-40.2;21.42883;-6.2853227;3.4273472;1020.7515;-;-;51.52506211;-0.1334568;1.9700000286102295
1531048426529;-;-;0.45984375;1.092129;9.85311;-0.04816212;0.03840554;-0.052980952;-17.85;38.7;-39.600002;21.473185;-6.2998967;3.4439573;1020.7515;-;-;51.52506211;-0.1334568;1.9700000286102295
1531048426539;-;-;0.43110353;1.1448194;9.877061;-0.06147793;0.040003438;-0.056176748;-17.550001;38.4;-38.100002;21.524916;-6.2960443;3.401214;1020.7515;-;-;51.52506211;-0.1334568;1.9700000286102295
1531048426549;-;-;0.42152345;1.1496094;9.992022;-0.063075826;0.009643401;-0.04286094;-17.550001;38.4;-38.100002;21.524916;-6.2960443;3.401214;1020.7515;-;-;51.52506211;-0.1334568;1.9700000286102295
1531048426560;-;-;0.4167334;1.0490186;10.174044;-0.050825283;-0.0127271535;-0.04339357;-15.750001;38.100002;-40.5;21.581701;-6.2369456;3.349198;1020.7515;-;-;51.52506211;-0.1334568;1.9700000286102295
1531048426569;-;-;0.39278322;1.0681788;10.332115;0.006166366;-0.044152454;-0.029545136;-15.750001;38.100002;-40.5;21.581701;-6.2369456;3.349198;1020.7515;-;-;51.52506211;-0.1334568;1.9700000286102295
1531048426579;-;-;0.4981641;1.0490186;10.217154;0.036526404;-0.056402996;-0.019425122;-18.300001;35.850002;-39.9;21.627125;-6.1766005;3.3426123;1020.7515;-;-;51.52506211;-0.1334568;1.9700000286102295
1531048426589;-;-;0.5412744;1.1352394;9.939331;0.0695496;-0.06652301;-0.027947238;-18.300001;35.850002;-39.9;21.627125;-6.1766005;3.3426123;1020.7515;-;-;51.52506211;-0.1334568;1.9700000286102295
1531048426599;-;-;0.50774413;1.2310401;9.968072;0.07487592;-0.051609304;-0.025284078;-16.5;37.050003;-38.100002;21.663097;-6.1998925;3.3951008;1020.7515;-;-;51.52506211;-0.1334568;1.9700000286102295
1531048426609;-;-;0.5604346;1.1256592;9.81958;0.066353805;-0.02391243;-0.029012503;-16.5;37.050003;-38.100002;21.663097;-6.1998925;3.3951008;1020.752;-;-;51.52506211;-0.1334568;1.9700000286102295
1531048426619;-;-;0.613125;1.101709;9.7812605;0.048244312;-0.0010092438;-0.031143032;-16.5;37.350002;-38.4;21.702421;-6.2836647;3.4582262;1020.752;-;-;51.52506211;-0.1334568;1.9700000286102295
1531048426630;-;-;0.6658155;1.2022998;9.685459;0.0077642626;0.041068703;-0.0306104;-16.5;37.350002;-38.4;21.702421;-6.2836647;3.4582262;1020.752;-;-;51.52506211;-0.1334568;1.9700000286102295
1531048426640;-;-;0.62749517;1.1831397;9.80521;-0.00714944;0.06770031;-0.041795675;-16.050001;36.0;-39.600002;21.736689;-6.3546333;3.4714541;1020.752;-;-;51.52506211;-0.1334568;1.9700000286102295
1531048426650;-;-;0.5125342;1.101709;9.972861;-0.026324201;0.07249401;-0.041263044;-16.050001;36.0;-39.600002;21.736689;-6.3546333;3.4714541;1020.752;-;-;51.52506211;-0.1334568;1.9700000286102295
1531048426660;-;-;0.39278322;1.0681788;10.135723;-0.020465245;0.0591782;-0.03806725;-15.450001;36.600002;-38.850002;21.771574;-6.368506;3.4178598;1020.752;-;-;51.52506211;-0.1334568;1.9700000286102295
1531048426670;-;-;0.39278322;1.0633887;10.279425;0.018949538;0.027220264;-0.034338824;-15.450001;36.600002;-38.850002;21.771574;-6.368506;3.4178598;1020.752;-;-;51.52506211;-0.1334568;1.9700000286102295
1531048426680;-;-;0.47900394;1.101709;10.197993;0.041852724;0.029350795;-0.031143032;-16.650002;36.9;-39.45;21.81241;-6.3464704;3.3351777;1020.752;-;-;51.52506211;-0.1334568;1.9700000286102295
1531048426691;-;-;0.45505372;1.1879297;10.015972;0.056233793;0.020296047;-0.02102302;-16.650002;36.9;-39.45;21.81241;-6.3464704;3.3351777;1020.752;-;-;51.52506211;-0.1334568;1.9700000286102295
1531048426701;-;-;0.4981641;1.1304493;9.915381;0.051440105;0.033611853;-0.024218813;-16.35;35.4;-39.45;21.84491;-6.368661;3.2958183;1020.752;-;-;51.52506211;-0.1334568;1.9700000286102295
1531048426711;-;-;0.50774413;1.1975098;9.843531;0.026939023;0.04532976;-0.022088284;-16.35;35.4;-39.45;21.84491;-6.368661;3.2958183;1020.74646;-;-;51.52506211;-0.1334568;1.9700000286102295
1531048426721;-;-;0.46463382;1.096919;9.70941;0.0024379406;0.049058188;-0.02102302;-16.5;38.100002;-38.100002;21.867634;-6.430203;3.2607276;1020.74646;-;-;51.52506211;-0.1334568;1.9700000286102295
1531048426731;-;-;0.43589357;1.1208692;9.896221;-0.0146062905;0.022959206;-0.022088284;-16.5;38.100002;-38.100002;21.867634;-6.430203;3.2607276;1020.74646;-;-;51.52506211;-0.1334568;1.9700000286102295
1531048426741;-;-;0.41194338;1.096919;9.896221;-0.0023550629;0.019768048;-0.01674344;-15.450001;35.7;-40.5;21.884407;-6.4608965;3.2041082;1020.74646;-;-;51.52506211;-0.1334568;1.9700000286102295
1531048426752;-;-;0.39278322;1.0873389;10.030342;0.015221801;-0.0015372408;-0.0034276345;-15.450001;35.7;-40.5;21.884407;-6.4608965;3.2041082;1020.74646;-;-;51.52506211;-0.1334568;1.9700000286102295
1531048426761;-;-;0.36883304;1.0633887;10.035132;0.035461824;0.0016585526;-0.004492899;-15.900001;35.100002;-39.0;21.8974;-6.457607;3.1684253;1020.74646;-;-;51.52506211;-0.1334568;1.9700000286102295
1531048426771;-;-;0.3544629;1.101709;9.905801;0.057832375;0.0016585526;0.0040292167;-15.900001;35.100002;-39.0;21.8974;-6.457607;3.1684253;1020.74646;-;-;51.52506211;-0.1334568;1.9700000286102295
1531048426781;-;-;0.43110353;1.0442286;9.81958;0.04877763;-0.002069873;0.008822907;-15.900001;38.25;-40.2;21.901382;-6.4767427;3.1611826;1020.74646;-;-;51.52506211;-0.1334568;1.9700000286102295
1531048426791;-;-;0.48379397;1.0873389;9.69504;0.03759235;-0.019646738;0.0093555385;-15.900001;38.25;-40.2;21.901382;-6.4767427;3.1611826;1020.74646;-;-;51.52506211;-0.1334568;1.9700000286102295
1531048426802;-;-;0.45505372;1.1064991;9.6615095;0.009362847;-0.025505692;-2.3184111E-4;-16.800001;36.300003;-38.4;21.89536;-6.5335655;3.1646702;1020.74646;-;-;51.52506211;-0.1334568;1.9700000286102295
1531048426812;-;-;0.4981641;1.1352394;9.81;-0.014605604;-0.016450943;-0.02366766;-16.800001;36.300003;-38.4;21.89536;-6.5335655;3.1646702;1020.7433;-;-;51.52506211;-0.1334568;1.9700000286102295
1531048426822;-;-;0.46942386;1.1496094;9.910591;-0.021529824;-0.024440426;-0.011949751;-17.1;37.050003;-39.300003;21.892815;-6.570347;3.1872861;1020.7433;-;-;51.52506211;-0.1334568;1.9700000286102295
1531048426832;-;-;0.4742139;1.0729688;9.905801;-0.008214017;-0.02497306;-0.013547647;-17.1;37.050003;-39.300003;21.892815;-6.570347;3.1872861;1020.7433;-;-;51.52506211;-0.1334568;1.9700000286102295
1531048426842;-;-;0.4742139;1.101709;9.934542;8.407304E-4;-0.014853047;-0.009286589;-16.35;36.9;-39.45;21.908068;-6.553016;3.2097507;1020.7433;-;-;51.52506211;-0.1334568;1.9700000286102295
1531048426852;-;-;0.4742139;1.0394385;9.72857;0.004569156;-0.019646738;-0.008753957;-16.35;36.9;-39.45;21.908068;-6.553016;3.2097507;1020.7433;-;-;51.52506211;-0.1334568;1.9700000286102295
1531048426863;-;-;0.43110353;1.1208692;9.637559;-0.009811914;-0.026038323;-0.00236237;-17.85;37.65;-38.850002;21.925764;-6.541644;3.2358565;1020.7433;-;-;51.52506211;-0.1334568;1.9700000286102295
1531048426873;-;-;0.488584;0.8430469;9.924961;-0.01833403;-0.019114105;-0.00715606;-17.85;37.65;-38.850002;21.925764;-6.541644;3.2358565;1020.7433;-;-;51.52506211;-0.1334568;1.9700000286102295
1531048426883;-;-;0.42152345;1.0873389;10.269844;0.09724716;-0.035625704;-0.017276071;-16.5;37.350002;-38.4;21.93724;-6.5461187;3.2634468;1020.7433;-;-;51.52506211;-0.1334568;1.9700000286102295
1531048426893;-;-;0.48379397;1.1352394;9.81958;0.08020293;-0.096345775;-0.00236237;-16.5;37.350002;-38.4;21.93724;-6.5461187;3.2634468;1020.7433;-;-;51.52506211;-0.1334568;1.9700000286102295
1531048426903;-;-;0.48379397;1.21188;9.541759;0.039722882;-0.06811627;-0.0028950023;-17.550001;36.600002;-40.95;21.945446;-6.551032;3.2886822;1020.74384;-;-;51.52506211;-0.1334568;1.9700000286102295
1531048426913;-;-;0.57001466;1.2454102;9.570498;-0.023660352;0.03681228;-0.0055581634;-17.550001;36.600002;-40.95;21.945446;-6.551032;3.2886822;1020.74384;-;-;51.52506211;-0.1334568;1.9700000286102295
1531048426924;-;-;0.5604346;1.0442286;9.987232;-0.055618286;0.010180668;-0.021537129;-16.5;36.600002;-38.4;21.96066;-6.646669;3.3726413;1020.74384;-;-;51.52506211;-0.1334568;1.9700000286102295
1531048426933;-;-;0.5364844;1.092129;10.039923;-0.045498274;0.0037890815;-0.034852933;-16.5;36.600002;-38.4;21.96066;-6.646669;3.3726413;1020.74384;-;-;51.52506211;-0.1334568;1.9700000286102295
1531048426943;-;-;0.57001466;1.1304493;10.188414;-0.017268766;0.01763752;-0.023135025;-17.25;37.800003;-39.45;21.967958;-6.6248546;3.360846;1020.74384;-;-;51.52506211;-0.1334568;1.9700000286102295
1531048426954;-;-;0.48379397;1.1783496;10.241104;0.018417595;0.008050139;-0.009286589;-17.25;37.800003;-39.45;21.967958;-6.6248546;3.360846;1020.74384;-;-;51.52506211;-0.1334568;1.9700000286102295
1531048426963;-;-;0.53169435;1.1687696;10.092612;0.03705972;-0.017516207;-0.00236237;-17.550001;36.300003;-38.4;22.005505;-6.57382;3.3462002;1020.74384;-;-;51.52506211;-0.1334568;1.9700000286102295
1531048426974;-;-;0.4742139;1.1256592;9.944121;0.054103952;-0.016450943;0.004561849;-17.550001;36.300003;-38.4;22.005505;-6.57382;3.3462002;1020.74384;-;-;51.52506211;-0.1334568;1.9700000286102295
1531048426984;-;-;0.5364844;1.092129;9.862691;0.022678653;-0.02976675;0.0040292167;-15.6;37.800003;-39.9;22.022957;-6.581848;3.332527;1020.74384;-;-;51.52506211;-0.1334568;1.9700000286102295
1531048426994;-;-;0.64186525;1.1400293;9.78605;-0.015670868;6.0655875E-5;-0.0055581634;-15.6;37.800003;-39.9;22.022957;-6.581848;3.332527;1020.74384;-;-;51.52506211;-0.1334568;1.9700000286102295
1531048427005;-;-;0.6706055;1.2310401;9.7812605;-0.035378262;0.03042069;-0.017276071;-17.550001;38.100002;-38.4;22.029497;-6.634183;3.351502;1020.74115;-;-;51.52506211;-0.1334568;1.9700000286102295
1531048427014;-;-;0.5939649;1.1591895;10.015972;-0.062542506;0.062378623;-0.032722406;-17.550001;38.100002;-38.4;22.029497;-6.634183;3.351502;1020.74115;-;-;51.52506211;-0.1334568;1.9700000286102295
1531048427024;-;-;0.49337405;1.1639795;10.044712;-0.05135723;0.070900746;-0.025265556;-15.900001;37.5;-38.7;22.034662;-6.6310124;3.360537;1020.74115;-;-;51.52506211;-0.1334568;1.9700000286102295
1531048427035;-;-;0.5029541;1.1208692;10.044712;-0.027388778;0.06823758;-0.017808706;-15.900001;37.5;-38.7;22.034662;-6.6310124;3.360537;1020.74115;-;-;51.52506211;-0.1334568;1.9700000286102295
1531048427044;-;-;0.52690434;1.1783496;10.178833;0.008830214;0.05385651;-0.019406602;-16.5;36.600002;-39.300003;22.057064;-6.569009;3.3004496;1020.74115;-;-;51.52506211;-0.1334568;1.9700000286102295
1531048427054;-;-;0.4263135;1.1543995;10.116563;0.06848502;0.02243121;-0.0140802795;-16.5;36.600002;-39.300003;22.057064;-6.569009;3.3004496;1020.74115;-;-;51.52506211;-0.1334568;1.9700000286102295
1531048427064;-;-;0.46463382;0.97237796;9.877061;0.07540924;0.006452242;0.0050944807;-16.95;35.4;-41.100002;22.06442;-6.5301294;3.219096;1020.74115;-;-;51.52506211;-0.1334568;1.9700000286102295
1531048427098;-;-;0.56522465;1.1735597;9.642349;0.018950226;0.02935543;-0.004492899;-16.5;37.65;-41.25;22.074654;-6.592023;3.180716;1020.74115;-;-;51.52506211;-0.1334568;1.9700000286102295
1531048427101;-;-;0.5412744;1.1352394;9.690249;0.004569156;0.037877545;-0.009819221;-16.5;37.65;-41.25;22.062412;-6.6719966;3.162184;1020.7401;-;-;51.52506211;-0.1334568;1.9700000286102295
1531048427101;-;-;0.5412744;1.1352394;9.690249;0.004569156;0.037877545;-0.009819221;-16.5;37.65;-41.25;22.062412;-6.6719966;3.162184;1020.7401;-;-;51.52506211;-0.1334568;1.9700000286102295
1531048427132;-;-;0.45984375;1.1304493;10.073453;-0.00874665;0.05119335;-0.012482382;-18.300001;37.5;-40.2;22.059376;-6.7031207;3.1243272;1020.7401;-;-;51.52506211;-0.1334568;1.9700000286102295
1531048427119;-;-;0.45026368;1.1400293;9.862691;-0.021529824;0.057052303;-0.023135025;-18.300001;37.5;-40.2;22.059376;-6.7031207;3.1243272;1020.7401;-;-;51.52506211;-0.1334568;1.9700000286102295
1531048427131;-;-;0.45984375;1.1304493;10.073453;-0.00874665;0.05119335;-0.012482382;-18.300001;37.5;-40.2;22.059376;-6.7031207;3.1243272;1020.7401;-;-;51.52506211;-0.1334568;1.9700000286102295
1531048427139;-;-;0.43589357;1.1927198;9.968072;0.004036524;0.047997557;-0.018341336;-18.150002;38.100002;-41.25;22.065844;-6.684474;3.0646877;1020.7401;-;-;51.52506211;-0.1334568;1.9700000286102295
1531048427148;-;-;0.4023633;1.1160791;9.924961;0.013091272;0.03681228;-0.017276071;-18.150002;38.100002;-41.25;22.065844;-6.684474;3.0646877;1020.7401;-;-;51.52506211;-0.1334568;1.9700000286102295
1531048427180;-;-;0.44547364;1.1639795;9.83874;-0.018866662;0.035214383;-0.019939233;-18.150002;38.100002;-40.95;22.077848;-6.6789947;3.0090885;1020.7401;-;-;51.52506211;-0.1334568;1.9700000286102295
1531048427191;-;-;0.32093263;1.1352394;10.030342;-0.017268766;0.002723817;-0.026863452;-18.150002;38.100002;-40.95;22.096018;-6.69359;2.9681113;1020.7401;-;-;51.52506211;-0.1334568;1.9700000286102295
1531048427182;-;-;0.42152345;1.2166699;9.867481;-0.014072971;0.027757531;-0.015145543;-18.150002;38.100002;-40.95;22.096018;-6.69359;2.9681113;1020.7401;-;-;51.52506211;-0.1334568;1.9700000286102295
1531048427183;-;-;0.42152345;1.2166699;9.867481;-0.014072971;0.027757531;-0.015145543;-18.150002;38.100002;-40.95;22.096018;-6.69359;2.9681113;1020.7401;-;-;51.52506211;-0.1334568;1.9700000286102295
1531048427197;-;-;0.3544629;1.1352394;10.039923;-0.002887695;0.0037890815;-0.022069763;-18.150002;38.100002;-40.95;22.096018;-6.69359;2.9681113;1020.7401;-;-;51.52506211;-0.1334568;1.9700000286102295
1531048427207;-;-;0.3065625;1.1304493;10.025552;0.0024386272;-0.002069873;-0.013015014;-18.6;38.7;-42.45;22.111544;-6.684821;2.9208572;1020.7399;-;-;51.52506211;-0.1334568;1.9700000286102295
1531048427217;-;-;0.33530274;1.1208692;9.8866415;0.013091272;0.0053869784;-0.008753957;-18.6;38.7;-42.45;22.111544;-6.684821;2.9208572;1020.7399;-;-;51.52506211;-0.1334568;1.9700000286102295
1531048427228;-;-;0.42152345;1.1687696;9.905801;-0.0055508562;0.0091154035;0.010953436;-19.35;36.45;-39.9;22.13394;-6.6757836;2.90945;1020.7399;-;-;51.52506211;-0.1334568;1.9700000286102295
1531048427240;-;-;0.45026368;1.1496094;9.934542;-0.02099719;0.018170152;0.0034965845;-18.75;37.5;-41.100002;22.13394;-6.6757836;2.90945;1020.7399;-;-;51.52506211;-0.1334568;1.9700000286102295
1531048427250;-;-;0.48379397;1.1160791;9.829161;-0.034845255;0.038412705;-0.00767859;-18.75;37.5;-41.100002;22.134785;-6.685815;2.905575;1020.7399;-;-;51.52506211;-0.1334568;1.9700000286102295
1531048427261;-;-;0.43589357;1.0681788;9.829161;-0.036975782;0.04693482;-0.008743854;-20.25;37.350002;-40.95;22.127335;-6.668957;2.8888688;1020.7399;-;-;51.52506211;-0.1334568;1.9700000286102295
1531048427275;-;-;0.32093263;1.0825489;9.958491;-0.016735759;0.028292693;-0.010341751;-20.25;37.350002;-40.95;22.127335;-6.668957;2.8888688;1020.7399;-;-;51.52506211;-0.1334568;1.9700000286102295
1531048427282;-;-;0.34488282;1.0873389;9.968072;-0.016735759;0.028292693;-0.010341751;-18.0;38.25;-39.9;22.13407;-6.6328697;2.8399487;1020.7399;-;-;51.52506211;-0.1334568;1.9700000286102295
1531048427292;-;-;0.34009278;1.096919;9.877061;0.0189506;0.004324242;-0.0018196355;-18.0;38.25;-39.9;22.13407;-6.6328697;2.8399487;1020.7399;-;-;51.52506211;-0.1334568;1.9700000286102295
1531048427301;-;-;0.37362307;1.0729688;9.934542;0.025342187;0.0059221387;0.006169848;-18.75;37.5;-39.9;22.147312;-6.6055875;2.8065934;1020.7399;-;-;51.52506211;-0.1334568;1.9700000286102295
1531048427311;-;-;0.3784131;1.1064991;9.7142;0.015222175;0.006987403;0.00670248;-18.75;37.5;-39.9;22.147312;-6.6055875;2.8065934;1020.7367;-;-;51.52506211;-0.1334568;1.9700000286102295
1531048427321;-;-;0.46942386;1.1160791;9.623189;0.009363221;0.012846357;0.0051045828;-18.300001;37.800003;-41.550003;22.148376;-6.6273937;2.7920327;1020.7367;-;-;51.52506211;-0.1334568;1.9700000286102295
1531048427332;-;-;0.42152345;1.1735597;9.70941;-0.052954752;0.0053895065;-0.007145958;-18.300001;37.800003;-41.550003;22.148376;-6.6273937;2.7920327;1020.7367;-;-;51.52506211;-0.1334568;1.9700000286102295
1531048427342;-;-;0.45026368;1.1735597;9.800421;-0.07426004;0.0064547705;-0.020994397;-17.25;38.550003;-39.45;22.141026;-6.646149;2.7858174;1020.7367;-;-;51.52506211;-0.1334568;1.9700000286102295
1531048427352;-;-;0.39757326;1.0729688;10.164463;-0.08544532;-0.0057957703;-0.022592293;-17.25;38.550003;-39.45;22.141026;-6.646149;2.7858174;1020.7367;-;-;51.52506211;-0.1334568;1.9700000286102295
1531048427363;-;-;0.3305127;1.1543995;10.183623;-0.07212952;-0.006861035;-0.026320718;-18.900002;38.100002;-39.300003;22.150011;-6.5892134;2.7665513;1020.7367;-;-;51.52506211;-0.1334568;1.9700000286102295
1531048427374;-;-;0.34488282;1.1160791;10.111773;-0.04123684;-0.016448416;-0.018863866;-18.900002;38.100002;-39.300003;22.150011;-6.5892134;2.7665513;1020.7367;-;-;51.52506211;-0.1334568;1.9700000286102295
1531048427384;-;-;0.38320315;1.0442286;10.073453;-0.027388403;-0.03189475;-0.016733337;-18.300001;38.25;-40.2;22.178085;-6.4956927;2.7678847;1020.7367;-;-;51.52506211;-0.1334568;1.9700000286102295
1531048427394;-;-;0.4742139;1.1352394;10.001602;-0.0076810103;-0.04361266;-0.013537545;-18.300001;38.25;-40.2;22.178085;-6.4956927;2.7678847;1020.7367;-;-;51.52506211;-0.1334568;1.9700000286102295
1531048427404;-;-;0.39757326;1.0777588;9.872271;-0.0028873207;-0.03455791;-0.00767859;-18.75;38.550003;-41.100002;22.206657;-6.4418597;2.7910578;1020.7323;-;-;51.52506211;-0.1334568;1.9700000286102295
1531048427415;-;-;0.4167334;1.1496094;9.766891;-0.003952585;0.0011284486;-0.005548061;-18.75;38.550003;-41.100002;22.206657;-6.4418597;2.7910578;1020.7323;-;-;51.52506211;-0.1334568;1.9700000286102295
1531048427425;-;-;0.42152345;1.1783496;9.77647;-0.01460523;0.030955855;-0.009276487;-19.2;38.4;-41.7;22.232756;-6.4341507;2.8311877;1020.7323;-;-;51.52506211;-0.1334568;1.9700000286102295
1531048427435;-;-;0.42152345;1.1831397;9.7812605;-0.018866288;0.041608498;-0.008743854;-19.2;38.4;-41.7;22.232756;-6.4341507;2.8311877;1020.7323;-;-;51.52506211;-0.1334568;1.9700000286102295
1531048427447;-;-;0.38320315;1.1927198;9.929751;-0.03857368;0.04693482;-0.015135441;-19.2;37.65;-40.95;22.240297;-6.4295535;2.835644;1020.7323;-;-;51.52506211;-0.1334568;1.9700000286102295
1531048427456;-;-;0.4406836;1.1304493;9.924961;-0.035377886;0.04427166;-0.005015429;-19.2;37.65;-40.95;22.240297;-6.4295535;2.835644;1020.7323;-;-;51.52506211;-0.1334568;1.9700000286102295
1531048427467;-;-;0.39278322;1.1352394;10.020762;-0.03377999;0.025629532;-0.014602809;-18.6;38.100002;-40.5;22.244133;-6.405248;2.7923703;1020.7323;-;-;51.52506211;-0.1334568;1.9700000286102295
1531048427480;-;-;0.39278322;1.2070899;10.087823;-0.03377999;0.028825324;-0.010874383;-18.900002;37.65;-39.600002;22.246021;-6.367214;2.7401626;1020.7323;-;-;51.52506211;-0.1334568;1.9700000286102295
1531048427492;-;-;0.31135255;1.0250684;10.054293;-0.008213643;0.03681481;-2.2173882E-4;-18.900002;37.65;-39.600002;22.246021;-6.367214;2.7401626;1020.7323;-;-;51.52506211;-0.1334568;1.9700000286102295
1531048427510;-;-;0.28261232;1.0154883;9.953702;0.0040368983;0.02296637;0.015757227;-19.2;39.45;-41.25;22.253736;-6.3291783;2.7001176;1020.73645;-;-;51.52506211;-0.1334568;1.9700000286102295
1531048427521;-;-;0.26345217;1.096919;9.992022;-0.0066157463;0.021901105;-0.011407016;-19.35;38.25;-39.9;22.25616;-6.3150067;2.6660094;1020.73645;-;-;51.52506211;-0.1334568;1.9700000286102295
1531048427501;-;-;0.26345217;1.0442286;10.083033;-0.003419953;0.028825324;-0.009276487;-19.2;39.45;-41.25;22.253736;-6.3291783;2.7001176;1020.7323;-;-;51.52506211;-0.1334568;1.9700000286102295
1531048427531;-;-;0.34488282;1.1112891;9.953702;-0.014072597;0.042141132;-0.009809119;-19.35;38.25;-39.9;22.25616;-6.3150067;2.6660094;1020.73645;-;-;51.52506211;-0.1334568;1.9700000286102295
1531048427541;-;-;0.3305127;1.1448194;9.944121;-0.015670493;0.042673763;-0.02419019;-19.050001;38.550003;-41.550003;22.251968;-6.3079157;2.640706;1020.73645;-;-;51.52506211;-0.1334568;1.9700000286102295
1531048427552;-;-;0.27303225;1.101709;10.039923;-0.017801024;0.050130613;-0.023124924;-19.050001;38.550003;-41.550003;22.251968;-6.3079157;2.640706;1020.73645;-;-;51.52506211;-0.1334568;1.9700000286102295
1531048427562;-;-;0.33530274;1.0394385;10.015972;-0.009278907;0.04427166;-0.028451247;-18.6;37.050003;-39.600002;22.263227;-6.283771;2.6006382;1020.73645;-;-;51.52506211;-0.1334568;1.9700000286102295
1531048427572;-;-;0.30177248;1.1352394;9.910591;0.0104284845;0.038412705;-0.019929131;-18.6;37.050003;-39.600002;22.263227;-6.283771;2.6006382;1020.73645;-;-;51.52506211;-0.1334568;1.9700000286102295
1531048427583;-;-;0.32093263;1.1687696;9.896221;0.008830588;0.033619016;-0.018863866;-17.7;38.25;-40.2;22.288061;-6.2596273;2.5461829;1020.73645;-;-;51.52506211;-0.1334568;1.9700000286102295
1531048427593;-;-;0.34488282;1.0777588;9.7812605;-7.567918E-4;0.03255375;-0.017798603;-17.7;38.25;-40.2;22.288061;-6.2596273;2.5461829;1020.73645;-;-;51.52506211;-0.1334568;1.9700000286102295
1531048427603;-;-;0.35925296;1.1256592;9.881851;-0.0050178496;0.023499;-0.014602809;-17.7;37.2;-40.65;22.305975;-6.266385;2.496805;1020.7409;-;-;51.52506211;-0.1334568;1.9700000286102295
1531048427613;-;-;0.34967285;1.0729688;9.968072;-0.0028873207;0.009650565;-0.009276487;-17.7;37.2;-40.65;22.305975;-6.266385;2.496805;1020.7409;-;-;51.52506211;-0.1334568;1.9700000286102295
1531048427624;-;-;0.34488282;1.0777588;9.953702;-0.0076810103;0.0059221387;-0.013537545;-18.900002;37.65;-40.050003;22.317562;-6.2679954;2.4588342;1020.7409;-;-;51.52506211;-0.1334568;1.9700000286102295
1531048427634;-;-;0.42152345;1.1064991;9.982442;3.0847263E-4;0.008052668;-0.030049143;-18.900002;37.65;-40.050003;22.317562;-6.2679954;2.4588342;1020.7409;-;-;51.52506211;-0.1334568;1.9700000286102295
1531048427644;-;-;0.37362307;1.1304493;9.948912;0.0013737371;0.0048568742;-0.02419019;-19.5;39.0;-38.4;22.325058;-6.260631;2.4427238;1020.7409;-;-;51.52506211;-0.1334568;1.9700000286102295
1531048427654;-;-;0.32093263;1.1208692;9.81958;-0.011942068;0.011781094;-0.035908096;-19.5;39.0;-38.4;22.325058;-6.260631;2.4427238;1020.7409;-;-;51.52506211;-0.1334568;1.9700000286102295
1531048427664;-;-;0.364043;1.0394385;9.920172;-0.025790507;0.007520036;-0.035908096;-18.6;38.7;-42.15;22.347172;-6.2615414;2.42912;1020.7409;-;-;51.52506211;-0.1334568;1.9700000286102295
1531048427674;-;-;0.37362307;1.0681788;9.992022;-0.03324736;0.019237943;-0.032712303;-18.6;38.7;-42.15;22.347172;-6.2615414;2.42912;1020.7409;-;-;51.52506211;-0.1334568;1.9700000286102295
1531048427685;-;-;0.43589357;1.1160791;9.929751;-0.025257874;0.036282178;-0.027918614;-18.300001;39.300003;-39.45;22.380861;-6.2531385;2.4088109;1020.7409;-;-;51.52506211;-0.1334568;1.9700000286102295
1531048427695;-;-;0.43110353;1.092129;9.982442;-0.025257874;0.03681481;-0.030049143;-18.300001;39.300003;-39.45;22.380861;-6.2531385;2.4088109;1020.7409;-;-;51.52506211;-0.1334568;1.9700000286102295
1531048427705;-;-;0.44547364;1.0825489;10.001602;-0.020464184;0.037880074;-0.035908096;-19.2;38.4;-41.7;22.413752;-6.222988;2.386384;1020.74506;-;-;51.52506211;-0.1334568;1.9700000286102295
1531048427715;-;-;0.4023633;1.1112891;9.934542;-0.015137862;0.02989059;-0.032179672;-19.2;38.4;-41.7;22.413752;-6.222988;2.386384;1020.74506;-;-;51.52506211;-0.1334568;1.9700000286102295
1531048427726;-;-;0.3879932;1.0777588;9.987232;8.411049E-4;0.020303208;-0.03484283;-18.150002;39.45;-41.25;22.449106;-6.195929;2.3376417;1020.74506;-;-;51.52506211;-0.1334568;1.9700000286102295
1531048427736;-;-;0.41194338;1.0250684;10.174044;-0.008213643;0.0037916098;-0.03484283;-18.150002;39.45;-41.25;22.449106;-6.195929;2.3376417;1020.74506;-;-;51.52506211;-0.1334568;1.9700000286102295
1531048427746;-;-;0.4263135;1.0633887;10.106983;-0.005017756;-0.0047298735;-0.03057925;-20.400002;38.550003;-40.65;22.48779;-6.1755056;2.2972715;1020.74506;-;-;51.52506211;-0.1334568;1.9700000286102295
1531048427756;-;-;0.4406836;1.0825489;10.039923;0.008830681;-0.0025993448;-0.05188454;-20.400002;38.550003;-40.65;22.48779;-6.1755056;2.2972715;1020.74506;-;-;51.52506211;-0.1334568;1.9700000286102295
1531048427766;-;-;0.3065625;1.0490186;10.092612;0.0146896355;-0.0010014481;-0.045492955;-18.6;39.0;-41.25;22.527485;-6.168098;2.2802076;1020.74506;-;-;51.52506211;-0.1334568;1.9700000286102295
1531048427777;-;-;0.364043;1.0729688;10.030342;0.023211751;-0.015382518;-0.054547697;-18.6;39.0;-41.25;22.527485;-6.168098;2.2802076;1020.74506;-;-;51.52506211;-0.1334568;1.9700000286102295
1531048427786;-;-;0.27303225;1.0777588;9.901011;0.024809647;-0.018578311;-0.0561456;-17.550001;38.4;-40.050003;22.575523;-6.1790795;2.2752066;1020.74506;-;-;51.52506211;-0.1334568;1.9700000286102295
1531048427796;-;-;0.26345217;1.0538087;10.049502;0.016820164;-0.018045679;-0.061471917;-17.550001;38.4;-40.050003;22.575523;-6.1790795;2.2752066;1020.74506;-;-;51.52506211;-0.1334568;1.9700000286102295
1531048427807;-;-;0.17244141;1.0729688;10.011182;0.023211751;-0.015382518;-0.05880876;-18.6;37.65;-40.95;22.630997;-6.2069716;2.2818356;1020.7415;-;-;51.52506211;-0.1334568;1.9700000286102295
1531048427816;-;-;0.10538086;1.0633887;10.039923;0.018950693;-0.03029622;-0.065200344;-18.6;37.65;-40.95;22.630997;-6.2069716;2.2818356;1020.7415;-;-;51.52506211;-0.1334568;1.9700000286102295
1531048427826;-;-;0.014370117;1.0346485;10.183623;0.027472809;0.0027269775;-0.04602558;-18.75;39.300003;-40.65;22.69923;-6.2396245;2.2968485;1020.7415;-;-;51.52506211;-0.1334568;1.9700000286102295
1531048427836;-;-;0.18681154;1.0250684;10.140513;0.03013597;-0.019110944;-0.05880876;-18.75;39.300003;-40.65;22.69923;-6.2396245;2.2968485;1020.7415;-;-;51.52506211;-0.1334568;1.9700000286102295
1531048427846;-;-;0.100590825;1.0394385;10.154883;0.03652756;-0.009523563;-0.048156112;-20.1;37.5;-41.850002;22.764904;-6.268508;2.310617;1020.7415;-;-;51.52506211;-0.1334568;1.9700000286102295
1531048427857;-;-;0.16765137;1.0394385;10.116563;0.042386513;0.0027269775;-0.06093929;-20.1;37.5;-41.850002;22.764904;-6.268508;2.310617;1020.7415;-;-;51.52506211;-0.1334568;1.9700000286102295
1531048427867;-;-;0.2921924;1.1064991;10.015972;0.04664757;0.0027269775;-0.061471917;-20.400002;37.800003;-41.550003;22.818901;-6.307694;2.320027;1020.7415;-;-;51.52506211;-0.1334568;1.9700000286102295
1531048427878;-;-;0.27303225;1.0873389;9.987232;0.04931073;0.0021943452;-0.07532036;-19.050001;37.800003;-41.850002;22.818901;-6.307694;2.320027;1020.7415;-;-;51.52506211;-0.1334568;1.9700000286102295
1531048427887;-;-;0.22513184;1.1064991;9.915381;0.05090863;-0.016980415;-0.09183196;-19.050001;37.800003;-41.850002;22.882055;-6.355763;2.31595;1020.7415;-;-;51.52506211;-0.1334568;1.9700000286102295
1531048427897;-;-;0.23471193;1.0777588;9.848321;0.053039156;-0.023904635;-0.08490774;-19.050001;37.800003;-41.850002;22.882055;-6.355763;2.31595;1020.7415;-;-;51.52506211;-0.1334568;1.9700000286102295
1531048427907;-;-;0.2921924;1.1112891;9.81;0.024809647;-0.045209926;-0.07478773;-19.800001;38.550003;-39.0;22.96806;-6.416139;2.3092818;1020.74225;-;-;51.52506211;-0.1334568;1.9700000286102295
1531048427918;-;-;0.3065625;1.1448194;9.81958;0.026407545;-0.03935097;-0.06786351;-19.800001;38.550003;-39.0;22.96806;-6.416139;2.3092818;1020.74225;-;-;51.52506211;-0.1334568;1.9700000286102295
1531048427928;-;-;0.33530274;1.1496094;9.977652;0.030668603;-0.027100427;-0.06999404;-17.550001;38.7;-41.7;23.073622;-6.4772444;2.3293886;1020.74225;-;-;51.52506211;-0.1334568;1.9700000286102295
1531048427938;-;-;0.39757326;1.21188;9.982442;0.039190717;-0.023904635;-0.07212456;-19.5;38.4;-41.25;23.073622;-6.4772444;2.3293886;1020.74225;-;-;51.52506211;-0.1334568;1.9700000286102295
1531048427948;-;-;0.39757326;1.2166699;9.83874;0.035462294;-0.0047298735;-0.07904878;-19.5;38.4;-41.25;23.159548;-6.512807;2.3671439;1020.74225;-;-;51.52506211;-0.1334568;1.9700000286102295
1531048427958;-;-;0.32093263;1.092129;9.867481;0.03652756;0.028825957;-0.07691826;-16.800001;36.0;-38.850002;23.159548;-6.512807;2.3671439;1020.74225;-;-;51.52506211;-0.1334568;1.9700000286102295
1531048427968;-;-;0.2921924;1.1496094;9.85311;0.013091739;0.026695428;-0.06306981;-16.800001;36.0;-38.850002;23.245152;-6.5548625;2.382888;1020.74225;-;-;51.52506211;-0.1334568;1.9700000286102295
1531048427979;-;-;0.2203418;1.22625;9.82437;0.013624372;0.02989122;-0.042297162;-18.0;36.9;-41.100002;23.245152;-6.5548625;2.382888;1020.74225;-;-;51.52506211;-0.1334568;1.9700000286102295
1531048427989;-;-;0.3065625;1.1975098;9.891431;0.021613855;0.0021943452;-0.031111883;-18.0;36.9;-41.100002;23.33132;-6.593914;2.3540823;1020.74225;-;-;51.52506211;-0.1334568;1.9700000286102295
1531048427998;-;-;0.3305127;1.1879297;9.80521;0.024809647;-0.0036646093;-0.024187664;-17.85;36.0;-40.5;23.33132;-6.593914;2.3540823;1020.74225;-;-;51.52506211;-0.1334568;1.9700000286102295
1531048428008;-;-;0.43589357;1.1639795;9.72857;0.024809647;-0.0105888285;-0.032177147;-17.85;36.0;-40.5;23.387457;-6.612407;2.317693;1020.74805;-;-;51.52506211;-0.1334568;1.9700000286102295
1531048428018;-;-;0.45505372;1.1496094;9.637559;0.01788543;-0.0036646093;-0.022589767;-17.85;36.0;-40.5;23.387457;-6.612407;2.317693;1020.74805;-;-;51.52506211;-0.1334568;1.9700000286102295
1531048428029;-;-;0.4023633;1.2454102;9.70941;-0.012474608;0.013912255;-0.034307674;-18.0;35.4;-39.9;23.420923;-6.643268;2.3109179;1020.74805;-;-;51.52506211;-0.1334568;1.9700000286102295
1531048428039;-;-;0.39757326;1.1975098;9.68067;-0.031116735;0.01764068;-0.027916089;-16.95;36.15;-39.9;23.420923;-6.643268;2.3109179;1020.74805;-;-;51.52506211;-0.1334568;1.9700000286102295
1531048428049;-;-;0.39278322;1.2070899;9.733359;-0.057215713;0.018173313;-0.025252929;-16.95;36.15;-39.9;23.453794;-6.6621485;2.3097634;1020.74805;-;-;51.52506211;-0.1334568;1.9700000286102295
1531048428060;-;-;0.4023633;1.1879297;9.79563;-0.068400994;0.02243437;-0.01832871;-15.900001;36.15;-41.100002;23.453794;-6.6621485;2.3097634;1020.74805;-;-;51.52506211;-0.1334568;1.9700000286102295
1531048428070;-;-;0.4742139;1.1160791;9.733359;-0.062009405;-0.01591515;0.0024439478;-15.900001;36.15;-41.100002;23.487738;-6.626718;2.2900712;1020.74805;-;-;51.52506211;-0.1334568;1.9700000286102295
1531048428080;-;-;0.48379397;1.1879297;9.690249;-0.048693597;-0.012719357;0.006172374;-16.95;36.45;-39.0;23.487738;-6.626718;2.2900712;1020.74805;-;-;51.52506211;-0.1334568;1.9700000286102295
1531048428091;-;-;0.37362307;0.8813672;9.891431;-0.048693597;-0.026035162;0.025347134;-16.95;36.45;-39.0;23.508175;-6.550717;2.2707474;1020.74805;-;-;51.52506211;-0.1334568;1.9700000286102295
1531048428102;-;-;0.30177248;0.8861573;10.183623;0.07114865;0.052261773;0.02215134;-15.6;35.850002;-39.45;23.50261;-6.483365;2.28563;1020.74805;-;-;51.52506211;-0.1334568;1.9700000286102295
1531048428112;-;-;0.23950197;1.0202783;10.193204;0.15583718;6.381632E-5;0.03386925;-15.6;35.850002;-39.45;23.50261;-6.483365;2.28563;1020.7488;-;-;51.52506211;-0.1334568;1.9700000286102295
1531048428122;-;-;0.17244141;1.0298585;9.891431;0.14518455;-0.09474472;0.035467148;-17.1;37.050003;-38.100002;23.50261;-6.483365;2.28563;1020.7488;-;-;51.52506211;-0.1334568;1.9700000286102295
1531048428132;-;-;0.40715334;1.0538087;8.981323;-0.05401992;-0.019110944;0.10737249;-17.1;37.050003;-38.100002;23.474909;-6.466139;2.2905455;1020.7488;-;-;51.52506211;-0.1334568;1.9700000286102295
1531048428143;-;-;0.5221143;1.0298585;9.067544;-0.08810838;-0.003131977;0.104709335;-16.35;36.9;-41.100002;23.435814;-6.6099524;2.365762;1020.7488;-;-;51.52506211;-0.1334568;1.9700000286102295
1531048428152;-;-;0.7711963;1.0442286;9.627979;-0.24363698;0.070903905;0.02002081;-16.35;36.9;-41.100002;23.435814;-6.6099524;2.365762;1020.7488;-;-;51.52506211;-0.1334568;1.9700000286102295
1531048428162;-;-;0.7232959;1.1256592;9.996812;-0.26121384;0.06611021;-0.008208697;-16.5;35.25;-39.300003;23.328314;-6.547511;2.4273946;1020.7488;-;-;51.52506211;-0.1334568;1.9700000286102295
1531048428173;-;-;0.5460645;1.0681788;10.423125;-0.21647274;0.050131243;-0.021524502;-16.5;35.25;-39.300003;23.328314;-6.547511;2.4273946;1020.7488;-;-;51.52506211;-0.1334568;1.9700000286102295
1531048428183;-;-;0.5460645;1.0681788;10.423125;-0.21647274;0.050131243;-0.021524502;-16.800001;37.65;-38.850002;23.328314;-6.547511;2.4273946;1020.7488;-;-;51.52506211;-0.1334568;1.9700000286102295
1531048428193;-;-;0.23950197;1.1160791;10.724898;-0.016203033;-0.016447783;-0.009273961;-16.800001;37.65;-38.850002;23.28678;-6.284479;2.3558323;1020.7488;-;-;51.52506211;-0.1334568;1.9700000286102295
1531048428204;-;-;0.26345217;1.101709;10.375225;0.060496006;-0.08409208;0.015759753;-16.35;36.45;-37.5;23.305988;-6.0429173;2.2938058;1020.7493;-;-;51.52506211;-0.1334568;1.9700000286102295
1531048428214;-;-;0.2682422;1.0538087;10.188414;0.08819288;-0.09794051;0.032271355;-16.35;36.45;-37.5;23.305988;-6.0429173;2.2938058;1020.7493;-;-;51.52506211;-0.1334568;1.9700000286102295
1531048428224;-;-;0.244292;1.0059083;9.81;0.10150869;-0.09367946;0.0413261;-15.6;36.15;-38.7;23.305988;-6.0429173;2.2938058;1020.7493;-;-;51.52506211;-0.1334568;1.9700000286102295
1531048428234;-;-;0.3879932;0.98195803;9.532178;0.07274655;-0.057460465;0.053044006;-15.6;36.15;-38.7;23.317608;-6.0150046;2.3110697;1020.7493;-;-;51.52506211;-0.1334568;1.9700000286102295
1531048428245;-;-;0.43589357;1.0394385;9.522598;0.021613434;-0.008461144;0.042912632;-19.050001;38.850002;-40.2;23.28933;-6.1202126;2.4230669;1020.7493;-;-;51.52506211;-0.1334568;1.9700000286102295
1531048428254;-;-;0.40715334;0.96758795;9.513018;-0.024192937;0.036279965;0.03279262;-19.050001;38.850002;-40.2;23.28933;-6.1202126;2.4230669;1020.7493;-;-;51.52506211;-0.1334568;1.9700000286102295
1531048428265;-;-;0.4167334;1.0777588;9.7621;-0.05295508;0.06983579;0.024270503;-17.85;36.600002;-40.050003;23.247208;-6.195386;2.4960983;1020.7493;-;-;51.52506211;-0.1334568;1.9700000286102295
1531048428275;-;-;0.34009278;1.0585986;9.8866415;-0.0731951;0.07196632;0.022139974;-17.85;36.600002;-40.050003;23.247208;-6.195386;2.4960983;1020.7493;-;-;51.52506211;-0.1334568;1.9700000286102295
1531048428285;-;-;0.3305127;1.0729688;9.958491;-0.07532563;0.061846312;0.004030479;-19.050001;38.25;-39.9;23.21149;-6.175973;2.4632227;1020.7493;-;-;51.52506211;-0.1334568;1.9700000286102295
1531048428296;-;-;0.34009278;1.096919;10.054293;-0.06946667;0.03255154;-0.0028937396;-19.050001;38.25;-39.9;23.21149;-6.175973;2.4632227;1020.7493;-;-;51.52506211;-0.1334568;1.9700000286102295
1531048428306;-;-;0.32093263;1.0298585;10.102193;-0.051889814;-0.006863247;-0.021535868;-18.6;37.65;-39.600002;23.185432;-6.0973363;2.387376;1020.7482;-;-;51.52506211;-0.1334568;1.9700000286102295
1531048428316;-;-;0.29698244;1.0585986;10.020762;-0.047096122;-0.013254833;-0.014079017;-17.1;36.600002;-40.050003;23.185432;-6.0973363;2.387376;1020.7482;-;-;51.52506211;-0.1334568;1.9700000286102295
1531048428327;-;-;0.34967285;1.0346485;10.001602;-0.03431295;-0.021776948;-0.02899272;-17.1;36.600002;-40.050003;23.190556;-6.0177054;2.3464837;1020.7482;-;-;51.52506211;-0.1334568;1.9700000286102295
1531048428337;-;-;0.3544629;1.0490186;10.054293;-0.030051893;-0.029766433;-0.021003237;-16.650002;37.800003;-40.65;23.217249;-5.965605;2.3534281;1020.7482;-;-;51.52506211;-0.1334568;1.9700000286102295
1531048428347;-;-;0.26345217;1.0346485;10.049502;-0.021529777;-0.023907479;-0.03431904;-16.650002;37.800003;-40.65;23.217249;-5.965605;2.3534281;1020.7482;-;-;51.52506211;-0.1334568;1.9700000286102295
1531048428357;-;-;0.25866213;1.0346485;10.030342;-0.02206241;-0.021244317;-0.021003237;-16.95;36.9;-39.0;23.250217;-5.9286127;2.3821118;1020.7482;-;-;51.52506211;-0.1334568;1.9700000286102295
1531048428367;-;-;0.2921924;1.0585986;10.0063925;-0.03218242;-0.030831696;-0.021535868;-16.95;36.9;-39.0;23.250217;-5.9286127;2.3821118;1020.7482;-;-;51.52506211;-0.1334568;1.9700000286102295
1531048428378;-;-;0.30177248;1.0681788;10.015972;-0.03218242;-0.030299064;-0.026862191;-17.1;37.65;-38.850002;23.2852;-5.899907;2.409588;1020.7482;-;-;51.52506211;-0.1334568;1.9700000286102295
1531048428387;-;-;0.27303225;1.0873389;10.039923;-0.03218242;-0.02444011;-0.03911273;-17.1;37.65;-38.850002;23.2852;-5.899907;2.409588;1020.7482;-;-;51.52506211;-0.1334568;1.9700000286102295
1531048428397;-;-;0.24908204;1.1304493;10.083033;-0.038574006;-0.019113788;-0.0369822;-17.25;36.9;-39.9;23.2852;-5.899907;2.409588;1020.7482;-;-;51.52506211;-0.1334568;1.9700000286102295
1531048428407;-;-;0.22992188;1.0825489;10.140513;-0.025258202;5.9360417E-4;-0.02419903;-17.25;36.9;-39.9;23.321615;-5.8673897;2.4386241;1020.74554;-;-;51.52506211;-0.1334568;1.9700000286102295
1531048428418;-;-;0.27303225;1.0490186;10.202784;-0.030051893;-0.007928511;-0.028460087;-16.050001;37.350002;-38.850002;23.36568;-5.8252087;2.4586313;1020.74554;-;-;51.52506211;-0.1334568;1.9700000286102295
1531048428427;-;-;0.23950197;1.0633887;10.068663;-0.001822384;-0.009526407;-0.009285326;-16.050001;37.350002;-38.850002;23.36568;-5.8252087;2.4586313;1020.74554;-;-;51.52506211;-0.1334568;1.9700000286102295
1531048428438;-;-;0.16765137;1.0873389;10.044712;-0.0012897517;-0.010591673;-0.010883222;-18.150002;37.350002;-38.850002;23.395098;-5.799194;2.460261;1020.74554;-;-;51.52506211;-0.1334568;1.9700000286102295
1531048428448;-;-;0.30177248;1.0633887;10.063872;8.407772E-4;-0.032429595;0.021607341;-18.150002;37.350002;-38.850002;23.395098;-5.799194;2.460261;1020.74554;-;-;51.52506211;-0.1334568;1.9700000286102295
1531048428459;-;-;0.3065625;1.0681788;10.087823;0.009895525;-0.045212768;0.008291538;-18.6;36.300003;-40.050003;23.403349;-5.798776;2.4730995;1020.74554;-;-;51.52506211;-0.1334568;1.9700000286102295
1531048428468;-;-;0.2682422;1.0059083;10.169253;0.035461873;-0.054267514;0.015748387;-18.6;36.300003;-40.050003;23.403349;-5.798776;2.4730995;1020.74554;-;-;51.52506211;-0.1334568;1.9700000286102295
1531048428481;-;-;0.26345217;1.0442286;10.030342;0.056767162;-0.056930676;0.020542078;-18.75;38.25;-40.65;23.39197;-5.801833;2.5173693;1020.74554;-;-;51.52506211;-0.1334568;1.9700000286102295
1531048428490;-;-;0.3161426;1.1208692;9.877061;0.08659457;-0.050006457;0.0258684;-18.75;38.25;-40.65;23.39197;-5.801833;2.5173693;1020.74554;-;-;51.52506211;-0.1334568;1.9700000286102295
1531048428500;-;-;0.44547364;1.1160791;9.72378;0.07327876;-0.054267514;0.0258684;-18.6;37.350002;-40.95;23.376747;-5.849239;2.5814605;1020.74554;-;-;51.52506211;-0.1334568;1.9700000286102295
1531048428510;-;-;0.4406836;1.0585986;9.575289;0.042918723;-0.051071722;0.00882417;-18.6;37.350002;-40.95;23.376747;-5.849239;2.5814605;1020.74646;-;-;51.52506211;-0.1334568;1.9700000286102295
1531048428520;-;-;0.4742139;0.9963282;9.867481;0.017885009;-0.04095171;0.009889434;-16.35;38.25;-39.0;23.355877;-5.935079;2.6474912;1020.74646;-;-;51.52506211;-0.1334568;1.9700000286102295
1531048428531;-;-;0.4981641;1.092129;10.0063925;0.0146892145;-0.027635904;0.00882417;-16.35;38.25;-39.0;23.355877;-5.935079;2.6474912;1020.74646;-;-;51.52506211;-0.1334568;1.9700000286102295
1531048428541;-;-;0.4406836;1.0154883;10.068663;0.02534186;-0.02230958;0.0018999504;-16.800001;39.0;-39.300003;23.342333;-5.9788117;2.7048278;1020.74646;-;-;51.52506211;-0.1334568;1.9700000286102295
1531048428551;-;-;0.5364844;1.0490186;9.905801;0.043451354;-0.031896964;-0.016209546;-16.800001;39.0;-39.300003;23.342333;-5.9788117;2.7048278;1020.74646;-;-;51.52506211;-0.1334568;1.9700000286102295
1531048428561;-;-;0.5508545;1.0106983;9.70941;0.041853458;-0.04148434;-0.01514428;-18.900002;37.050003;-42.15;23.33764;-5.9980164;2.7357056;1020.74646;-;-;51.52506211;-0.1334568;1.9700000286102295
1531048428571;-;-;0.50774413;0.9915381;9.6758795;0.021080801;-0.049473826;-0.024731662;-18.900002;37.050003;-42.15;23.33764;-5.9980164;2.7357056;1020.74646;-;-;51.52506211;-0.1334568;1.9700000286102295
